[{"nom": "Acy-Romance", "cp": "08300", "dept": "08", "lat": 49.4915, "lon": 4.3269}, {"nom": "Aiglemont", "cp": "08090", "dept": "08", "lat": 49.7909, "lon": 4.7679}, {"nom": "Aire", "cp": "08190", "dept": "08", "lat": 49.4695, "lon": 4.1624}, {"nom": "Alincourt", "cp": "08310", "dept": "08", "lat": 49.4009, "lon": 4.345}, {"nom": "Alland'Huy-et-Sausseuil", "cp": "08130", "dept": "08", "lat": 49.5117, "lon": 4.5467}, {"nom": "Amagne", "cp": "08300", "dept": "08", "lat": 49.5133, "lon": 4.504}, {"nom": "Ambly-Fleury", "cp": "08130", "dept": "08", "lat": 49.4901, "lon": 4.4904}, {"nom": "Anchamps", "cp": "08500", "dept": "08", "lat": 49.9255, "lon": 4.6618}, {"nom": "Angecourt", "cp": "08450", "dept": "08", "lat": 49.6332, "lon": 4.9739}, {"nom": "Annelles", "cp": "08310", "dept": "08", "lat": 49.4341, "lon": 4.4141}, {"nom": "Antheny", "cp": "08260", "dept": "08", "lat": 49.8423, "lon": 4.3084}, {"nom": "Aouste", "cp": "08290", "dept": "08", "lat": 49.7963, "lon": 4.3101}, {"nom": "Apremont", "cp": "08250", "dept": "08", "lat": 49.259, "lon": 4.9674}, {"nom": "Ardeuil-et-Montfauxelles", "cp": "08400", "dept": "08", "lat": 49.2672, "lon": 4.7048}, {"nom": "Les Grandes-Armoises", "cp": "08390", "dept": "08", "lat": 49.5292, "lon": 4.8978}, {"nom": "Les Petites-Armoises", "cp": "08390", "dept": "08", "lat": 49.5004, "lon": 4.8292}, {"nom": "Arnicourt", "cp": "08300", "dept": "08", "lat": 49.5543, "lon": 4.34}, {"nom": "Arreux", "cp": "08090", "dept": "08", "lat": 49.8266, "lon": 4.6612}, {"nom": "Artaise-le-Vivier", "cp": "08390", "dept": "08", "lat": 49.5711, "lon": 4.8937}, {"nom": "Asfeld", "cp": "08190", "dept": "08", "lat": 49.4767, "lon": 4.1235}, {"nom": "Attigny", "cp": "08130", "dept": "08", "lat": 49.4756, "lon": 4.5915}, {"nom": "Aubigny-les-Pothées", "cp": "08150", "dept": "08", "lat": 49.7646, "lon": 4.4259}, {"nom": "Auboncourt-Vauzelles", "cp": "08270", "dept": "08", "lat": 49.5574, "lon": 4.4803}, {"nom": "Aubrives", "cp": "08320", "dept": "08", "lat": 50.0865, "lon": 4.7668}, {"nom": "Auflance", "cp": "08370", "dept": "08", "lat": 49.6153, "lon": 5.2922}, {"nom": "Auge", "cp": "08380", "dept": "08", "lat": 49.8566, "lon": 4.268}, {"nom": "Aure", "cp": "08400", "dept": "08", "lat": 49.2761, "lon": 4.6221}, {"nom": "Aussonce", "cp": "08310", "dept": "08", "lat": 49.3432, "lon": 4.3252}, {"nom": "Authe", "cp": "08240", "dept": "08", "lat": 49.4615, "lon": 4.8789}, {"nom": "Autrecourt-et-Pourron", "cp": "08210", "dept": "08", "lat": 49.6049, "lon": 5.0219}, {"nom": "Autruche", "cp": "08240", "dept": "08", "lat": 49.4525, "lon": 4.9067}, {"nom": "Autry", "cp": "08250", "dept": "08", "lat": 49.2647, "lon": 4.8311}, {"nom": "Auvillers-les-Forges", "cp": "08260", "dept": "08", "lat": 49.8671, "lon": 4.3607}, {"nom": "Avançon", "cp": "08300", "dept": "08", "lat": 49.4782, "lon": 4.2541}, {"nom": "Avaux", "cp": "08190", "dept": "08", "lat": 49.4654, "lon": 4.0685}, {"nom": "Les Ayvelles", "cp": "08000", "dept": "08", "lat": 49.7217, "lon": 4.755}, {"nom": "Baâlons", "cp": "08430", "dept": "08", "lat": 49.6011, "lon": 4.6636}, {"nom": "Balan", "cp": "08200", "dept": "08", "lat": 49.6887, "lon": 4.9644}, {"nom": "Balham", "cp": "08190", "dept": "08", "lat": 49.4915, "lon": 4.1523}, {"nom": "Ballay", "cp": "08400", "dept": "08", "lat": 49.4232, "lon": 4.756}, {"nom": "Banogne-Recouvrance", "cp": "08220", "dept": "08", "lat": 49.5711, "lon": 4.1329}, {"nom": "Barbaise", "cp": "08430", "dept": "08", "lat": 49.6775, "lon": 4.5792}, {"nom": "Barby", "cp": "08300", "dept": "08", "lat": 49.5252, "lon": 4.3144}, {"nom": "Bar-lès-Buzancy", "cp": "08240", "dept": "08", "lat": 49.4433, "lon": 4.9562}, {"nom": "Bayonville", "cp": "08240", "dept": "08", "lat": 49.3957, "lon": 5.0136}, {"nom": "Bazeilles", "cp": "08140", "dept": "08", "lat": 49.7143, "lon": 5.0269}, {"nom": "Beaumont-en-Argonne", "cp": "08210", "dept": "08", "lat": 49.5308, "lon": 5.0276}, {"nom": "Beffu-et-le-Morthomme", "cp": "08250", "dept": "08", "lat": 49.3731, "lon": 4.8933}, {"nom": "Belleville-et-Châtillon-sur-Bar", "cp": "08240", "dept": "08", "lat": 49.4624, "lon": 4.8178}, {"nom": "Belval", "cp": "08090", "dept": "08", "lat": 49.7725, "lon": 4.6398}, {"nom": "Belval-Bois-des-Dames", "cp": "08240", "dept": "08", "lat": 49.4824, "lon": 5.0462}, {"nom": "Bergnicourt", "cp": "08300", "dept": "08", "lat": 49.4119, "lon": 4.2489}, {"nom": "La Berlière", "cp": "08240", "dept": "08", "lat": 49.5265, "lon": 4.943}, {"nom": "Bertoncourt", "cp": "08300", "dept": "08", "lat": 49.5377, "lon": 4.3996}, {"nom": "La Besace", "cp": "08450", "dept": "08", "lat": 49.5541, "lon": 4.9661}, {"nom": "Biermes", "cp": "08300", "dept": "08", "lat": 49.4769, "lon": 4.3815}, {"nom": "Bièvres", "cp": "08370", "dept": "08", "lat": 49.5562, "lon": 5.2823}, {"nom": "Bignicourt", "cp": "08310", "dept": "08", "lat": 49.3902, "lon": 4.4212}, {"nom": "Blagny", "cp": "08110", "dept": "08", "lat": 49.6232, "lon": 5.1989}, {"nom": "Blanchefosse-et-Bay", "cp": "08290", "dept": "08", "lat": 49.7627, "lon": 4.2479}, {"nom": "Blanzy-la-Salonnaise", "cp": "08190", "dept": "08", "lat": 49.4851, "lon": 4.1861}, {"nom": "Blombay", "cp": "08260", "dept": "08", "lat": 49.8166, "lon": 4.4565}, {"nom": "Bossus-lès-Rumigny", "cp": "08290", "dept": "08", "lat": 49.841, "lon": 4.2556}, {"nom": "Bouconville", "cp": "08250", "dept": "08", "lat": 49.2617, "lon": 4.7707}, {"nom": "Boult-aux-Bois", "cp": "08240", "dept": "08", "lat": 49.4171, "lon": 4.8365}, {"nom": "Boulzicourt", "cp": "08410", "dept": "08", "lat": 49.6905, "lon": 4.6988}, {"nom": "Bourcq", "cp": "08400", "dept": "08", "lat": 49.3852, "lon": 4.617}, {"nom": "Bourg-Fidèle", "cp": "08230", "dept": "08", "lat": 49.892, "lon": 4.553}, {"nom": "Bouvellemont", "cp": "08430", "dept": "08", "lat": 49.5844, "lon": 4.664}, {"nom": "Bogny-sur-Meuse", "cp": "08120", "dept": "08", "lat": 49.8472, "lon": 4.7561}, {"nom": "Brécy-Brières", "cp": "08400", "dept": "08", "lat": 49.3358, "lon": 4.7585}, {"nom": "Brévilly", "cp": "08140", "dept": "08", "lat": 49.6597, "lon": 5.0812}, {"nom": "Brienne-sur-Aisne", "cp": "08190", "dept": "08", "lat": 49.4246, "lon": 4.062}, {"nom": "Brieulles-sur-Bar", "cp": "08240", "dept": "08", "lat": 49.4802, "lon": 4.865}, {"nom": "Briquenay", "cp": "08240", "dept": "08", "lat": 49.4029, "lon": 4.8699}, {"nom": "Brognon", "cp": "08380", "dept": "08", "lat": 49.9336, "lon": 4.2805}, {"nom": "Bulson", "cp": "08450", "dept": "08", "lat": 49.6276, "lon": 4.9133}, {"nom": "Buzancy", "cp": "08240", "dept": "08", "lat": 49.4174, "lon": 4.9689}, {"nom": "Carignan", "cp": "08110", "dept": "08", "lat": 49.6389, "lon": 5.1739}, {"nom": "Cauroy", "cp": "08310", "dept": "08", "lat": 49.3486, "lon": 4.4566}, {"nom": "Cernion", "cp": "08260", "dept": "08", "lat": 49.8002, "lon": 4.4265}, {"nom": "Chagny", "cp": "08430", "dept": "08", "lat": 49.5707, "lon": 4.6999}, {"nom": "Chalandry-Elaire", "cp": "08160", "dept": "08", "lat": 49.7092, "lon": 4.7571}, {"nom": "Challerange", "cp": "08400", "dept": "08", "lat": 49.3085, "lon": 4.7441}, {"nom": "Champigneulle", "cp": "08250", "dept": "08", "lat": 49.3504, "lon": 4.9319}, {"nom": "Champigneul-sur-Vence", "cp": "08430", "dept": "08", "lat": 49.7027, "lon": 4.6683}, {"nom": "Champlin", "cp": "08260", "dept": "08", "lat": 49.834, "lon": 4.3262}, {"nom": "La Chapelle", "cp": "08200", "dept": "08", "lat": 49.7547, "lon": 5.025}, {"nom": "Chappes", "cp": "08220", "dept": "08", "lat": 49.6113, "lon": 4.283}, {"nom": "Charbogne", "cp": "08130", "dept": "08", "lat": 49.5078, "lon": 4.5903}, {"nom": "Chardeny", "cp": "08400", "dept": "08", "lat": 49.4204, "lon": 4.5913}, {"nom": "Charleville-Mézières", "cp": "08000", "dept": "08", "lat": 49.7802, "lon": 4.7304}, {"nom": "Charnois", "cp": "08600", "dept": "08", "lat": 50.0986, "lon": 4.8291}, {"nom": "Château-Porcien", "cp": "08360", "dept": "08", "lat": 49.5324, "lon": 4.2482}, {"nom": "Chatel-Chéhéry", "cp": "08250", "dept": "08", "lat": 49.2807, "lon": 4.9542}, {"nom": "Le Châtelet-sur-Sormonne", "cp": "08150", "dept": "08", "lat": 49.84, "lon": 4.5175}, {"nom": "Le Châtelet-sur-Retourne", "cp": "08300", "dept": "08", "lat": 49.4113, "lon": 4.2774}, {"nom": "Chaumont-Porcien", "cp": "08220", "dept": "08", "lat": 49.6458, "lon": 4.2355}, {"nom": "Chémery-Chéhéry", "cp": "08350", "dept": "08", "lat": 49.6145, "lon": 4.8699}, {"nom": "Bairon et ses environs", "cp": "08390", "dept": "08", "lat": 49.5146, "lon": 4.7594}, {"nom": "Chesnois-Auboncourt", "cp": "08270", "dept": "08", "lat": 49.5621, "lon": 4.5633}, {"nom": "Cheveuges", "cp": "08350", "dept": "08", "lat": 49.6581, "lon": 4.8869}, {"nom": "Chevières", "cp": "08250", "dept": "08", "lat": 49.3206, "lon": 4.8926}, {"nom": "Chilly", "cp": "08260", "dept": "08", "lat": 49.8417, "lon": 4.4713}, {"nom": "Chooz", "cp": "08600", "dept": "08", "lat": 50.0924, "lon": 4.7996}, {"nom": "Chuffilly-Roche", "cp": "08130", "dept": "08", "lat": 49.4524, "lon": 4.6171}, {"nom": "Clavy-Warby", "cp": "08460", "dept": "08", "lat": 49.7431, "lon": 4.5503}, {"nom": "Cliron", "cp": "08090", "dept": "08", "lat": 49.8079, "lon": 4.6195}, {"nom": "Condé-lès-Herpy", "cp": "08360", "dept": "08", "lat": 49.5387, "lon": 4.1929}, {"nom": "Condé-lès-Autry", "cp": "08250", "dept": "08", "lat": 49.2454, "lon": 4.8546}, {"nom": "Contreuve", "cp": "08400", "dept": "08", "lat": 49.3591, "lon": 4.6165}, {"nom": "Cornay", "cp": "08250", "dept": "08", "lat": 49.3012, "lon": 4.9339}, {"nom": "Corny-Machéroménil", "cp": "08270", "dept": "08", "lat": 49.5828, "lon": 4.4482}, {"nom": "Coucy", "cp": "08300", "dept": "08", "lat": 49.5095, "lon": 4.4604}, {"nom": "Coulommes-et-Marqueny", "cp": "08130", "dept": "08", "lat": 49.4286, "lon": 4.5752}, {"nom": "La Croix-aux-Bois", "cp": "08400", "dept": "08", "lat": 49.4061, "lon": 4.7899}, {"nom": "Daigny", "cp": "08140", "dept": "08", "lat": 49.7045, "lon": 5.002}, {"nom": "Damouzy", "cp": "08090", "dept": "08", "lat": 49.8132, "lon": 4.6819}, {"nom": "Les Deux-Villes", "cp": "08110", "dept": "08", "lat": 49.6568, "lon": 5.2306}, {"nom": "Deville", "cp": "08800", "dept": "08", "lat": 49.8754, "lon": 4.6943}, {"nom": "Dom-le-Mesnil", "cp": "08160", "dept": "08", "lat": 49.684, "lon": 4.8125}, {"nom": "Dommery", "cp": "08460", "dept": "08", "lat": 49.681, "lon": 4.4818}, {"nom": "Donchery", "cp": "08350", "dept": "08", "lat": 49.732, "lon": 4.8886}, {"nom": "Doumely-Bégny", "cp": "08220", "dept": "08", "lat": 49.6337, "lon": 4.3072}, {"nom": "Doux", "cp": "08300", "dept": "08", "lat": 49.5189, "lon": 4.4294}, {"nom": "Douzy", "cp": "08140", "dept": "08", "lat": 49.6661, "lon": 5.0457}, {"nom": "Draize", "cp": "08220", "dept": "08", "lat": 49.6509, "lon": 4.333}, {"nom": "Dricourt", "cp": "08310", "dept": "08", "lat": 49.3941, "lon": 4.5216}, {"nom": "L'Écaille", "cp": "08300", "dept": "08", "lat": 49.4098, "lon": 4.2098}, {"nom": "L'Échelle", "cp": "08150", "dept": "08", "lat": 49.8038, "lon": 4.4884}, {"nom": "Écly", "cp": "08300", "dept": "08", "lat": 49.5529, "lon": 4.2841}, {"nom": "Écordal", "cp": "08130", "dept": "08", "lat": 49.5341, "lon": 4.5883}, {"nom": "Escombres-et-le-Chesnois", "cp": "08110", "dept": "08", "lat": 49.6989, "lon": 5.1268}, {"nom": "Estrebay", "cp": "08260", "dept": "08", "lat": 49.8264, "lon": 4.3459}, {"nom": "Étalle", "cp": "08260", "dept": "08", "lat": 49.8526, "lon": 4.4449}, {"nom": "Éteignières", "cp": "08260", "dept": "08", "lat": 49.8954, "lon": 4.4127}, {"nom": "Étrépigny", "cp": "08160", "dept": "08", "lat": 49.6872, "lon": 4.748}, {"nom": "Euilly-et-Lombut", "cp": "08210", "dept": "08", "lat": 49.6286, "lon": 5.1151}, {"nom": "Évigny", "cp": "08090", "dept": "08", "lat": 49.7268, "lon": 4.6736}, {"nom": "Exermont", "cp": "08250", "dept": "08", "lat": 49.2978, "lon": 5.0214}, {"nom": "Fagnon", "cp": "08090", "dept": "08", "lat": 49.7305, "lon": 4.612}, {"nom": "Faissault", "cp": "08270", "dept": "08", "lat": 49.6107, "lon": 4.5054}, {"nom": "Falaise", "cp": "08400", "dept": "08", "lat": 49.3815, "lon": 4.7441}, {"nom": "Faux", "cp": "08270", "dept": "08", "lat": 49.5378, "lon": 4.5063}, {"nom": "Fépin", "cp": "08170", "dept": "08", "lat": 50.0228, "lon": 4.7087}, {"nom": "La Férée", "cp": "08290", "dept": "08", "lat": 49.7586, "lon": 4.3037}, {"nom": "La Ferté-sur-Chiers", "cp": "08370", "dept": "08", "lat": 49.5733, "lon": 5.233}, {"nom": "Flaignes-Havys", "cp": "08260", "dept": "08", "lat": 49.825, "lon": 4.3993}, {"nom": "Fleigneux", "cp": "08200", "dept": "08", "lat": 49.7685, "lon": 4.9688}, {"nom": "Fléville", "cp": "08250", "dept": "08", "lat": 49.3081, "lon": 4.9827}, {"nom": "Fligny", "cp": "08380", "dept": "08", "lat": 49.884, "lon": 4.2699}, {"nom": "Flize", "cp": "08160", "dept": "08", "lat": 49.6718, "lon": 4.7398}, {"nom": "Floing", "cp": "08200", "dept": "08", "lat": 49.7227, "lon": 4.937}, {"nom": "Foisches", "cp": "08600", "dept": "08", "lat": 50.1291, "lon": 4.7756}, {"nom": "Fossé", "cp": "08240", "dept": "08", "lat": 49.4481, "lon": 5.0048}, {"nom": "Fraillicourt", "cp": "08220", "dept": "08", "lat": 49.6661, "lon": 4.1725}, {"nom": "Francheval", "cp": "08140", "dept": "08", "lat": 49.7231, "lon": 5.0778}, {"nom": "La Francheville", "cp": "08000", "dept": "08", "lat": 49.7263, "lon": 4.7035}, {"nom": "Le Fréty", "cp": "08290", "dept": "08", "lat": 49.734, "lon": 4.259}, {"nom": "Fromelennes", "cp": "08600", "dept": "08", "lat": 50.1138, "lon": 4.8701}, {"nom": "Fromy", "cp": "08370", "dept": "08", "lat": 49.6027, "lon": 5.2549}, {"nom": "Fumay", "cp": "08170", "dept": "08", "lat": 49.9705, "lon": 4.6612}, {"nom": "Germont", "cp": "08240", "dept": "08", "lat": 49.4338, "lon": 4.8778}, {"nom": "Gernelle", "cp": "08440", "dept": "08", "lat": 49.7747, "lon": 4.8215}, {"nom": "Gespunsart", "cp": "08700", "dept": "08", "lat": 49.8158, "lon": 4.8442}, {"nom": "Girondelle", "cp": "08260", "dept": "08", "lat": 49.8531, "lon": 4.3842}, {"nom": "Givet", "cp": "08600", "dept": "08", "lat": 50.1473, "lon": 4.8374}, {"nom": "Givonne", "cp": "08200", "dept": "08", "lat": 49.7315, "lon": 5.0021}, {"nom": "Givron", "cp": "08220", "dept": "08", "lat": 49.6546, "lon": 4.2961}, {"nom": "Givry", "cp": "08130", "dept": "08", "lat": 49.4883, "lon": 4.5344}, {"nom": "Glaire", "cp": "08200", "dept": "08", "lat": 49.717, "lon": 4.9091}, {"nom": "Gomont", "cp": "08190", "dept": "08", "lat": 49.5127, "lon": 4.1703}, {"nom": "Grandchamp", "cp": "08270", "dept": "08", "lat": 49.6518, "lon": 4.4061}, {"nom": "Grandham", "cp": "08250", "dept": "08", "lat": 49.2912, "lon": 4.8539}, {"nom": "Grandpré", "cp": "08250", "dept": "08", "lat": 49.3532, "lon": 4.8568}, {"nom": "La Grandville", "cp": "08700", "dept": "08", "lat": 49.7851, "lon": 4.8056}, {"nom": "Grivy-Loisy", "cp": "08400", "dept": "08", "lat": 49.4292, "lon": 4.6412}, {"nom": "Gruyères", "cp": "08430", "dept": "08", "lat": 49.7099, "lon": 4.6006}, {"nom": "Gué-d'Hossus", "cp": "08230", "dept": "08", "lat": 49.9559, "lon": 4.5416}, {"nom": "Guignicourt-sur-Vence", "cp": "08430", "dept": "08", "lat": 49.6879, "lon": 4.6319}, {"nom": "Guincourt", "cp": "08130", "dept": "08", "lat": 49.5576, "lon": 4.6302}, {"nom": "Hagnicourt", "cp": "08430", "dept": "08", "lat": 49.6124, "lon": 4.5808}, {"nom": "Ham-les-Moines", "cp": "08090", "dept": "08", "lat": 49.7943, "lon": 4.5882}, {"nom": "Ham-sur-Meuse", "cp": "08600", "dept": "08", "lat": 50.0867, "lon": 4.7836}, {"nom": "Hannappes", "cp": "08290", "dept": "08", "lat": 49.8149, "lon": 4.237}, {"nom": "Hannogne-Saint-Martin", "cp": "08160", "dept": "08", "lat": 49.6716, "lon": 4.8258}, {"nom": "Hannogne-Saint-Rémy", "cp": "08220", "dept": "08", "lat": 49.6053, "lon": 4.1421}, {"nom": "Haraucourt", "cp": "08450", "dept": "08", "lat": 49.6254, "lon": 4.9546}, {"nom": "Harcy", "cp": "08150", "dept": "08", "lat": 49.8475, "lon": 4.5569}, {"nom": "Hargnies", "cp": "08170", "dept": "08", "lat": 50.0017, "lon": 4.7957}, {"nom": "Harricourt", "cp": "08240", "dept": "08", "lat": 49.4389, "lon": 4.9248}, {"nom": "Haudrecy", "cp": "08090", "dept": "08", "lat": 49.7835, "lon": 4.6124}, {"nom": "Haulmé", "cp": "08800", "dept": "08", "lat": 49.8583, "lon": 4.7928}, {"nom": "Les Hautes-Rivières", "cp": "08800", "dept": "08", "lat": 49.9011, "lon": 4.8481}, {"nom": "Hauteville", "cp": "08300", "dept": "08", "lat": 49.5836, "lon": 4.2959}, {"nom": "Hauviné", "cp": "08310", "dept": "08", "lat": 49.3126, "lon": 4.4164}, {"nom": "Haybes", "cp": "08170", "dept": "08", "lat": 49.994, "lon": 4.7279}, {"nom": "Herbeuval", "cp": "08370", "dept": "08", "lat": 49.6015, "lon": 5.3544}, {"nom": "Herpy-l'Arlésienne", "cp": "08360", "dept": "08", "lat": 49.5243, "lon": 4.1855}, {"nom": "Hierges", "cp": "08320", "dept": "08", "lat": 50.0998, "lon": 4.735}, {"nom": "La Horgne", "cp": "08430", "dept": "08", "lat": 49.6248, "lon": 4.6747}, {"nom": "Houdilcourt", "cp": "08190", "dept": "08", "lat": 49.4239, "lon": 4.1255}, {"nom": "Houldizy", "cp": "08090", "dept": "08", "lat": 49.8123, "lon": 4.6721}, {"nom": "Illy", "cp": "08200", "dept": "08", "lat": 49.7581, "lon": 4.9788}, {"nom": "Imécourt", "cp": "08240", "dept": "08", "lat": 49.3724, "lon": 4.9752}, {"nom": "Inaumont", "cp": "08300", "dept": "08", "lat": 49.5617, "lon": 4.3219}, {"nom": "Issancourt-et-Rumel", "cp": "08440", "dept": "08", "lat": 49.758, "lon": 4.8281}, {"nom": "Jandun", "cp": "08430", "dept": "08", "lat": 49.6736, "lon": 4.5626}, {"nom": "Joigny-sur-Meuse", "cp": "08700", "dept": "08", "lat": 49.8325, "lon": 4.765}, {"nom": "Jonval", "cp": "08130", "dept": "08", "lat": 49.5685, "lon": 4.6629}, {"nom": "Juniville", "cp": "08310", "dept": "08", "lat": 49.4007, "lon": 4.378}, {"nom": "Justine-Herbigny", "cp": "08270", "dept": "08", "lat": 49.6034, "lon": 4.3272}, {"nom": "Laifour", "cp": "08800", "dept": "08", "lat": 49.903, "lon": 4.6917}, {"nom": "Lalobbe", "cp": "08460", "dept": "08", "lat": 49.6704, "lon": 4.3678}, {"nom": "Lametz", "cp": "08130", "dept": "08", "lat": 49.5243, "lon": 4.6927}, {"nom": "Lançon", "cp": "08250", "dept": "08", "lat": 49.2765, "lon": 4.8881}, {"nom": "Landres-et-Saint-Georges", "cp": "08240", "dept": "08", "lat": 49.3504, "lon": 5.01}, {"nom": "Landrichamps", "cp": "08600", "dept": "08", "lat": 50.08, "lon": 4.8283}, {"nom": "Launois-sur-Vence", "cp": "08430", "dept": "08", "lat": 49.6664, "lon": 4.526}, {"nom": "Laval-Morency", "cp": "08150", "dept": "08", "lat": 49.8332, "lon": 4.4938}, {"nom": "Leffincourt", "cp": "08310", "dept": "08", "lat": 49.385, "lon": 4.5495}, {"nom": "Lépron-les-Vallées", "cp": "08150", "dept": "08", "lat": 49.7483, "lon": 4.4573}, {"nom": "Létanne", "cp": "08210", "dept": "08", "lat": 49.5418, "lon": 5.0777}, {"nom": "Liart", "cp": "08290", "dept": "08", "lat": 49.7608, "lon": 4.3426}, {"nom": "Linay", "cp": "08110", "dept": "08", "lat": 49.6172, "lon": 5.2305}, {"nom": "Liry", "cp": "08400", "dept": "08", "lat": 49.3071, "lon": 4.642}, {"nom": "Logny-Bogny", "cp": "08150", "dept": "08", "lat": 49.7739, "lon": 4.3865}, {"nom": "Longwé", "cp": "08400", "dept": "08", "lat": 49.3862, "lon": 4.797}, {"nom": "Lonny", "cp": "08150", "dept": "08", "lat": 49.815, "lon": 4.5838}, {"nom": "Lucquy", "cp": "08300", "dept": "08", "lat": 49.5382, "lon": 4.4759}, {"nom": "Lumes", "cp": "08440", "dept": "08", "lat": 49.7338, "lon": 4.7823}, {"nom": "Machault", "cp": "08310", "dept": "08", "lat": 49.3535, "lon": 4.5053}, {"nom": "Maisoncelle-et-Villers", "cp": "08450", "dept": "08", "lat": 49.5874, "lon": 4.9159}, {"nom": "Malandry", "cp": "08370", "dept": "08", "lat": 49.5747, "lon": 5.1841}, {"nom": "Manre", "cp": "08400", "dept": "08", "lat": 49.2568, "lon": 4.6535}, {"nom": "Maranwez", "cp": "08460", "dept": "08", "lat": 49.7272, "lon": 4.3447}, {"nom": "Marby", "cp": "08260", "dept": "08", "lat": 49.8355, "lon": 4.4276}, {"nom": "Marcq", "cp": "08250", "dept": "08", "lat": 49.3141, "lon": 4.9199}, {"nom": "Margny", "cp": "08370", "dept": "08", "lat": 49.6187, "lon": 5.3583}, {"nom": "Margut", "cp": "08370", "dept": "08", "lat": 49.58, "lon": 5.2691}, {"nom": "Marlemont", "cp": "08290", "dept": "08", "lat": 49.7463, "lon": 4.3786}, {"nom": "Marquigny", "cp": "08390", "dept": "08", "lat": 49.5493, "lon": 4.7033}, {"nom": "Mars-sous-Bourcq", "cp": "08400", "dept": "08", "lat": 49.3992, "lon": 4.6418}, {"nom": "Marvaux-Vieux", "cp": "08400", "dept": "08", "lat": 49.2874, "lon": 4.691}, {"nom": "Matton-et-Clémency", "cp": "08110", "dept": "08", "lat": 49.6743, "lon": 5.2309}, {"nom": "Maubert-Fontaine", "cp": "08260", "dept": "08", "lat": 49.8833, "lon": 4.4347}, {"nom": "Mazerny", "cp": "08430", "dept": "08", "lat": 49.6089, "lon": 4.6195}, {"nom": "Les Mazures", "cp": "08500", "dept": "08", "lat": 49.8959, "lon": 4.6372}, {"nom": "Ménil-Annelles", "cp": "08310", "dept": "08", "lat": 49.4346, "lon": 4.4472}, {"nom": "Ménil-Lépinois", "cp": "08310", "dept": "08", "lat": 49.3718, "lon": 4.29}, {"nom": "Mesmont", "cp": "08270", "dept": "08", "lat": 49.6153, "lon": 4.4002}, {"nom": "Messincourt", "cp": "08110", "dept": "08", "lat": 49.6913, "lon": 5.1488}, {"nom": "Mogues", "cp": "08110", "dept": "08", "lat": 49.6629, "lon": 5.2862}, {"nom": "Moiry", "cp": "08370", "dept": "08", "lat": 49.6001, "lon": 5.2794}, {"nom": "Mondigny", "cp": "08430", "dept": "08", "lat": 49.7143, "lon": 4.6387}, {"nom": "Montcheutin", "cp": "08250", "dept": "08", "lat": 49.2893, "lon": 4.8037}, {"nom": "Montcornet", "cp": "08090", "dept": "08", "lat": 49.836, "lon": 4.655}, {"nom": "Montcy-Notre-Dame", "cp": "08090", "dept": "08", "lat": 49.791, "lon": 4.7439}, {"nom": "Montgon", "cp": "08390", "dept": "08", "lat": 49.5157, "lon": 4.717}, {"nom": "Monthermé", "cp": "08800", "dept": "08", "lat": 49.8996, "lon": 4.7453}, {"nom": "Monthois", "cp": "08400", "dept": "08", "lat": 49.3112, "lon": 4.7094}, {"nom": "Montigny-sur-Meuse", "cp": "08170", "dept": "08", "lat": 50.0491, "lon": 4.7098}, {"nom": "Montigny-sur-Vence", "cp": "08430", "dept": "08", "lat": 49.6473, "lon": 4.6104}, {"nom": "Mont-Laurent", "cp": "08130", "dept": "08", "lat": 49.463, "lon": 4.4828}, {"nom": "Montmeillant", "cp": "08220", "dept": "08", "lat": 49.7001, "lon": 4.3278}, {"nom": "Mont-Saint-Martin", "cp": "08400", "dept": "08", "lat": 49.3317, "lon": 4.6421}, {"nom": "Mont-Saint-Remy", "cp": "08310", "dept": "08", "lat": 49.3881, "lon": 4.4753}, {"nom": "Mouron", "cp": "08250", "dept": "08", "lat": 49.3161, "lon": 4.7817}, {"nom": "Mouzon", "cp": "08210", "dept": "08", "lat": 49.5978, "lon": 5.0752}, {"nom": "Murtin-et-Bogny", "cp": "08150", "dept": "08", "lat": 49.8108, "lon": 4.5419}, {"nom": "Nanteuil-sur-Aisne", "cp": "08300", "dept": "08", "lat": 49.5014, "lon": 4.2976}, {"nom": "Neuflize", "cp": "08300", "dept": "08", "lat": 49.405, "lon": 4.311}, {"nom": "Neufmaison", "cp": "08460", "dept": "08", "lat": 49.758, "lon": 4.5116}, {"nom": "Neufmanil", "cp": "08700", "dept": "08", "lat": 49.8255, "lon": 4.8048}, {"nom": "La Neuville-à-Maire", "cp": "08450", "dept": "08", "lat": 49.5768, "lon": 4.8528}, {"nom": "La Neuville-aux-Joûtes", "cp": "08380", "dept": "08", "lat": 49.9325, "lon": 4.2428}, {"nom": "Neuville-lez-Beaulieu", "cp": "08380", "dept": "08", "lat": 49.9048, "lon": 4.3565}, {"nom": "La Neuville-en-Tourne-à-Fuy", "cp": "08310", "dept": "08", "lat": 49.3461, "lon": 4.3965}, {"nom": "Neuville-Day", "cp": "08130", "dept": "08", "lat": 49.503, "lon": 4.6952}, {"nom": "Neuville-lès-This", "cp": "08090", "dept": "08", "lat": 49.7307, "lon": 4.5914}, {"nom": "La Neuville-lès-Wasigny", "cp": "08270", "dept": "08", "lat": 49.6497, "lon": 4.3618}, {"nom": "Neuvizy", "cp": "08430", "dept": "08", "lat": 49.6258, "lon": 4.5382}, {"nom": "Noirval", "cp": "08400", "dept": "08", "lat": 49.4573, "lon": 4.7948}, {"nom": "Nouart", "cp": "08240", "dept": "08", "lat": 49.4479, "lon": 5.0596}, {"nom": "Nouvion-sur-Meuse", "cp": "08160", "dept": "08", "lat": 49.7122, "lon": 4.7963}, {"nom": "Nouzonville", "cp": "08700", "dept": "08", "lat": 49.8174, "lon": 4.7538}, {"nom": "Novion-Porcien", "cp": "08270", "dept": "08", "lat": 49.5946, "lon": 4.4342}, {"nom": "Novy-Chevrières", "cp": "08300", "dept": "08", "lat": 49.5443, "lon": 4.4406}, {"nom": "Noyers-Pont-Maugis", "cp": "08350", "dept": "08", "lat": 49.6571, "lon": 4.9318}, {"nom": "Oches", "cp": "08240", "dept": "08", "lat": 49.509, "lon": 4.9265}, {"nom": "Olizy-Primat", "cp": "08250", "dept": "08", "lat": 49.3568, "lon": 4.7845}, {"nom": "Omicourt", "cp": "08450", "dept": "08", "lat": 49.6279, "lon": 4.8271}, {"nom": "Omont", "cp": "08430", "dept": "08", "lat": 49.5921, "lon": 4.7365}, {"nom": "Osnes", "cp": "08110", "dept": "08", "lat": 49.6597, "lon": 5.1561}, {"nom": "Pauvres", "cp": "08310", "dept": "08", "lat": 49.4131, "lon": 4.4996}, {"nom": "Perthes", "cp": "08300", "dept": "08", "lat": 49.4487, "lon": 4.3605}, {"nom": "Poilcourt-Sydney", "cp": "08190", "dept": "08", "lat": 49.4206, "lon": 4.095}, {"nom": "Poix-Terron", "cp": "08430", "dept": "08", "lat": 49.6433, "lon": 4.656}, {"nom": "Pouru-aux-Bois", "cp": "08140", "dept": "08", "lat": 49.7137, "lon": 5.0982}, {"nom": "Pouru-Saint-Remy", "cp": "08140", "dept": "08", "lat": 49.6793, "lon": 5.0894}, {"nom": "Prez", "cp": "08290", "dept": "08", "lat": 49.8016, "lon": 4.3612}, {"nom": "Prix-lès-Mézières", "cp": "08000", "dept": "08", "lat": 49.7474, "lon": 4.6817}, {"nom": "Puilly-et-Charbeaux", "cp": "08370", "dept": "08", "lat": 49.6377, "lon": 5.2742}, {"nom": "Puiseux", "cp": "08270", "dept": "08", "lat": 49.5947, "lon": 4.5367}, {"nom": "Pure", "cp": "08110", "dept": "08", "lat": 49.6807, "lon": 5.1805}, {"nom": "Quatre-Champs", "cp": "08400", "dept": "08", "lat": 49.4488, "lon": 4.7794}, {"nom": "Quilly", "cp": "08400", "dept": "08", "lat": 49.405, "lon": 4.5858}, {"nom": "Raillicourt", "cp": "08430", "dept": "08", "lat": 49.6511, "lon": 4.5909}, {"nom": "Rancennes", "cp": "08600", "dept": "08", "lat": 50.1221, "lon": 4.8253}, {"nom": "Raucourt-et-Flaba", "cp": "08450", "dept": "08", "lat": 49.5877, "lon": 4.966}, {"nom": "Regniowez", "cp": "08230", "dept": "08", "lat": 49.9252, "lon": 4.4168}, {"nom": "Remaucourt", "cp": "08220", "dept": "08", "lat": 49.6022, "lon": 4.2283}, {"nom": "Remilly-Aillicourt", "cp": "08450", "dept": "08", "lat": 49.6469, "lon": 4.9926}, {"nom": "Remilly-les-Pothées", "cp": "08150", "dept": "08", "lat": 49.7832, "lon": 4.5516}, {"nom": "Renneville", "cp": "08220", "dept": "08", "lat": 49.6529, "lon": 4.14}, {"nom": "Renwez", "cp": "08150", "dept": "08", "lat": 49.8469, "lon": 4.606}, {"nom": "Rethel", "cp": "08300", "dept": "08", "lat": 49.5147, "lon": 4.3814}, {"nom": "Revin", "cp": "08500", "dept": "08", "lat": 49.9339, "lon": 4.6931}, {"nom": "Rilly-sur-Aisne", "cp": "08130", "dept": "08", "lat": 49.484, "lon": 4.6344}, {"nom": "Rimogne", "cp": "08150", "dept": "08", "lat": 49.8405, "lon": 4.5357}, {"nom": "Rocquigny", "cp": "08220", "dept": "08", "lat": 49.6982, "lon": 4.2437}, {"nom": "Rocroi", "cp": "08230", "dept": "08", "lat": 49.9277, "lon": 4.5548}, {"nom": "Roizy", "cp": "08190", "dept": "08", "lat": 49.4268, "lon": 4.1909}, {"nom": "La Romagne", "cp": "08220", "dept": "08", "lat": 49.6869, "lon": 4.3015}, {"nom": "Rouvroy-sur-Audry", "cp": "08150", "dept": "08", "lat": 49.7855, "lon": 4.4996}, {"nom": "Rubigny", "cp": "08220", "dept": "08", "lat": 49.6891, "lon": 4.2058}, {"nom": "Rumigny", "cp": "08290", "dept": "08", "lat": 49.8044, "lon": 4.266}, {"nom": "La Sabotterie", "cp": "08130", "dept": "08", "lat": 49.5451, "lon": 4.6718}, {"nom": "Sachy", "cp": "08110", "dept": "08", "lat": 49.6695, "lon": 5.1273}, {"nom": "Sailly", "cp": "08110", "dept": "08", "lat": 49.5984, "lon": 5.1758}, {"nom": "Saint-Aignan", "cp": "08350", "dept": "08", "lat": 49.6568, "lon": 4.8527}, {"nom": "Saint-Clément-à-Arnes", "cp": "08310", "dept": "08", "lat": 49.2964, "lon": 4.433}, {"nom": "Saint-Étienne-à-Arnes", "cp": "08310", "dept": "08", "lat": 49.3072, "lon": 4.5111}, {"nom": "Saint-Fergeux", "cp": "08360", "dept": "08", "lat": 49.5764, "lon": 4.2027}, {"nom": "Saint-Germainmont", "cp": "08190", "dept": "08", "lat": 49.5176, "lon": 4.1313}, {"nom": "Saint-Jean-aux-Bois", "cp": "08220", "dept": "08", "lat": 49.7229, "lon": 4.3068}, {"nom": "Saint-Juvin", "cp": "08250", "dept": "08", "lat": 49.3392, "lon": 4.9457}, {"nom": "Saint-Lambert-et-Mont-de-Jeux", "cp": "08130", "dept": "08", "lat": 49.498, "lon": 4.6233}, {"nom": "Saint-Laurent", "cp": "08090", "dept": "08", "lat": 49.7573, "lon": 4.7789}, {"nom": "Saint-Loup-en-Champagne", "cp": "08300", "dept": "08", "lat": 49.4526, "lon": 4.2165}, {"nom": "Saint-Loup-Terrier", "cp": "08130", "dept": "08", "lat": 49.5706, "lon": 4.6183}, {"nom": "Saint-Marceau", "cp": "08160", "dept": "08", "lat": 49.7063, "lon": 4.72}, {"nom": "Saint-Marcel", "cp": "08460", "dept": "08", "lat": 49.7678, "lon": 4.5696}, {"nom": "Sainte-Marie", "cp": "08400", "dept": "08", "lat": 49.3726, "lon": 4.6737}, {"nom": "Saint-Menges", "cp": "08200", "dept": "08", "lat": 49.763, "lon": 4.9264}, {"nom": "Saint-Morel", "cp": "08400", "dept": "08", "lat": 49.3401, "lon": 4.7026}, {"nom": "Saint-Pierre-à-Arnes", "cp": "08310", "dept": "08", "lat": 49.2983, "lon": 4.4657}, {"nom": "Saint-Pierremont", "cp": "08240", "dept": "08", "lat": 49.4938, "lon": 4.949}, {"nom": "Saint-Pierre-sur-Vence", "cp": "08430", "dept": "08", "lat": 49.702, "lon": 4.6833}, {"nom": "Saint-Quentin-le-Petit", "cp": "08220", "dept": "08", "lat": 49.5868, "lon": 4.0817}, {"nom": "Saint-Remy-le-Petit", "cp": "08300", "dept": "08", "lat": 49.3995, "lon": 4.2316}, {"nom": "Sainte-Vaubourg", "cp": "08130", "dept": "08", "lat": 49.4594, "lon": 4.5909}, {"nom": "Sapogne-sur-Marche", "cp": "08370", "dept": "08", "lat": 49.6007, "lon": 5.3133}, {"nom": "Sapogne-et-Feuchères", "cp": "08160", "dept": "08", "lat": 49.6619, "lon": 4.8045}, {"nom": "Saulces-Champenoises", "cp": "08130", "dept": "08", "lat": 49.447, "lon": 4.5056}, {"nom": "Saulces-Monclin", "cp": "08270", "dept": "08", "lat": 49.5732, "lon": 4.5094}, {"nom": "Sault-lès-Rethel", "cp": "08300", "dept": "08", "lat": 49.4905, "lon": 4.3552}, {"nom": "Sault-Saint-Remy", "cp": "08190", "dept": "08", "lat": 49.4236, "lon": 4.1568}, {"nom": "Sauville", "cp": "08390", "dept": "08", "lat": 49.5514, "lon": 4.7889}, {"nom": "Savigny-sur-Aisne", "cp": "08400", "dept": "08", "lat": 49.36, "lon": 4.7211}, {"nom": "Séchault", "cp": "08250", "dept": "08", "lat": 49.2716, "lon": 4.736}, {"nom": "Sécheval", "cp": "08150", "dept": "08", "lat": 49.8613, "lon": 4.6707}, {"nom": "Sedan", "cp": "08200", "dept": "08", "lat": 49.6993, "lon": 4.9269}, {"nom": "Semide", "cp": "08400", "dept": "08", "lat": 49.3266, "lon": 4.5771}, {"nom": "Semuy", "cp": "08130", "dept": "08", "lat": 49.4971, "lon": 4.661}, {"nom": "Senuc", "cp": "08250", "dept": "08", "lat": 49.3082, "lon": 4.8438}, {"nom": "Seraincourt", "cp": "08220", "dept": "08", "lat": 49.6184, "lon": 4.1849}, {"nom": "Sery", "cp": "08270", "dept": "08", "lat": 49.5905, "lon": 4.3568}, {"nom": "Seuil", "cp": "08300", "dept": "08", "lat": 49.4764, "lon": 4.4495}, {"nom": "Sévigny-la-Forêt", "cp": "08230", "dept": "08", "lat": 49.8792, "lon": 4.4724}, {"nom": "Sévigny-Waleppe", "cp": "08220", "dept": "08", "lat": 49.6162, "lon": 4.086}, {"nom": "Signy-l'Abbaye", "cp": "08460", "dept": "08", "lat": 49.7015, "lon": 4.4004}, {"nom": "Signy-le-Petit", "cp": "08380", "dept": "08", "lat": 49.9249, "lon": 4.2939}, {"nom": "Signy-Montlibert", "cp": "08370", "dept": "08", "lat": 49.5788, "lon": 5.3158}, {"nom": "Singly", "cp": "08430", "dept": "08", "lat": 49.6445, "lon": 4.7097}, {"nom": "Sommauthe", "cp": "08240", "dept": "08", "lat": 49.5028, "lon": 4.9872}, {"nom": "Sommerance", "cp": "08250", "dept": "08", "lat": 49.3271, "lon": 4.9945}, {"nom": "Son", "cp": "08300", "dept": "08", "lat": 49.5792, "lon": 4.2705}, {"nom": "Sorbon", "cp": "08300", "dept": "08", "lat": 49.5527, "lon": 4.3639}, {"nom": "Sorcy-Bauthémont", "cp": "08270", "dept": "08", "lat": 49.5411, "lon": 4.5353}, {"nom": "Sormonne", "cp": "08150", "dept": "08", "lat": 49.8086, "lon": 4.5648}, {"nom": "Stonne", "cp": "08390", "dept": "08", "lat": 49.5508, "lon": 4.927}, {"nom": "Sugny", "cp": "08400", "dept": "08", "lat": 49.3539, "lon": 4.6585}, {"nom": "Sury", "cp": "08090", "dept": "08", "lat": 49.7665, "lon": 4.6115}, {"nom": "Suzanne", "cp": "08130", "dept": "08", "lat": 49.5193, "lon": 4.6409}, {"nom": "Sy", "cp": "08390", "dept": "08", "lat": 49.515, "lon": 4.8742}, {"nom": "Tagnon", "cp": "08300", "dept": "08", "lat": 49.4511, "lon": 4.2902}, {"nom": "Taillette", "cp": "08230", "dept": "08", "lat": 49.9259, "lon": 4.4765}, {"nom": "Tailly", "cp": "08240", "dept": "08", "lat": 49.4156, "lon": 5.0666}, {"nom": "Taizy", "cp": "08360", "dept": "08", "lat": 49.512, "lon": 4.2555}, {"nom": "Tannay-le-Mont-Dieu", "cp": "08390", "dept": "08", "lat": 49.5379, "lon": 4.8499}, {"nom": "Tarzy", "cp": "08380", "dept": "08", "lat": 49.8745, "lon": 4.2978}, {"nom": "Tétaigne", "cp": "08110", "dept": "08", "lat": 49.6506, "lon": 5.115}, {"nom": "Thelonne", "cp": "08350", "dept": "08", "lat": 49.6484, "lon": 4.9454}, {"nom": "Thénorgues", "cp": "08240", "dept": "08", "lat": 49.4059, "lon": 4.9251}, {"nom": "Thilay", "cp": "08800", "dept": "08", "lat": 49.903, "lon": 4.8096}, {"nom": "Thin-le-Moutier", "cp": "08460", "dept": "08", "lat": 49.7162, "lon": 4.5134}, {"nom": "This", "cp": "08090", "dept": "08", "lat": 49.7512, "lon": 4.6096}, {"nom": "Le Thour", "cp": "08190", "dept": "08", "lat": 49.5458, "lon": 4.0905}, {"nom": "Thugny-Trugny", "cp": "08300", "dept": "08", "lat": 49.4756, "lon": 4.425}, {"nom": "Toges", "cp": "08400", "dept": "08", "lat": 49.4256, "lon": 4.785}, {"nom": "Touligny", "cp": "08430", "dept": "08", "lat": 49.6785, "lon": 4.6168}, {"nom": "Tourcelles-Chaumont", "cp": "08400", "dept": "08", "lat": 49.3986, "lon": 4.5995}, {"nom": "Tournavaux", "cp": "08800", "dept": "08", "lat": 49.8743, "lon": 4.7827}, {"nom": "Tournes", "cp": "08090", "dept": "08", "lat": 49.7991, "lon": 4.6366}, {"nom": "Tourteron", "cp": "08130", "dept": "08", "lat": 49.5428, "lon": 4.6399}, {"nom": "Tremblois-lès-Carignan", "cp": "08110", "dept": "08", "lat": 49.6666, "lon": 5.264}, {"nom": "Tremblois-lès-Rocroi", "cp": "08150", "dept": "08", "lat": 49.8438, "lon": 4.4994}, {"nom": "Vandy", "cp": "08400", "dept": "08", "lat": 49.4428, "lon": 4.7195}, {"nom": "Vaux-Champagne", "cp": "08130", "dept": "08", "lat": 49.449, "lon": 4.5517}, {"nom": "Vaux-en-Dieulet", "cp": "08240", "dept": "08", "lat": 49.4803, "lon": 4.9936}, {"nom": "Vaux-lès-Mouron", "cp": "08250", "dept": "08", "lat": 49.2976, "lon": 4.787}, {"nom": "Vaux-lès-Rubigny", "cp": "08220", "dept": "08", "lat": 49.6881, "lon": 4.1835}, {"nom": "Vaux-lès-Mouzon", "cp": "08210", "dept": "08", "lat": 49.6009, "lon": 5.14}, {"nom": "Vaux-Montreuil", "cp": "08270", "dept": "08", "lat": 49.5858, "lon": 4.5546}, {"nom": "Vaux-Villaine", "cp": "08150", "dept": "08", "lat": 49.7673, "lon": 4.4738}, {"nom": "Vendresse", "cp": "08160", "dept": "08", "lat": 49.6077, "lon": 4.7889}, {"nom": "Verpel", "cp": "08240", "dept": "08", "lat": 49.3811, "lon": 4.9266}, {"nom": "Verrières", "cp": "08390", "dept": "08", "lat": 49.4944, "lon": 4.8854}, {"nom": "Viel-Saint-Remy", "cp": "08270", "dept": "08", "lat": 49.633, "lon": 4.4822}, {"nom": "Vieux-lès-Asfeld", "cp": "08190", "dept": "08", "lat": 49.4539, "lon": 4.1102}, {"nom": "Villers-devant-le-Thour", "cp": "08190", "dept": "08", "lat": 49.5048, "lon": 4.0797}, {"nom": "Villers-devant-Mouzon", "cp": "08210", "dept": "08", "lat": 49.6291, "lon": 5.0145}, {"nom": "Villers-le-Tilleul", "cp": "08430", "dept": "08", "lat": 49.6268, "lon": 4.7272}, {"nom": "Villers-le-Tourneur", "cp": "08430", "dept": "08", "lat": 49.6219, "lon": 4.5606}, {"nom": "Villers-Semeuse", "cp": "08000", "dept": "08", "lat": 49.7404, "lon": 4.7537}, {"nom": "Villers-sur-Bar", "cp": "08350", "dept": "08", "lat": 49.682, "lon": 4.8553}, {"nom": "Villers-sur-le-Mont", "cp": "08430", "dept": "08", "lat": 49.6646, "lon": 4.6767}, {"nom": "Ville-sur-Lumes", "cp": "08440", "dept": "08", "lat": 49.7549, "lon": 4.7937}, {"nom": "Ville-sur-Retourne", "cp": "08310", "dept": "08", "lat": 49.3952, "lon": 4.4488}, {"nom": "Villy", "cp": "08370", "dept": "08", "lat": 49.5925, "lon": 5.221}, {"nom": "Vireux-Molhain", "cp": "08320", "dept": "08", "lat": 50.0772, "lon": 4.7037}, {"nom": "Vireux-Wallerand", "cp": "08320", "dept": "08", "lat": 50.0565, "lon": 4.7512}, {"nom": "Vivier-au-Court", "cp": "08440", "dept": "08", "lat": 49.7325, "lon": 4.8217}, {"nom": "Voncq", "cp": "08400", "dept": "08", "lat": 49.4733, "lon": 4.6906}, {"nom": "Vouziers", "cp": "08400", "dept": "08", "lat": 49.4194, "lon": 4.7073}, {"nom": "Vrigne aux Bois", "cp": "08330", "dept": "08", "lat": 49.7554, "lon": 4.8652}, {"nom": "Vrigne-Meuse", "cp": "08350", "dept": "08", "lat": 49.706, "lon": 4.8337}, {"nom": "Wadelincourt", "cp": "08200", "dept": "08", "lat": 49.6805, "lon": 4.9305}, {"nom": "Wagnon", "cp": "08270", "dept": "08", "lat": 49.6442, "lon": 4.455}, {"nom": "Warcq", "cp": "08000", "dept": "08", "lat": 49.7672, "lon": 4.6663}, {"nom": "Warnécourt", "cp": "08090", "dept": "08", "lat": 49.7336, "lon": 4.6553}, {"nom": "Wasigny", "cp": "08270", "dept": "08", "lat": 49.6292, "lon": 4.3617}, {"nom": "Wignicourt", "cp": "08270", "dept": "08", "lat": 49.5868, "lon": 4.5832}, {"nom": "Williers", "cp": "08110", "dept": "08", "lat": 49.6709, "lon": 5.3038}, {"nom": "Yoncq", "cp": "08210", "dept": "08", "lat": 49.5644, "lon": 5.017}, {"nom": "Yvernaumont", "cp": "08430", "dept": "08", "lat": 49.6762, "lon": 4.6618}]