[{"nom": "Agassac", "cp": "31230", "dept": "31", "lat": 43.374, "lon": 0.8866}, {"nom": "Aignes", "cp": "31550", "dept": "31", "lat": 43.3334, "lon": 1.5866}, {"nom": "Aigrefeuille", "cp": "31280", "dept": "31", "lat": 43.5684, "lon": 1.5845}, {"nom": "Ayguesvives", "cp": "31450", "dept": "31", "lat": 43.4236, "lon": 1.5965}, {"nom": "Alan", "cp": "31420", "dept": "31", "lat": 43.2175, "lon": 0.9301}, {"nom": "Albiac", "cp": "31460", "dept": "31", "lat": 43.5547, "lon": 1.7864}, {"nom": "Ambax", "cp": "31230", "dept": "31", "lat": 43.3692, "lon": 0.9387}, {"nom": "Anan", "cp": "31230", "dept": "31", "lat": 43.3541, "lon": 0.8139}, {"nom": "Antichan-de-Frontignes", "cp": "31510", "dept": "31", "lat": 42.9679, "lon": 0.6744}, {"nom": "Antignac", "cp": "31110", "dept": "31", "lat": 42.8305, "lon": 0.5876}, {"nom": "Arbas", "cp": "31160", "dept": "31", "lat": 42.9925, "lon": 0.9036}, {"nom": "Arbon", "cp": "31160", "dept": "31", "lat": 43.0017, "lon": 0.7311}, {"nom": "Ardiège", "cp": "31210", "dept": "31", "lat": 43.0647, "lon": 0.6424}, {"nom": "Arguenos", "cp": "31160", "dept": "31", "lat": 42.9589, "lon": 0.7284}, {"nom": "Argut-Dessous", "cp": "31440", "dept": "31", "lat": 42.8924, "lon": 0.7151}, {"nom": "Arlos", "cp": "31440", "dept": "31", "lat": 42.8782, "lon": 0.6933}, {"nom": "Arnaud-Guilhem", "cp": "31360", "dept": "31", "lat": 43.1466, "lon": 0.901}, {"nom": "Artigue", "cp": "31110", "dept": "31", "lat": 42.8268, "lon": 0.6409}, {"nom": "Aspet", "cp": "31160", "dept": "31", "lat": 43.0127, "lon": 0.8076}, {"nom": "Aspret-Sarrat", "cp": "31800", "dept": "31", "lat": 43.0694, "lon": 0.7181}, {"nom": "Aucamville", "cp": "31140", "dept": "31", "lat": 43.6714, "lon": 1.4243}, {"nom": "Aulon", "cp": "31420", "dept": "31", "lat": 43.1888, "lon": 0.8108}, {"nom": "Auragne", "cp": "31190", "dept": "31", "lat": 43.3922, "lon": 1.51}, {"nom": "Aureville", "cp": "31320", "dept": "31", "lat": 43.4794, "lon": 1.4574}, {"nom": "Auriac-sur-Vendinelle", "cp": "31460", "dept": "31", "lat": 43.5172, "lon": 1.8258}, {"nom": "Auribail", "cp": "31190", "dept": "31", "lat": 43.3485, "lon": 1.3724}, {"nom": "Aurignac", "cp": "31420", "dept": "31", "lat": 43.2133, "lon": 0.8701}, {"nom": "Aurin", "cp": "31570", "dept": "31", "lat": 43.5355, "lon": 1.6804}, {"nom": "Ausseing", "cp": "31260", "dept": "31", "lat": 43.1561, "lon": 1.0284}, {"nom": "Ausson", "cp": "31210", "dept": "31", "lat": 43.0916, "lon": 0.5894}, {"nom": "Aussonne", "cp": "31840", "dept": "31", "lat": 43.6841, "lon": 1.3278}, {"nom": "Auterive", "cp": "31190", "dept": "31", "lat": 43.3579, "lon": 1.4822}, {"nom": "Auzas", "cp": "31360", "dept": "31", "lat": 43.1737, "lon": 0.8948}, {"nom": "Auzeville-Tolosane", "cp": "31320", "dept": "31", "lat": 43.5285, "lon": 1.4896}, {"nom": "Auzielle", "cp": "31650", "dept": "31", "lat": 43.5411, "lon": 1.5691}, {"nom": "Avignonet-Lauragais", "cp": "31290", "dept": "31", "lat": 43.3773, "lon": 1.7777}, {"nom": "Azas", "cp": "31380", "dept": "31", "lat": 43.7216, "lon": 1.6763}, {"nom": "Bachas", "cp": "31420", "dept": "31", "lat": 43.2495, "lon": 0.9408}, {"nom": "Bachos", "cp": "31440", "dept": "31", "lat": 42.9008, "lon": 0.607}, {"nom": "Bagiry", "cp": "31510", "dept": "31", "lat": 42.9803, "lon": 0.6235}, {"nom": "Bagnères-de-Luchon", "cp": "31110", "dept": "31", "lat": 42.7492, "lon": 0.6264}, {"nom": "Balesta", "cp": "31580", "dept": "31", "lat": 43.2028, "lon": 0.5644}, {"nom": "Balma", "cp": "31130", "dept": "31", "lat": 43.6108, "lon": 1.5037}, {"nom": "Barbazan", "cp": "31510", "dept": "31", "lat": 43.0344, "lon": 0.6223}, {"nom": "Baren", "cp": "31440", "dept": "31", "lat": 42.8677, "lon": 0.6356}, {"nom": "Bax", "cp": "31310", "dept": "31", "lat": 43.2269, "lon": 1.2892}, {"nom": "Baziège", "cp": "31450", "dept": "31", "lat": 43.4614, "lon": 1.6294}, {"nom": "Bazus", "cp": "31380", "dept": "31", "lat": 43.7347, "lon": 1.5232}, {"nom": "Beauchalot", "cp": "31360", "dept": "31", "lat": 43.114, "lon": 0.868}, {"nom": "Beaufort", "cp": "31370", "dept": "31", "lat": 43.4545, "lon": 1.1069}, {"nom": "Beaumont-sur-Lèze", "cp": "31870", "dept": "31", "lat": 43.3792, "lon": 1.357}, {"nom": "Beaupuy", "cp": "31850", "dept": "31", "lat": 43.6517, "lon": 1.556}, {"nom": "Beauteville", "cp": "31290", "dept": "31", "lat": 43.349, "lon": 1.7336}, {"nom": "Beauville", "cp": "31460", "dept": "31", "lat": 43.4686, "lon": 1.7713}, {"nom": "Beauzelle", "cp": "31700", "dept": "31", "lat": 43.668, "lon": 1.3753}, {"nom": "Belberaud", "cp": "31450", "dept": "31", "lat": 43.5045, "lon": 1.5709}, {"nom": "Belbèze-de-Lauragais", "cp": "31450", "dept": "31", "lat": 43.4375, "lon": 1.5556}, {"nom": "Belbèze-en-Comminges", "cp": "31260", "dept": "31", "lat": 43.1326, "lon": 1.0273}, {"nom": "Bélesta-en-Lauragais", "cp": "31540", "dept": "31", "lat": 43.4384, "lon": 1.8315}, {"nom": "Bellegarde-Sainte-Marie", "cp": "31530", "dept": "31", "lat": 43.6779, "lon": 1.0911}, {"nom": "Bellesserre", "cp": "31480", "dept": "31", "lat": 43.787, "lon": 1.1014}, {"nom": "Benque", "cp": "31420", "dept": "31", "lat": 43.2599, "lon": 0.9183}, {"nom": "Benque-Dessous-et-Dessus", "cp": "31110", "dept": "31", "lat": 42.8214, "lon": 0.5414}, {"nom": "Bérat", "cp": "31370", "dept": "31", "lat": 43.3771, "lon": 1.1742}, {"nom": "Bessières", "cp": "31660", "dept": "31", "lat": 43.794, "lon": 1.5846}, {"nom": "Bezins-Garraux", "cp": "31440", "dept": "31", "lat": 42.9372, "lon": 0.7083}, {"nom": "Billière", "cp": "31110", "dept": "31", "lat": 42.8196, "lon": 0.5309}, {"nom": "Blagnac", "cp": "31700", "dept": "31", "lat": 43.641, "lon": 1.377}, {"nom": "Blajan", "cp": "31350", "dept": "31", "lat": 43.2519, "lon": 0.6488}, {"nom": "Bois-de-la-Pierre", "cp": "31390", "dept": "31", "lat": 43.3404, "lon": 1.1611}, {"nom": "Boissède", "cp": "31230", "dept": "31", "lat": 43.4074, "lon": 0.8279}, {"nom": "Bondigoux", "cp": "31340", "dept": "31", "lat": 43.8455, "lon": 1.5455}, {"nom": "Bonrepos-Riquet", "cp": "31590", "dept": "31", "lat": 43.6757, "lon": 1.6229}, {"nom": "Bonrepos-sur-Aussonnelle", "cp": "31470", "dept": "31", "lat": 43.5429, "lon": 1.1395}, {"nom": "Bordes-de-Rivière", "cp": "31210", "dept": "31", "lat": 43.1241, "lon": 0.6347}, {"nom": "Le Born", "cp": "31340", "dept": "31", "lat": 43.8952, "lon": 1.5394}, {"nom": "Boudrac", "cp": "31580", "dept": "31", "lat": 43.179, "lon": 0.5043}, {"nom": "Bouloc", "cp": "31620", "dept": "31", "lat": 43.7958, "lon": 1.4192}, {"nom": "Boulogne-sur-Gesse", "cp": "31350", "dept": "31", "lat": 43.2903, "lon": 0.649}, {"nom": "Bourg-d'Oueil", "cp": "31110", "dept": "31", "lat": 42.8616, "lon": 0.4859}, {"nom": "Bourg-Saint-Bernard", "cp": "31570", "dept": "31", "lat": 43.6069, "lon": 1.7028}, {"nom": "Boussan", "cp": "31420", "dept": "31", "lat": 43.2417, "lon": 0.8702}, {"nom": "Boussens", "cp": "31360", "dept": "31", "lat": 43.1747, "lon": 0.9594}, {"nom": "Boutx", "cp": "31160", "dept": "31", "lat": 42.9169, "lon": 0.7722}, {"nom": "Bouzin", "cp": "31420", "dept": "31", "lat": 43.1884, "lon": 0.8865}, {"nom": "Bragayrac", "cp": "31470", "dept": "31", "lat": 43.4894, "lon": 1.068}, {"nom": "Brax", "cp": "31490", "dept": "31", "lat": 43.6154, "lon": 1.2309}, {"nom": "Bretx", "cp": "31530", "dept": "31", "lat": 43.7066, "lon": 1.1979}, {"nom": "Brignemont", "cp": "31480", "dept": "31", "lat": 43.7664, "lon": 0.9993}, {"nom": "Bruguières", "cp": "31150", "dept": "31", "lat": 43.7258, "lon": 1.4105}, {"nom": "Burgalays", "cp": "31440", "dept": "31", "lat": 42.8856, "lon": 0.6364}, {"nom": "Le Burgaud", "cp": "31330", "dept": "31", "lat": 43.7919, "lon": 1.1484}, {"nom": "Buzet-sur-Tarn", "cp": "31660", "dept": "31", "lat": 43.7721, "lon": 1.6099}, {"nom": "Cabanac-Cazaux", "cp": "31160", "dept": "31", "lat": 43.0354, "lon": 0.7416}, {"nom": "Cabanac-Séguenville", "cp": "31480", "dept": "31", "lat": 43.7898, "lon": 1.0209}, {"nom": "Le Cabanial", "cp": "31460", "dept": "31", "lat": 43.5237, "lon": 1.8706}, {"nom": "Cadours", "cp": "31480", "dept": "31", "lat": 43.725, "lon": 1.0489}, {"nom": "Caignac", "cp": "31560", "dept": "31", "lat": 43.3182, "lon": 1.707}, {"nom": "Calmont", "cp": "31560", "dept": "31", "lat": 43.2832, "lon": 1.6251}, {"nom": "Cambernard", "cp": "31470", "dept": "31", "lat": 43.4643, "lon": 1.1785}, {"nom": "Cambiac", "cp": "31460", "dept": "31", "lat": 43.4911, "lon": 1.7928}, {"nom": "Canens", "cp": "31310", "dept": "31", "lat": 43.2178, "lon": 1.3367}, {"nom": "Capens", "cp": "31410", "dept": "31", "lat": 43.3354, "lon": 1.2607}, {"nom": "Caragoudes", "cp": "31460", "dept": "31", "lat": 43.4982, "lon": 1.709}, {"nom": "Caraman", "cp": "31460", "dept": "31", "lat": 43.5324, "lon": 1.7487}, {"nom": "Carbonne", "cp": "31390", "dept": "31", "lat": 43.3063, "lon": 1.2321}, {"nom": "Cardeilhac", "cp": "31350", "dept": "31", "lat": 43.1964, "lon": 0.6788}, {"nom": "Cassagnabère-Tournas", "cp": "31420", "dept": "31", "lat": 43.2296, "lon": 0.8008}, {"nom": "Cassagne", "cp": "31260", "dept": "31", "lat": 43.1242, "lon": 0.992}, {"nom": "Castagnac", "cp": "31310", "dept": "31", "lat": 43.2352, "lon": 1.3454}, {"nom": "Castagnède", "cp": "31260", "dept": "31", "lat": 43.051, "lon": 0.9765}, {"nom": "Castanet-Tolosan", "cp": "31320", "dept": "31", "lat": 43.5083, "lon": 1.5069}, {"nom": "Castelbiague", "cp": "31160", "dept": "31", "lat": 43.0331, "lon": 0.9284}, {"nom": "Castelgaillard", "cp": "31230", "dept": "31", "lat": 43.3499, "lon": 0.9019}, {"nom": "Castelginest", "cp": "31780", "dept": "31", "lat": 43.698, "lon": 1.4349}, {"nom": "Castelmaurou", "cp": "31180", "dept": "31", "lat": 43.6863, "lon": 1.5289}, {"nom": "Castelnau-d'Estrétefonds", "cp": "31620", "dept": "31", "lat": 43.7956, "lon": 1.3516}, {"nom": "Castelnau-Picampeau", "cp": "31430", "dept": "31", "lat": 43.308, "lon": 1.0138}, {"nom": "Le Castéra", "cp": "31530", "dept": "31", "lat": 43.6717, "lon": 1.1503}, {"nom": "Castéra-Vignoles", "cp": "31350", "dept": "31", "lat": 43.2782, "lon": 0.7828}, {"nom": "Casties-Labrande", "cp": "31430", "dept": "31", "lat": 43.3269, "lon": 0.9931}, {"nom": "Castillon-de-Larboust", "cp": "31110", "dept": "31", "lat": 42.7534, "lon": 0.5618}, {"nom": "Castillon-de-Saint-Martory", "cp": "31360", "dept": "31", "lat": 43.1397, "lon": 0.8575}, {"nom": "Cathervielle", "cp": "31110", "dept": "31", "lat": 42.823, "lon": 0.5078}, {"nom": "Caubiac", "cp": "31480", "dept": "31", "lat": 43.7155, "lon": 1.0756}, {"nom": "Caubous", "cp": "31110", "dept": "31", "lat": 42.8499, "lon": 0.5199}, {"nom": "Caujac", "cp": "31190", "dept": "31", "lat": 43.297, "lon": 1.4554}, {"nom": "Cazarilh-Laspènes", "cp": "31110", "dept": "31", "lat": 42.8033, "lon": 0.581}, {"nom": "Cazaril-Tambourès", "cp": "31580", "dept": "31", "lat": 43.1783, "lon": 0.5418}, {"nom": "Cazaunous", "cp": "31160", "dept": "31", "lat": 42.9854, "lon": 0.722}, {"nom": "Cazaux-Layrisse", "cp": "31440", "dept": "31", "lat": 42.87, "lon": 0.595}, {"nom": "Cazeaux-de-Larboust", "cp": "31110", "dept": "31", "lat": 42.7567, "lon": 0.5377}, {"nom": "Cazeneuve-Montaut", "cp": "31420", "dept": "31", "lat": 43.1846, "lon": 0.8605}, {"nom": "Cazères", "cp": "31220", "dept": "31", "lat": 43.2155, "lon": 1.1005}, {"nom": "Cépet", "cp": "31620", "dept": "31", "lat": 43.7487, "lon": 1.4368}, {"nom": "Cessales", "cp": "31290", "dept": "31", "lat": 43.4571, "lon": 1.7444}, {"nom": "Charlas", "cp": "31350", "dept": "31", "lat": 43.2366, "lon": 0.6951}, {"nom": "Chaum", "cp": "31440", "dept": "31", "lat": 42.9389, "lon": 0.6712}, {"nom": "Chein-Dessus", "cp": "31160", "dept": "31", "lat": 43.0034, "lon": 0.8781}, {"nom": "Ciadoux", "cp": "31350", "dept": "31", "lat": 43.2553, "lon": 0.7354}, {"nom": "Cier-de-Luchon", "cp": "31110", "dept": "31", "lat": 42.8559, "lon": 0.587}, {"nom": "Cier-de-Rivière", "cp": "31510", "dept": "31", "lat": 43.0605, "lon": 0.6295}, {"nom": "Cierp-Gaud", "cp": "31440", "dept": "31", "lat": 42.9005, "lon": 0.6327}, {"nom": "Cintegabelle", "cp": "31550", "dept": "31", "lat": 43.3, "lon": 1.5375}, {"nom": "Cirès", "cp": "31110", "dept": "31", "lat": 42.8527, "lon": 0.5063}, {"nom": "Clarac", "cp": "31210", "dept": "31", "lat": 43.1113, "lon": 0.615}, {"nom": "Clermont-le-Fort", "cp": "31810", "dept": "31", "lat": 43.4584, "lon": 1.4453}, {"nom": "Colomiers", "cp": "31770", "dept": "31", "lat": 43.6116, "lon": 1.3245}, {"nom": "Cornebarrieu", "cp": "31700", "dept": "31", "lat": 43.649, "lon": 1.3197}, {"nom": "Corronsac", "cp": "31450", "dept": "31", "lat": 43.4707, "lon": 1.4907}, {"nom": "Coueilles", "cp": "31230", "dept": "31", "lat": 43.3461, "lon": 0.8774}, {"nom": "Couladère", "cp": "31220", "dept": "31", "lat": 43.1962, "lon": 1.0935}, {"nom": "Couret", "cp": "31160", "dept": "31", "lat": 43.0483, "lon": 0.8188}, {"nom": "Cox", "cp": "31480", "dept": "31", "lat": 43.7606, "lon": 1.0419}, {"nom": "Cugnaux", "cp": "31270", "dept": "31", "lat": 43.5446, "lon": 1.3432}, {"nom": "Cuguron", "cp": "31210", "dept": "31", "lat": 43.1063, "lon": 0.5222}, {"nom": "Le Cuing", "cp": "31210", "dept": "31", "lat": 43.1479, "lon": 0.6205}, {"nom": "Daux", "cp": "31700", "dept": "31", "lat": 43.6849, "lon": 1.2685}, {"nom": "Deyme", "cp": "31450", "dept": "31", "lat": 43.4841, "lon": 1.5311}, {"nom": "Donneville", "cp": "31450", "dept": "31", "lat": 43.4728, "lon": 1.5506}, {"nom": "Drémil-Lafage", "cp": "31280", "dept": "31", "lat": 43.592, "lon": 1.5996}, {"nom": "Drudas", "cp": "31480", "dept": "31", "lat": 43.7638, "lon": 1.1006}, {"nom": "Eaunes", "cp": "31600", "dept": "31", "lat": 43.4324, "lon": 1.3543}, {"nom": "Empeaux", "cp": "31470", "dept": "31", "lat": 43.536, "lon": 1.074}, {"nom": "Encausse-les-Thermes", "cp": "31160", "dept": "31", "lat": 43.0511, "lon": 0.7464}, {"nom": "Eoux", "cp": "31420", "dept": "31", "lat": 43.2773, "lon": 0.8835}, {"nom": "Escalquens", "cp": "31750", "dept": "31", "lat": 43.5201, "lon": 1.5528}, {"nom": "Escanecrabe", "cp": "31350", "dept": "31", "lat": 43.2734, "lon": 0.7577}, {"nom": "Espanès", "cp": "31450", "dept": "31", "lat": 43.4513, "lon": 1.4885}, {"nom": "Esparron", "cp": "31420", "dept": "31", "lat": 43.2632, "lon": 0.81}, {"nom": "Esperce", "cp": "31190", "dept": "31", "lat": 43.2984, "lon": 1.3974}, {"nom": "Estadens", "cp": "31160", "dept": "31", "lat": 43.0334, "lon": 0.8398}, {"nom": "Estancarbon", "cp": "31800", "dept": "31", "lat": 43.1094, "lon": 0.7833}, {"nom": "Esténos", "cp": "31440", "dept": "31", "lat": 42.9431, "lon": 0.6323}, {"nom": "Eup", "cp": "31440", "dept": "31", "lat": 42.9259, "lon": 0.684}, {"nom": "Fabas", "cp": "31230", "dept": "31", "lat": 43.3128, "lon": 0.8919}, {"nom": "Le Faget", "cp": "31460", "dept": "31", "lat": 43.5647, "lon": 1.8256}, {"nom": "Falga", "cp": "31540", "dept": "31", "lat": 43.4796, "lon": 1.8425}, {"nom": "Le Fauga", "cp": "31410", "dept": "31", "lat": 43.3996, "lon": 1.3003}, {"nom": "Fenouillet", "cp": "31150", "dept": "31", "lat": 43.6864, "lon": 1.3897}, {"nom": "Figarol", "cp": "31260", "dept": "31", "lat": 43.0857, "lon": 0.9073}, {"nom": "Flourens", "cp": "31130", "dept": "31", "lat": 43.5975, "lon": 1.5514}, {"nom": "Folcarde", "cp": "31290", "dept": "31", "lat": 43.4061, "lon": 1.7954}, {"nom": "Fonbeauzard", "cp": "31140", "dept": "31", "lat": 43.6792, "lon": 1.4368}, {"nom": "Fonsorbes", "cp": "31470", "dept": "31", "lat": 43.5332, "lon": 1.2429}, {"nom": "Fontenilles", "cp": "31470", "dept": "31", "lat": 43.5524, "lon": 1.2048}, {"nom": "Forgues", "cp": "31370", "dept": "31", "lat": 43.4322, "lon": 1.0429}, {"nom": "Fos", "cp": "31440", "dept": "31", "lat": 42.8606, "lon": 0.7545}, {"nom": "Fougaron", "cp": "31160", "dept": "31", "lat": 42.9877, "lon": 0.9382}, {"nom": "Fourquevaux", "cp": "31450", "dept": "31", "lat": 43.5004, "lon": 1.6231}, {"nom": "Le Fousseret", "cp": "31430", "dept": "31", "lat": 43.2867, "lon": 1.0673}, {"nom": "Francarville", "cp": "31460", "dept": "31", "lat": 43.5872, "lon": 1.7479}, {"nom": "Francazal", "cp": "31260", "dept": "31", "lat": 43.0074, "lon": 1.0018}, {"nom": "Francon", "cp": "31420", "dept": "31", "lat": 43.2605, "lon": 0.9884}, {"nom": "Franquevielle", "cp": "31210", "dept": "31", "lat": 43.1333, "lon": 0.5304}, {"nom": "Le Fréchet", "cp": "31360", "dept": "31", "lat": 43.1903, "lon": 0.9303}, {"nom": "Fronsac", "cp": "31440", "dept": "31", "lat": 42.9548, "lon": 0.6688}, {"nom": "Frontignan-de-Comminges", "cp": "31510", "dept": "31", "lat": 42.9647, "lon": 0.67}, {"nom": "Frontignan-Savès", "cp": "31230", "dept": "31", "lat": 43.399, "lon": 0.9129}, {"nom": "Fronton", "cp": "31620", "dept": "31", "lat": 43.8529, "lon": 1.3714}, {"nom": "Frouzins", "cp": "31270", "dept": "31", "lat": 43.5218, "lon": 1.3125}, {"nom": "Fustignac", "cp": "31430", "dept": "31", "lat": 43.3028, "lon": 0.9844}, {"nom": "Gagnac-sur-Garonne", "cp": "31150", "dept": "31", "lat": 43.7077, "lon": 1.3636}, {"nom": "Gaillac-Toulza", "cp": "31550", "dept": "31", "lat": 43.2573, "lon": 1.453}, {"nom": "Galié", "cp": "31510", "dept": "31", "lat": 42.9918, "lon": 0.6337}, {"nom": "Ganties", "cp": "31160", "dept": "31", "lat": 43.0611, "lon": 0.8379}, {"nom": "Garac", "cp": "31480", "dept": "31", "lat": 43.6869, "lon": 1.097}, {"nom": "Gardouch", "cp": "31290", "dept": "31", "lat": 43.3834, "lon": 1.6781}, {"nom": "Gargas", "cp": "31620", "dept": "31", "lat": 43.7589, "lon": 1.4595}, {"nom": "Garidech", "cp": "31380", "dept": "31", "lat": 43.7123, "lon": 1.549}, {"nom": "Garin", "cp": "31110", "dept": "31", "lat": 42.8093, "lon": 0.491}, {"nom": "Gauré", "cp": "31590", "dept": "31", "lat": 43.6183, "lon": 1.6397}, {"nom": "Gémil", "cp": "31380", "dept": "31", "lat": 43.7388, "lon": 1.5967}, {"nom": "Génos", "cp": "31510", "dept": "31", "lat": 43.0004, "lon": 0.6681}, {"nom": "Gensac-de-Boulogne", "cp": "31350", "dept": "31", "lat": 43.2593, "lon": 0.6037}, {"nom": "Gensac-sur-Garonne", "cp": "31310", "dept": "31", "lat": 43.2161, "lon": 1.1422}, {"nom": "Gibel", "cp": "31560", "dept": "31", "lat": 43.3017, "lon": 1.6728}, {"nom": "Gouaux-de-Larboust", "cp": "31110", "dept": "31", "lat": 42.7804, "lon": 0.4783}, {"nom": "Gouaux-de-Luchon", "cp": "31110", "dept": "31", "lat": 42.8501, "lon": 0.644}, {"nom": "Goudex", "cp": "31230", "dept": "31", "lat": 43.38, "lon": 0.9559}, {"nom": "Gourdan-Polignan", "cp": "31210", "dept": "31", "lat": 43.0708, "lon": 0.5745}, {"nom": "Goutevernisse", "cp": "31310", "dept": "31", "lat": 43.2138, "lon": 1.1738}, {"nom": "Gouzens", "cp": "31310", "dept": "31", "lat": 43.1802, "lon": 1.1843}, {"nom": "Goyrans", "cp": "31120", "dept": "31", "lat": 43.4817, "lon": 1.4252}, {"nom": "Gragnague", "cp": "31380", "dept": "31", "lat": 43.6852, "lon": 1.5828}, {"nom": "Gratens", "cp": "31430", "dept": "31", "lat": 43.3245, "lon": 1.1208}, {"nom": "Gratentour", "cp": "31150", "dept": "31", "lat": 43.7206, "lon": 1.4333}, {"nom": "Grazac", "cp": "31190", "dept": "31", "lat": 43.3117, "lon": 1.4491}, {"nom": "Grenade", "cp": "31330", "dept": "31", "lat": 43.7702, "lon": 1.2791}, {"nom": "Grépiac", "cp": "31190", "dept": "31", "lat": 43.4053, "lon": 1.4539}, {"nom": "Le Grès", "cp": "31480", "dept": "31", "lat": 43.719, "lon": 1.0981}, {"nom": "Guran", "cp": "31440", "dept": "31", "lat": 42.884, "lon": 0.6046}, {"nom": "Herran", "cp": "31160", "dept": "31", "lat": 42.9752, "lon": 0.8892}, {"nom": "His", "cp": "31260", "dept": "31", "lat": 43.0637, "lon": 0.9679}, {"nom": "Huos", "cp": "31210", "dept": "31", "lat": 43.0673, "lon": 0.6}, {"nom": "L'Isle-en-Dodon", "cp": "31230", "dept": "31", "lat": 43.3792, "lon": 0.831}, {"nom": "Issus", "cp": "31450", "dept": "31", "lat": 43.4232, "lon": 1.5001}, {"nom": "Izaut-de-l'Hôtel", "cp": "31160", "dept": "31", "lat": 43.0124, "lon": 0.748}, {"nom": "Jurvielle", "cp": "31110", "dept": "31", "lat": 42.8304, "lon": 0.4763}, {"nom": "Juzes", "cp": "31540", "dept": "31", "lat": 43.4461, "lon": 1.7936}, {"nom": "Juzet-de-Luchon", "cp": "31110", "dept": "31", "lat": 42.8036, "lon": 0.631}, {"nom": "Juzet-d'Izaut", "cp": "31160", "dept": "31", "lat": 42.9708, "lon": 0.7575}, {"nom": "Labarthe-Inard", "cp": "31800", "dept": "31", "lat": 43.1079, "lon": 0.8337}, {"nom": "Labarthe-Rivière", "cp": "31800", "dept": "31", "lat": 43.0837, "lon": 0.6786}, {"nom": "Labarthe-sur-Lèze", "cp": "31860", "dept": "31", "lat": 43.4589, "lon": 1.3995}, {"nom": "Labastide-Beauvoir", "cp": "31450", "dept": "31", "lat": 43.4822, "lon": 1.6635}, {"nom": "Labastide-Clermont", "cp": "31370", "dept": "31", "lat": 43.3499, "lon": 1.1071}, {"nom": "Labastide-Paumès", "cp": "31230", "dept": "31", "lat": 43.3321, "lon": 0.9405}, {"nom": "Labastide-Saint-Sernin", "cp": "31620", "dept": "31", "lat": 43.7369, "lon": 1.4667}, {"nom": "Labastidette", "cp": "31600", "dept": "31", "lat": 43.4554, "lon": 1.2411}, {"nom": "Labège", "cp": "31670", "dept": "31", "lat": 43.5396, "lon": 1.5207}, {"nom": "Labroquère", "cp": "31510", "dept": "31", "lat": 43.0433, "lon": 0.5874}, {"nom": "Labruyère-Dorsa", "cp": "31190", "dept": "31", "lat": 43.4056, "lon": 1.4712}, {"nom": "Lacaugne", "cp": "31390", "dept": "31", "lat": 43.28, "lon": 1.2808}, {"nom": "Lacroix-Falgarde", "cp": "31120", "dept": "31", "lat": 43.5022, "lon": 1.4256}, {"nom": "Laffite-Toupière", "cp": "31360", "dept": "31", "lat": 43.1651, "lon": 0.907}, {"nom": "Lafitte-Vigordane", "cp": "31390", "dept": "31", "lat": 43.3027, "lon": 1.1597}, {"nom": "Lagarde", "cp": "31290", "dept": "31", "lat": 43.3464, "lon": 1.6973}, {"nom": "Lagardelle-sur-Lèze", "cp": "31870", "dept": "31", "lat": 43.4162, "lon": 1.3929}, {"nom": "Lagrâce-Dieu", "cp": "31190", "dept": "31", "lat": 43.3361, "lon": 1.4077}, {"nom": "Lagraulet-Saint-Nicolas", "cp": "31480", "dept": "31", "lat": 43.7901, "lon": 1.0756}, {"nom": "Lahage", "cp": "31370", "dept": "31", "lat": 43.4414, "lon": 1.0699}, {"nom": "Lahitère", "cp": "31310", "dept": "31", "lat": 43.1412, "lon": 1.1878}, {"nom": "Lalouret-Laffiteau", "cp": "31800", "dept": "31", "lat": 43.1864, "lon": 0.6987}, {"nom": "Lamasquère", "cp": "31600", "dept": "31", "lat": 43.4857, "lon": 1.25}, {"nom": "Landorthe", "cp": "31800", "dept": "31", "lat": 43.1288, "lon": 0.7806}, {"nom": "Lanta", "cp": "31570", "dept": "31", "lat": 43.5573, "lon": 1.6687}, {"nom": "Lapeyrère", "cp": "31310", "dept": "31", "lat": 43.2054, "lon": 1.3105}, {"nom": "Lapeyrouse-Fossat", "cp": "31180", "dept": "31", "lat": 43.7033, "lon": 1.5103}, {"nom": "Larcan", "cp": "31800", "dept": "31", "lat": 43.171, "lon": 0.7197}, {"nom": "Laréole", "cp": "31480", "dept": "31", "lat": 43.741, "lon": 1.0206}, {"nom": "Larroque", "cp": "31580", "dept": "31", "lat": 43.1966, "lon": 0.6115}, {"nom": "Lasserre-Pradère", "cp": "31530", "dept": "31", "lat": 43.637, "lon": 1.176}, {"nom": "Latoue", "cp": "31800", "dept": "31", "lat": 43.1728, "lon": 0.7815}, {"nom": "Latour", "cp": "31310", "dept": "31", "lat": 43.2028, "lon": 1.2822}, {"nom": "Latrape", "cp": "31310", "dept": "31", "lat": 43.2484, "lon": 1.2924}, {"nom": "Launac", "cp": "31330", "dept": "31", "lat": 43.7526, "lon": 1.1657}, {"nom": "Launaguet", "cp": "31140", "dept": "31", "lat": 43.6668, "lon": 1.4579}, {"nom": "Lautignac", "cp": "31370", "dept": "31", "lat": 43.3789, "lon": 1.0668}, {"nom": "Lauzerville", "cp": "31650", "dept": "31", "lat": 43.5578, "lon": 1.5657}, {"nom": "Lavalette", "cp": "31590", "dept": "31", "lat": 43.6406, "lon": 1.5953}, {"nom": "Lavelanet-de-Comminges", "cp": "31220", "dept": "31", "lat": 43.2545, "lon": 1.1149}, {"nom": "Lavernose-Lacasse", "cp": "31410", "dept": "31", "lat": 43.391, "lon": 1.2411}, {"nom": "Layrac-sur-Tarn", "cp": "31340", "dept": "31", "lat": 43.8327, "lon": 1.5655}, {"nom": "Lécussan", "cp": "31580", "dept": "31", "lat": 43.1512, "lon": 0.489}, {"nom": "Lège", "cp": "31440", "dept": "31", "lat": 42.8777, "lon": 0.5973}, {"nom": "Léguevin", "cp": "31490", "dept": "31", "lat": 43.5928, "lon": 1.2353}, {"nom": "Lescuns", "cp": "31220", "dept": "31", "lat": 43.2448, "lon": 1.006}, {"nom": "Lespinasse", "cp": "31150", "dept": "31", "lat": 43.7174, "lon": 1.3821}, {"nom": "Lespiteau", "cp": "31160", "dept": "31", "lat": 43.065, "lon": 0.7603}, {"nom": "Lespugue", "cp": "31350", "dept": "31", "lat": 43.2311, "lon": 0.6652}, {"nom": "Lestelle-de-Saint-Martory", "cp": "31360", "dept": "31", "lat": 43.1177, "lon": 0.9042}, {"nom": "Lévignac", "cp": "31530", "dept": "31", "lat": 43.6646, "lon": 1.2036}, {"nom": "Lherm", "cp": "31600", "dept": "31", "lat": 43.4273, "lon": 1.2288}, {"nom": "Lieoux", "cp": "31800", "dept": "31", "lat": 43.1492, "lon": 0.7734}, {"nom": "Lilhac", "cp": "31230", "dept": "31", "lat": 43.2854, "lon": 0.8109}, {"nom": "Lodes", "cp": "31800", "dept": "31", "lat": 43.1664, "lon": 0.6608}, {"nom": "Longages", "cp": "31410", "dept": "31", "lat": 43.3571, "lon": 1.2114}, {"nom": "Loubens-Lauragais", "cp": "31460", "dept": "31", "lat": 43.5762, "lon": 1.784}, {"nom": "Loudet", "cp": "31580", "dept": "31", "lat": 43.1397, "lon": 0.5755}, {"nom": "Lourde", "cp": "31510", "dept": "31", "lat": 42.9849, "lon": 0.6568}, {"nom": "Luscan", "cp": "31510", "dept": "31", "lat": 43.0133, "lon": 0.6272}, {"nom": "Lussan-Adeilhac", "cp": "31430", "dept": "31", "lat": 43.2944, "lon": 0.953}, {"nom": "Lux", "cp": "31290", "dept": "31", "lat": 43.4299, "lon": 1.7854}, {"nom": "La Magdelaine-sur-Tarn", "cp": "31340", "dept": "31", "lat": 43.8146, "lon": 1.5367}, {"nom": "Mailholas", "cp": "31310", "dept": "31", "lat": 43.2485, "lon": 1.2504}, {"nom": "Malvezie", "cp": "31510", "dept": "31", "lat": 43.0065, "lon": 0.6989}, {"nom": "Mancioux", "cp": "31360", "dept": "31", "lat": 43.1671, "lon": 0.9385}, {"nom": "Mane", "cp": "31260", "dept": "31", "lat": 43.0804, "lon": 0.9428}, {"nom": "Marignac", "cp": "31440", "dept": "31", "lat": 42.893, "lon": 0.6649}, {"nom": "Marignac-Lasclares", "cp": "31430", "dept": "31", "lat": 43.3042, "lon": 1.1095}, {"nom": "Marignac-Laspeyres", "cp": "31220", "dept": "31", "lat": 43.2121, "lon": 0.9627}, {"nom": "Marliac", "cp": "31550", "dept": "31", "lat": 43.2229, "lon": 1.4756}, {"nom": "Marquefave", "cp": "31390", "dept": "31", "lat": 43.311, "lon": 1.2601}, {"nom": "Marsoulas", "cp": "31260", "dept": "31", "lat": 43.1072, "lon": 0.9929}, {"nom": "Martisserre", "cp": "31230", "dept": "31", "lat": 43.3961, "lon": 0.8847}, {"nom": "Martres-de-Rivière", "cp": "31210", "dept": "31", "lat": 43.0834, "lon": 0.6422}, {"nom": "Martres-Tolosane", "cp": "31220", "dept": "31", "lat": 43.2052, "lon": 0.994}, {"nom": "Mascarville", "cp": "31460", "dept": "31", "lat": 43.5575, "lon": 1.7531}, {"nom": "Massabrac", "cp": "31310", "dept": "31", "lat": 43.2238, "lon": 1.3645}, {"nom": "Mauran", "cp": "31220", "dept": "31", "lat": 43.1857, "lon": 1.0193}, {"nom": "Mauremont", "cp": "31290", "dept": "31", "lat": 43.4557, "lon": 1.6811}, {"nom": "Maurens", "cp": "31540", "dept": "31", "lat": 43.4668, "lon": 1.7968}, {"nom": "Mauressac", "cp": "31190", "dept": "31", "lat": 43.3222, "lon": 1.4341}, {"nom": "Maureville", "cp": "31460", "dept": "31", "lat": 43.5317, "lon": 1.7141}, {"nom": "Mauvaisin", "cp": "31190", "dept": "31", "lat": 43.3587, "lon": 1.5339}, {"nom": "Mauvezin", "cp": "31230", "dept": "31", "lat": 43.3817, "lon": 0.9213}, {"nom": "Mauzac", "cp": "31410", "dept": "31", "lat": 43.3772, "lon": 1.3028}, {"nom": "Mayrègne", "cp": "31110", "dept": "31", "lat": 42.849, "lon": 0.5389}, {"nom": "Mazères-sur-Salat", "cp": "31260", "dept": "31", "lat": 43.1341, "lon": 0.9605}, {"nom": "Melles", "cp": "31440", "dept": "31", "lat": 42.8643, "lon": 0.8036}, {"nom": "Menville", "cp": "31530", "dept": "31", "lat": 43.6789, "lon": 1.1888}, {"nom": "Mérenvielle", "cp": "31530", "dept": "31", "lat": 43.6211, "lon": 1.171}, {"nom": "Mervilla", "cp": "31320", "dept": "31", "lat": 43.5067, "lon": 1.473}, {"nom": "Merville", "cp": "31330", "dept": "31", "lat": 43.7227, "lon": 1.2916}, {"nom": "Milhas", "cp": "31160", "dept": "31", "lat": 42.976, "lon": 0.8254}, {"nom": "Mirambeau", "cp": "31230", "dept": "31", "lat": 43.4049, "lon": 0.865}, {"nom": "Miramont-de-Comminges", "cp": "31800", "dept": "31", "lat": 43.0886, "lon": 0.7586}, {"nom": "Miremont", "cp": "31190", "dept": "31", "lat": 43.3733, "lon": 1.4177}, {"nom": "Mirepoix-sur-Tarn", "cp": "31340", "dept": "31", "lat": 43.8269, "lon": 1.5726}, {"nom": "Molas", "cp": "31230", "dept": "31", "lat": 43.4009, "lon": 0.7785}, {"nom": "Moncaup", "cp": "31160", "dept": "31", "lat": 42.9687, "lon": 0.704}, {"nom": "Mondavezan", "cp": "31220", "dept": "31", "lat": 43.2394, "lon": 1.041}, {"nom": "Mondilhan", "cp": "31350", "dept": "31", "lat": 43.2902, "lon": 0.7091}, {"nom": "Mondonville", "cp": "31700", "dept": "31", "lat": 43.6691, "lon": 1.2735}, {"nom": "Mondouzil", "cp": "31850", "dept": "31", "lat": 43.6304, "lon": 1.5602}, {"nom": "Monès", "cp": "31370", "dept": "31", "lat": 43.418, "lon": 1.0333}, {"nom": "Monestrol", "cp": "31560", "dept": "31", "lat": 43.3351, "lon": 1.66}, {"nom": "Mons", "cp": "31280", "dept": "31", "lat": 43.6092, "lon": 1.5696}, {"nom": "Montaigut-sur-Save", "cp": "31530", "dept": "31", "lat": 43.6855, "lon": 1.2329}, {"nom": "Montastruc-de-Salies", "cp": "31160", "dept": "31", "lat": 43.0412, "lon": 0.8991}, {"nom": "Montastruc-la-Conseillère", "cp": "31380", "dept": "31", "lat": 43.7209, "lon": 1.5899}, {"nom": "Montastruc-Savès", "cp": "31370", "dept": "31", "lat": 43.3614, "lon": 1.0185}, {"nom": "Montauban-de-Luchon", "cp": "31110", "dept": "31", "lat": 42.791, "lon": 0.626}, {"nom": "Montaut", "cp": "31410", "dept": "31", "lat": 43.3419, "lon": 1.3147}, {"nom": "Montberaud", "cp": "31220", "dept": "31", "lat": 43.1611, "lon": 1.1535}, {"nom": "Montbernard", "cp": "31230", "dept": "31", "lat": 43.3031, "lon": 0.7683}, {"nom": "Montberon", "cp": "31140", "dept": "31", "lat": 43.7188, "lon": 1.4901}, {"nom": "Montbrun-Bocage", "cp": "31310", "dept": "31", "lat": 43.1179, "lon": 1.2566}, {"nom": "Montbrun-Lauragais", "cp": "31450", "dept": "31", "lat": 43.4555, "lon": 1.5219}, {"nom": "Montclar-de-Comminges", "cp": "31220", "dept": "31", "lat": 43.169, "lon": 1.033}, {"nom": "Montclar-Lauragais", "cp": "31290", "dept": "31", "lat": 43.3623, "lon": 1.7121}, {"nom": "Mont-de-Galié", "cp": "31510", "dept": "31", "lat": 42.993, "lon": 0.6458}, {"nom": "Montégut-Bourjac", "cp": "31430", "dept": "31", "lat": 43.283, "lon": 0.9863}, {"nom": "Montégut-Lauragais", "cp": "31540", "dept": "31", "lat": 43.4792, "lon": 1.9341}, {"nom": "Montespan", "cp": "31260", "dept": "31", "lat": 43.0842, "lon": 0.8584}, {"nom": "Montesquieu-Guittaut", "cp": "31230", "dept": "31", "lat": 43.3366, "lon": 0.7649}, {"nom": "Montesquieu-Lauragais", "cp": "31450", "dept": "31", "lat": 43.4067, "lon": 1.6267}, {"nom": "Montesquieu-Volvestre", "cp": "31310", "dept": "31", "lat": 43.1778, "lon": 1.2184}, {"nom": "Montgaillard-de-Salies", "cp": "31260", "dept": "31", "lat": 43.0598, "lon": 0.9328}, {"nom": "Montgaillard-Lauragais", "cp": "31290", "dept": "31", "lat": 43.4293, "lon": 1.7037}, {"nom": "Montgaillard-sur-Save", "cp": "31350", "dept": "31", "lat": 43.2545, "lon": 0.7145}, {"nom": "Montgazin", "cp": "31410", "dept": "31", "lat": 43.3038, "lon": 1.3061}, {"nom": "Montgeard", "cp": "31560", "dept": "31", "lat": 43.3458, "lon": 1.6427}, {"nom": "Montgiscard", "cp": "31450", "dept": "31", "lat": 43.4507, "lon": 1.5687}, {"nom": "Montgras", "cp": "31370", "dept": "31", "lat": 43.4507, "lon": 1.0721}, {"nom": "Montjoire", "cp": "31380", "dept": "31", "lat": 43.7786, "lon": 1.5282}, {"nom": "Montlaur", "cp": "31450", "dept": "31", "lat": 43.4836, "lon": 1.5799}, {"nom": "Montmaurin", "cp": "31350", "dept": "31", "lat": 43.2254, "lon": 0.638}, {"nom": "Montoulieu-Saint-Bernard", "cp": "31420", "dept": "31", "lat": 43.2302, "lon": 0.9102}, {"nom": "Montoussin", "cp": "31430", "dept": "31", "lat": 43.2792, "lon": 1.0101}, {"nom": "Montpitol", "cp": "31380", "dept": "31", "lat": 43.7074, "lon": 1.6449}, {"nom": "Montrabé", "cp": "31850", "dept": "31", "lat": 43.6436, "lon": 1.5333}, {"nom": "Montréjeau", "cp": "31210", "dept": "31", "lat": 43.0876, "lon": 0.5588}, {"nom": "Montsaunès", "cp": "31260", "dept": "31", "lat": 43.1084, "lon": 0.9328}, {"nom": "Mourvilles-Basses", "cp": "31460", "dept": "31", "lat": 43.4881, "lon": 1.6983}, {"nom": "Mourvilles-Hautes", "cp": "31540", "dept": "31", "lat": 43.4246, "lon": 1.8206}, {"nom": "Moustajon", "cp": "31110", "dept": "31", "lat": 42.8139, "lon": 0.5911}, {"nom": "Muret", "cp": "31600", "dept": "31", "lat": 43.4407, "lon": 1.2987}, {"nom": "Nailloux", "cp": "31560", "dept": "31", "lat": 43.3673, "lon": 1.6115}, {"nom": "Nénigan", "cp": "31350", "dept": "31", "lat": 43.3532, "lon": 0.7095}, {"nom": "Nizan-Gesse", "cp": "31350", "dept": "31", "lat": 43.2298, "lon": 0.5979}, {"nom": "Noé", "cp": "31410", "dept": "31", "lat": 43.3644, "lon": 1.2704}, {"nom": "Nogaret", "cp": "31540", "dept": "31", "lat": 43.4934, "lon": 1.9347}, {"nom": "Noueilles", "cp": "31450", "dept": "31", "lat": 43.4135, "lon": 1.5279}, {"nom": "Odars", "cp": "31450", "dept": "31", "lat": 43.5234, "lon": 1.5919}, {"nom": "Ondes", "cp": "31330", "dept": "31", "lat": 43.7857, "lon": 1.3046}, {"nom": "Oô", "cp": "31110", "dept": "31", "lat": 42.7475, "lon": 0.489}, {"nom": "Ore", "cp": "31510", "dept": "31", "lat": 42.9737, "lon": 0.6463}, {"nom": "Palaminy", "cp": "31220", "dept": "31", "lat": 43.1948, "lon": 1.059}, {"nom": "Paulhac", "cp": "31380", "dept": "31", "lat": 43.7602, "lon": 1.5556}, {"nom": "Payssous", "cp": "31510", "dept": "31", "lat": 43.0343, "lon": 0.7163}, {"nom": "Péchabou", "cp": "31320", "dept": "31", "lat": 43.5012, "lon": 1.5124}, {"nom": "Pechbonnieu", "cp": "31140", "dept": "31", "lat": 43.7111, "lon": 1.4561}, {"nom": "Pechbusque", "cp": "31320", "dept": "31", "lat": 43.5269, "lon": 1.4544}, {"nom": "Péguilhan", "cp": "31350", "dept": "31", "lat": 43.3256, "lon": 0.703}, {"nom": "Pelleport", "cp": "31480", "dept": "31", "lat": 43.742, "lon": 1.1141}, {"nom": "Peyrissas", "cp": "31420", "dept": "31", "lat": 43.2898, "lon": 0.9107}, {"nom": "Peyrouzet", "cp": "31420", "dept": "31", "lat": 43.209, "lon": 0.8362}, {"nom": "Peyssies", "cp": "31390", "dept": "31", "lat": 43.3264, "lon": 1.1806}, {"nom": "Pibrac", "cp": "31820", "dept": "31", "lat": 43.6245, "lon": 1.2584}, {"nom": "Pin-Balma", "cp": "31130", "dept": "31", "lat": 43.6222, "lon": 1.5373}, {"nom": "Le Pin-Murelet", "cp": "31370", "dept": "31", "lat": 43.3974, "lon": 1.0221}, {"nom": "Pinsaguel", "cp": "31120", "dept": "31", "lat": 43.503, "lon": 1.3919}, {"nom": "Pins-Justaret", "cp": "31860", "dept": "31", "lat": 43.4825, "lon": 1.3914}, {"nom": "Plagne", "cp": "31220", "dept": "31", "lat": 43.1591, "lon": 1.0584}, {"nom": "Plagnole", "cp": "31370", "dept": "31", "lat": 43.4114, "lon": 1.07}, {"nom": "Plaisance-du-Touch", "cp": "31830", "dept": "31", "lat": 43.5626, "lon": 1.2833}, {"nom": "Le Plan", "cp": "31220", "dept": "31", "lat": 43.1631, "lon": 1.1246}, {"nom": "Pointis-de-Rivière", "cp": "31210", "dept": "31", "lat": 43.0909, "lon": 0.626}, {"nom": "Pointis-Inard", "cp": "31800", "dept": "31", "lat": 43.0862, "lon": 0.7949}, {"nom": "Polastron", "cp": "31430", "dept": "31", "lat": 43.3193, "lon": 0.9505}, {"nom": "Pompertuzat", "cp": "31450", "dept": "31", "lat": 43.4958, "lon": 1.5199}, {"nom": "Ponlat-Taillebourg", "cp": "31210", "dept": "31", "lat": 43.1097, "lon": 0.5943}, {"nom": "Portet-d'Aspet", "cp": "31160", "dept": "31", "lat": 42.9412, "lon": 0.8522}, {"nom": "Portet-de-Luchon", "cp": "31110", "dept": "31", "lat": 42.8126, "lon": 0.4732}, {"nom": "Portet-sur-Garonne", "cp": "31120", "dept": "31", "lat": 43.5285, "lon": 1.3995}, {"nom": "Poubeau", "cp": "31110", "dept": "31", "lat": 42.8272, "lon": 0.4909}, {"nom": "Poucharramet", "cp": "31370", "dept": "31", "lat": 43.42, "lon": 1.1657}, {"nom": "Pouy-de-Touges", "cp": "31430", "dept": "31", "lat": 43.3365, "lon": 1.0525}, {"nom": "Pouze", "cp": "31450", "dept": "31", "lat": 43.4341, "lon": 1.5353}, {"nom": "Préserville", "cp": "31570", "dept": "31", "lat": 43.5188, "lon": 1.6265}, {"nom": "Proupiary", "cp": "31360", "dept": "31", "lat": 43.1575, "lon": 0.8672}, {"nom": "Prunet", "cp": "31460", "dept": "31", "lat": 43.572, "lon": 1.7301}, {"nom": "Puydaniel", "cp": "31190", "dept": "31", "lat": 43.3315, "lon": 1.42}, {"nom": "Puymaurin", "cp": "31230", "dept": "31", "lat": 43.3712, "lon": 0.7494}, {"nom": "Puysségur", "cp": "31480", "dept": "31", "lat": 43.7531, "lon": 1.067}, {"nom": "Quint-Fonsegrives", "cp": "31130", "dept": "31", "lat": 43.5806, "lon": 1.5372}, {"nom": "Ramonville-Saint-Agne", "cp": "31520", "dept": "31", "lat": 43.5438, "lon": 1.4784}, {"nom": "Razecueillé", "cp": "31160", "dept": "31", "lat": 42.9626, "lon": 0.8139}, {"nom": "Rebigue", "cp": "31320", "dept": "31", "lat": 43.4896, "lon": 1.4801}, {"nom": "Régades", "cp": "31800", "dept": "31", "lat": 43.0535, "lon": 0.7193}, {"nom": "Renneville", "cp": "31290", "dept": "31", "lat": 43.3803, "lon": 1.7224}, {"nom": "Revel", "cp": "31250", "dept": "31", "lat": 43.4679, "lon": 1.9975}, {"nom": "Rieucazé", "cp": "31800", "dept": "31", "lat": 43.0773, "lon": 0.7516}, {"nom": "Rieumajou", "cp": "31290", "dept": "31", "lat": 43.4112, "lon": 1.8023}, {"nom": "Rieumes", "cp": "31370", "dept": "31", "lat": 43.413, "lon": 1.1104}, {"nom": "Rieux-Volvestre", "cp": "31310", "dept": "31", "lat": 43.2538, "lon": 1.2096}, {"nom": "Riolas", "cp": "31230", "dept": "31", "lat": 43.3501, "lon": 0.9195}, {"nom": "Roquefort-sur-Garonne", "cp": "31360", "dept": "31", "lat": 43.1603, "lon": 0.9839}, {"nom": "Roques", "cp": "31120", "dept": "31", "lat": 43.507, "lon": 1.3576}, {"nom": "Roquesérière", "cp": "31380", "dept": "31", "lat": 43.7299, "lon": 1.634}, {"nom": "Roquettes", "cp": "31120", "dept": "31", "lat": 43.4948, "lon": 1.3745}, {"nom": "Rouède", "cp": "31160", "dept": "31", "lat": 43.055, "lon": 0.8823}, {"nom": "Rouffiac-Tolosan", "cp": "31180", "dept": "31", "lat": 43.6638, "lon": 1.5253}, {"nom": "Roumens", "cp": "31540", "dept": "31", "lat": 43.4634, "lon": 1.9388}, {"nom": "Sabonnères", "cp": "31370", "dept": "31", "lat": 43.4666, "lon": 1.057}, {"nom": "Saccourvielle", "cp": "31110", "dept": "31", "lat": 42.8209, "lon": 0.5671}, {"nom": "Saiguède", "cp": "31470", "dept": "31", "lat": 43.524, "lon": 1.1424}, {"nom": "Saint-Alban", "cp": "31140", "dept": "31", "lat": 43.6955, "lon": 1.4133}, {"nom": "Saint-André", "cp": "31420", "dept": "31", "lat": 43.2752, "lon": 0.8482}, {"nom": "Saint-Araille", "cp": "31430", "dept": "31", "lat": 43.3536, "lon": 1.0067}, {"nom": "Saint-Aventin", "cp": "31110", "dept": "31", "lat": 42.7583, "lon": 0.5745}, {"nom": "Saint-Béat-Lez", "cp": "31440", "dept": "31", "lat": 42.8994, "lon": 0.6945}, {"nom": "Saint-Bertrand-de-Comminges", "cp": "31510", "dept": "31", "lat": 43.0229, "lon": 0.5562}, {"nom": "Saint-Cézert", "cp": "31330", "dept": "31", "lat": 43.7806, "lon": 1.1921}, {"nom": "Saint-Christaud", "cp": "31310", "dept": "31", "lat": 43.1915, "lon": 1.1329}, {"nom": "Saint-Clar-de-Rivière", "cp": "31600", "dept": "31", "lat": 43.4749, "lon": 1.208}, {"nom": "Saint-Élix-le-Château", "cp": "31430", "dept": "31", "lat": 43.2826, "lon": 1.138}, {"nom": "Saint-Élix-Séglan", "cp": "31420", "dept": "31", "lat": 43.1957, "lon": 0.8498}, {"nom": "Saint-Félix-Lauragais", "cp": "31540", "dept": "31", "lat": 43.454, "lon": 1.9057}, {"nom": "Saint-Ferréol-de-Comminges", "cp": "31350", "dept": "31", "lat": 43.341, "lon": 0.738}, {"nom": "Sainte-Foy-d'Aigrefeuille", "cp": "31570", "dept": "31", "lat": 43.5514, "lon": 1.6037}, {"nom": "Sainte-Foy-de-Peyrolières", "cp": "31470", "dept": "31", "lat": 43.4754, "lon": 1.1362}, {"nom": "Saint-Frajou", "cp": "31230", "dept": "31", "lat": 43.3319, "lon": 0.8512}, {"nom": "Saint-Gaudens", "cp": "31800", "dept": "31", "lat": 43.1209, "lon": 0.7254}, {"nom": "Saint-Geniès-Bellevue", "cp": "31180", "dept": "31", "lat": 43.6809, "lon": 1.4819}, {"nom": "Saint-Germier", "cp": "31290", "dept": "31", "lat": 43.4672, "lon": 1.7255}, {"nom": "Saint-Hilaire", "cp": "31410", "dept": "31", "lat": 43.4211, "lon": 1.2689}, {"nom": "Saint-Ignan", "cp": "31800", "dept": "31", "lat": 43.1582, "lon": 0.686}, {"nom": "Saint-Jean", "cp": "31240", "dept": "31", "lat": 43.6641, "lon": 1.5016}, {"nom": "Saint-Jean-Lherm", "cp": "31380", "dept": "31", "lat": 43.6976, "lon": 1.6193}, {"nom": "Saint-Jory", "cp": "31790", "dept": "31", "lat": 43.7398, "lon": 1.3539}, {"nom": "Saint-Julia", "cp": "31540", "dept": "31", "lat": 43.4943, "lon": 1.8949}, {"nom": "Saint-Julien-sur-Garonne", "cp": "31220", "dept": "31", "lat": 43.2497, "lon": 1.146}, {"nom": "Saint-Lary-Boujean", "cp": "31350", "dept": "31", "lat": 43.2206, "lon": 0.7397}, {"nom": "Saint-Laurent", "cp": "31230", "dept": "31", "lat": 43.3255, "lon": 0.8007}, {"nom": "Saint-Léon", "cp": "31560", "dept": "31", "lat": 43.3962, "lon": 1.5645}, {"nom": "Sainte-Livrade", "cp": "31530", "dept": "31", "lat": 43.6487, "lon": 1.1136}, {"nom": "Saint-Loup-Cammas", "cp": "31140", "dept": "31", "lat": 43.6968, "lon": 1.4786}, {"nom": "Saint-Loup-en-Comminges", "cp": "31350", "dept": "31", "lat": 43.2426, "lon": 0.573}, {"nom": "Saint-Lys", "cp": "31470", "dept": "31", "lat": 43.5106, "lon": 1.2023}, {"nom": "Saint-Mamet", "cp": "31110", "dept": "31", "lat": 42.7719, "lon": 0.6328}, {"nom": "Saint-Marcel-Paulel", "cp": "31590", "dept": "31", "lat": 43.6564, "lon": 1.6149}, {"nom": "Saint-Marcet", "cp": "31800", "dept": "31", "lat": 43.1938, "lon": 0.7437}, {"nom": "Saint-Martory", "cp": "31360", "dept": "31", "lat": 43.1449, "lon": 0.9384}, {"nom": "Saint-Médard", "cp": "31360", "dept": "31", "lat": 43.1287, "lon": 0.829}, {"nom": "Saint-Michel", "cp": "31220", "dept": "31", "lat": 43.1613, "lon": 1.0819}, {"nom": "Saint-Orens-de-Gameville", "cp": "31650", "dept": "31", "lat": 43.555, "lon": 1.5332}, {"nom": "Saint-Paul-sur-Save", "cp": "31530", "dept": "31", "lat": 43.699, "lon": 1.2197}, {"nom": "Saint-Paul-d'Oueil", "cp": "31110", "dept": "31", "lat": 42.8408, "lon": 0.5516}, {"nom": "Saint-Pé-d'Ardet", "cp": "31510", "dept": "31", "lat": 42.9856, "lon": 0.6816}, {"nom": "Saint-Pé-Delbosc", "cp": "31350", "dept": "31", "lat": 43.2681, "lon": 0.6964}, {"nom": "Saint-Pierre", "cp": "31590", "dept": "31", "lat": 43.6371, "lon": 1.6408}, {"nom": "Saint-Pierre-de-Lages", "cp": "31570", "dept": "31", "lat": 43.5657, "lon": 1.627}, {"nom": "Saint-Plancard", "cp": "31580", "dept": "31", "lat": 43.169, "lon": 0.5683}, {"nom": "Saint-Rome", "cp": "31290", "dept": "31", "lat": 43.4151, "lon": 1.6745}, {"nom": "Saint-Rustice", "cp": "31620", "dept": "31", "lat": 43.8027, "lon": 1.3282}, {"nom": "Saint-Sauveur", "cp": "31790", "dept": "31", "lat": 43.749, "lon": 1.3947}, {"nom": "Saint-Sulpice-sur-Lèze", "cp": "31410", "dept": "31", "lat": 43.3252, "lon": 1.341}, {"nom": "Saint-Thomas", "cp": "31470", "dept": "31", "lat": 43.5152, "lon": 1.0835}, {"nom": "Saint-Vincent", "cp": "31290", "dept": "31", "lat": 43.4398, "lon": 1.7582}, {"nom": "Sajas", "cp": "31370", "dept": "31", "lat": 43.3765, "lon": 1.0259}, {"nom": "Saleich", "cp": "31260", "dept": "31", "lat": 43.0234, "lon": 0.9649}, {"nom": "Salerm", "cp": "31230", "dept": "31", "lat": 43.3078, "lon": 0.8275}, {"nom": "Salies-du-Salat", "cp": "31260", "dept": "31", "lat": 43.1013, "lon": 0.9637}, {"nom": "Salles-et-Pratviel", "cp": "31110", "dept": "31", "lat": 42.8321, "lon": 0.6072}, {"nom": "Salles-sur-Garonne", "cp": "31390", "dept": "31", "lat": 43.277, "lon": 1.1711}, {"nom": "La Salvetat-Saint-Gilles", "cp": "31880", "dept": "31", "lat": 43.5768, "lon": 1.2655}, {"nom": "La Salvetat-Lauragais", "cp": "31460", "dept": "31", "lat": 43.5466, "lon": 1.8013}, {"nom": "Saman", "cp": "31350", "dept": "31", "lat": 43.2398, "lon": 0.7223}, {"nom": "Samouillan", "cp": "31420", "dept": "31", "lat": 43.2673, "lon": 0.948}, {"nom": "Sana", "cp": "31220", "dept": "31", "lat": 43.2277, "lon": 1.0115}, {"nom": "Sarrecave", "cp": "31350", "dept": "31", "lat": 43.2155, "lon": 0.5943}, {"nom": "Sarremezan", "cp": "31350", "dept": "31", "lat": 43.211, "lon": 0.6673}, {"nom": "Saubens", "cp": "31600", "dept": "31", "lat": 43.4799, "lon": 1.3592}, {"nom": "Saussens", "cp": "31460", "dept": "31", "lat": 43.5922, "lon": 1.7257}, {"nom": "Sauveterre-de-Comminges", "cp": "31510", "dept": "31", "lat": 43.0337, "lon": 0.6744}, {"nom": "Saux-et-Pomarède", "cp": "31800", "dept": "31", "lat": 43.1508, "lon": 0.7043}, {"nom": "Savarthès", "cp": "31800", "dept": "31", "lat": 43.1237, "lon": 0.8032}, {"nom": "Savères", "cp": "31370", "dept": "31", "lat": 43.3743, "lon": 1.0991}, {"nom": "Sédeilhac", "cp": "31580", "dept": "31", "lat": 43.1467, "lon": 0.5404}, {"nom": "Ségreville", "cp": "31460", "dept": "31", "lat": 43.4918, "lon": 1.7491}, {"nom": "Seilh", "cp": "31840", "dept": "31", "lat": 43.692, "lon": 1.3574}, {"nom": "Seilhan", "cp": "31510", "dept": "31", "lat": 43.0517, "lon": 0.581}, {"nom": "Sénarens", "cp": "31430", "dept": "31", "lat": 43.3533, "lon": 0.9776}, {"nom": "Sengouagnet", "cp": "31160", "dept": "31", "lat": 42.9625, "lon": 0.7824}, {"nom": "Sepx", "cp": "31360", "dept": "31", "lat": 43.1563, "lon": 0.8401}, {"nom": "Seyre", "cp": "31560", "dept": "31", "lat": 43.3642, "lon": 1.6638}, {"nom": "Seysses", "cp": "31600", "dept": "31", "lat": 43.4971, "lon": 1.2822}, {"nom": "Signac", "cp": "31440", "dept": "31", "lat": 42.9084, "lon": 0.6167}, {"nom": "Sode", "cp": "31110", "dept": "31", "lat": 42.8122, "lon": 0.6399}, {"nom": "Soueich", "cp": "31160", "dept": "31", "lat": 43.0524, "lon": 0.7832}, {"nom": "Tarabel", "cp": "31570", "dept": "31", "lat": 43.5122, "lon": 1.6773}, {"nom": "Terrebasse", "cp": "31420", "dept": "31", "lat": 43.2403, "lon": 0.9752}, {"nom": "Thil", "cp": "31530", "dept": "31", "lat": 43.7059, "lon": 1.1503}, {"nom": "Touille", "cp": "31260", "dept": "31", "lat": 43.0856, "lon": 0.9804}, {"nom": "Toulouse", "cp": "31000", "dept": "31", "lat": 43.6007, "lon": 1.4328}, {"nom": "Les Tourreilles", "cp": "31210", "dept": "31", "lat": 43.1127, "lon": 0.5498}, {"nom": "Tournefeuille", "cp": "31170", "dept": "31", "lat": 43.5747, "lon": 1.3338}, {"nom": "Toutens", "cp": "31460", "dept": "31", "lat": 43.4747, "lon": 1.7463}, {"nom": "Trébons-de-Luchon", "cp": "31110", "dept": "31", "lat": 42.8021, "lon": 0.5687}, {"nom": "Trébons-sur-la-Grasse", "cp": "31290", "dept": "31", "lat": 43.4505, "lon": 1.7225}, {"nom": "L'Union", "cp": "31240", "dept": "31", "lat": 43.6515, "lon": 1.483}, {"nom": "Urau", "cp": "31260", "dept": "31", "lat": 43.0008, "lon": 0.959}, {"nom": "Vacquiers", "cp": "31340", "dept": "31", "lat": 43.7895, "lon": 1.486}, {"nom": "Valcabrère", "cp": "31510", "dept": "31", "lat": 43.03, "lon": 0.5828}, {"nom": "Valentine", "cp": "31800", "dept": "31", "lat": 43.0886, "lon": 0.7009}, {"nom": "Vallègue", "cp": "31290", "dept": "31", "lat": 43.4256, "lon": 1.7547}, {"nom": "Vallesvilles", "cp": "31570", "dept": "31", "lat": 43.5948, "lon": 1.6487}, {"nom": "Varennes", "cp": "31450", "dept": "31", "lat": 43.4779, "lon": 1.6955}, {"nom": "Vaudreuille", "cp": "31250", "dept": "31", "lat": 43.4226, "lon": 2.0008}, {"nom": "Vaux", "cp": "31540", "dept": "31", "lat": 43.462, "lon": 1.8298}, {"nom": "Vendine", "cp": "31460", "dept": "31", "lat": 43.5904, "lon": 1.7651}, {"nom": "Venerque", "cp": "31810", "dept": "31", "lat": 43.4363, "lon": 1.4629}, {"nom": "Verfeil", "cp": "31590", "dept": "31", "lat": 43.6579, "lon": 1.6792}, {"nom": "Vernet", "cp": "31810", "dept": "31", "lat": 43.4272, "lon": 1.4193}, {"nom": "Vieille-Toulouse", "cp": "31320", "dept": "31", "lat": 43.5299, "lon": 1.4368}, {"nom": "Vieillevigne", "cp": "31290", "dept": "31", "lat": 43.4092, "lon": 1.6599}, {"nom": "Vignaux", "cp": "31480", "dept": "31", "lat": 43.6897, "lon": 1.0654}, {"nom": "Vigoulet-Auzil", "cp": "31320", "dept": "31", "lat": 43.508, "lon": 1.4482}, {"nom": "Villariès", "cp": "31380", "dept": "31", "lat": 43.7512, "lon": 1.4899}, {"nom": "Villate", "cp": "31860", "dept": "31", "lat": 43.4679, "lon": 1.383}, {"nom": "Villaudric", "cp": "31620", "dept": "31", "lat": 43.832, "lon": 1.4372}, {"nom": "Villefranche-de-Lauragais", "cp": "31290", "dept": "31", "lat": 43.4065, "lon": 1.7185}, {"nom": "Villematier", "cp": "31340", "dept": "31", "lat": 43.8312, "lon": 1.4934}, {"nom": "Villemur-sur-Tarn", "cp": "31340", "dept": "31", "lat": 43.8582, "lon": 1.4947}, {"nom": "Villeneuve-de-Rivière", "cp": "31800", "dept": "31", "lat": 43.121, "lon": 0.6681}, {"nom": "Villeneuve-Lécussan", "cp": "31580", "dept": "31", "lat": 43.1344, "lon": 0.4843}, {"nom": "Villeneuve-lès-Bouloc", "cp": "31620", "dept": "31", "lat": 43.7795, "lon": 1.4247}, {"nom": "Villeneuve-Tolosane", "cp": "31270", "dept": "31", "lat": 43.5273, "lon": 1.3447}, {"nom": "Villenouvelle", "cp": "31290", "dept": "31", "lat": 43.4368, "lon": 1.6583}, {"nom": "Binos", "cp": "31440", "dept": "31", "lat": 42.9048, "lon": 0.6095}, {"nom": "Escoulis", "cp": "31260", "dept": "31", "lat": 43.1106, "lon": 1.0302}, {"nom": "Larra", "cp": "31330", "dept": "31", "lat": 43.7355, "lon": 1.2223}, {"nom": "Cazac", "cp": "31230", "dept": "31", "lat": 43.3467, "lon": 0.9562}]