[{"nom": "Alençon", "cp": "61000", "dept": "61", "lat": 48.431, "lon": 0.0923}, {"nom": "Almenêches", "cp": "61570", "dept": "61", "lat": 48.6975, "lon": 0.1242}, {"nom": "Appenai-sous-Bellême", "cp": "61130", "dept": "61", "lat": 48.3398, "lon": 0.5661}, {"nom": "Argentan", "cp": "61200", "dept": "61", "lat": 48.7263, "lon": -0.013}, {"nom": "Athis-Val de Rouvre", "cp": "61100", "dept": "61", "lat": 48.7934, "lon": -0.4621}, {"nom": "Aube", "cp": "61270", "dept": "61", "lat": 48.7312, "lon": 0.5479}, {"nom": "Aubry-le-Panthou", "cp": "61120", "dept": "61", "lat": 48.8531, "lon": 0.2219}, {"nom": "Aubusson", "cp": "61100", "dept": "61", "lat": 48.7794, "lon": -0.5534}, {"nom": "Auguaise", "cp": "61270", "dept": "61", "lat": 48.6964, "lon": 0.5521}, {"nom": "Aunay-les-Bois", "cp": "61500", "dept": "61", "lat": 48.5448, "lon": 0.2957}, {"nom": "Aunou-le-Faucon", "cp": "61200", "dept": "61", "lat": 48.7189, "lon": 0.0532}, {"nom": "Aunou-sur-Orne", "cp": "61500", "dept": "61", "lat": 48.608, "lon": 0.2387}, {"nom": "Avernes-Saint-Gourgon", "cp": "61470", "dept": "61", "lat": 48.9359, "lon": 0.3178}, {"nom": "Avoine", "cp": "61150", "dept": "61", "lat": 48.6734, "lon": -0.1012}, {"nom": "Avrilly", "cp": "61700", "dept": "61", "lat": 48.5367, "lon": -0.6177}, {"nom": "Bailleul", "cp": "61160", "dept": "61", "lat": 48.8129, "lon": -0.0223}, {"nom": "Banvou", "cp": "61450", "dept": "61", "lat": 48.6657, "lon": -0.5537}, {"nom": "Barville", "cp": "61170", "dept": "61", "lat": 48.4737, "lon": 0.3449}, {"nom": "Bazoches-au-Houlme", "cp": "61210", "dept": "61", "lat": 48.8271, "lon": -0.2674}, {"nom": "Bazoches-sur-Hoëne", "cp": "61560", "dept": "61", "lat": 48.5509, "lon": 0.4644}, {"nom": "La Bazoque", "cp": "61100", "dept": "61", "lat": 48.7856, "lon": -0.598}, {"nom": "Beaufai", "cp": "61270", "dept": "61", "lat": 48.758, "lon": 0.5125}, {"nom": "Beaulieu", "cp": "61190", "dept": "61", "lat": 48.6801, "lon": 0.7341}, {"nom": "Beauvain", "cp": "61600", "dept": "61", "lat": 48.6213, "lon": -0.3178}, {"nom": "Belfonds", "cp": "61500", "dept": "61", "lat": 48.6117, "lon": 0.1089}, {"nom": "Bellavilliers", "cp": "61360", "dept": "61", "lat": 48.4208, "lon": 0.4843}, {"nom": "Bellême", "cp": "61130", "dept": "61", "lat": 48.3719, "lon": 0.5638}, {"nom": "La Bellière", "cp": "61570", "dept": "61", "lat": 48.6182, "lon": -0.0173}, {"nom": "Bellou-en-Houlme", "cp": "61220", "dept": "61", "lat": 48.6912, "lon": -0.4416}, {"nom": "Bellou-le-Trichard", "cp": "61130", "dept": "61", "lat": 48.2676, "lon": 0.5549}, {"nom": "Berd'huis", "cp": "61340", "dept": "61", "lat": 48.3517, "lon": 0.7411}, {"nom": "Berjou", "cp": "61430", "dept": "61", "lat": 48.8512, "lon": -0.4813}, {"nom": "Bizou", "cp": "61290", "dept": "61", "lat": 48.4909, "lon": 0.7484}, {"nom": "Boëcé", "cp": "61560", "dept": "61", "lat": 48.5148, "lon": 0.4535}, {"nom": "Boissei-la-Lande", "cp": "61570", "dept": "61", "lat": 48.6879, "lon": 0.0592}, {"nom": "Cour-Maugis sur Huisne", "cp": "61110", "dept": "61", "lat": 48.4567, "lon": 0.6962}, {"nom": "Boitron", "cp": "61500", "dept": "61", "lat": 48.5696, "lon": 0.2687}, {"nom": "Bonnefoi", "cp": "61270", "dept": "61", "lat": 48.6751, "lon": 0.5652}, {"nom": "Bonsmoulins", "cp": "61380", "dept": "61", "lat": 48.661, "lon": 0.5432}, {"nom": "Le Bosc-Renoult", "cp": "61470", "dept": "61", "lat": 48.9149, "lon": 0.3128}, {"nom": "Boucé", "cp": "61570", "dept": "61", "lat": 48.6306, "lon": -0.0935}, {"nom": "Le Bouillon", "cp": "61500", "dept": "61", "lat": 48.5587, "lon": 0.0978}, {"nom": "Brethel", "cp": "61270", "dept": "61", "lat": 48.7167, "lon": 0.5426}, {"nom": "Bretoncelles", "cp": "61110", "dept": "61", "lat": 48.4388, "lon": 0.9055}, {"nom": "Brieux", "cp": "61160", "dept": "61", "lat": 48.8334, "lon": -0.0802}, {"nom": "Briouze", "cp": "61220", "dept": "61", "lat": 48.7084, "lon": -0.3852}, {"nom": "Brullemail", "cp": "61390", "dept": "61", "lat": 48.6582, "lon": 0.3238}, {"nom": "Buré", "cp": "61170", "dept": "61", "lat": 48.5048, "lon": 0.402}, {"nom": "Bures", "cp": "61170", "dept": "61", "lat": 48.557, "lon": 0.3974}, {"nom": "Bursard", "cp": "61500", "dept": "61", "lat": 48.5404, "lon": 0.204}, {"nom": "Cahan", "cp": "61430", "dept": "61", "lat": 48.8577, "lon": -0.4475}, {"nom": "Caligny", "cp": "61100", "dept": "61", "lat": 48.8025, "lon": -0.6013}, {"nom": "Camembert", "cp": "61120", "dept": "61", "lat": 48.8924, "lon": 0.1701}, {"nom": "Canapville", "cp": "61120", "dept": "61", "lat": 48.9485, "lon": 0.2534}, {"nom": "Carrouges", "cp": "61320", "dept": "61", "lat": 48.5688, "lon": -0.1603}, {"nom": "Ceaucé", "cp": "61330", "dept": "61", "lat": 48.4892, "lon": -0.6321}, {"nom": "Le Cercueil", "cp": "61500", "dept": "61", "lat": 48.5962, "lon": 0.0087}, {"nom": "Cerisé", "cp": "61000", "dept": "61", "lat": 48.4451, "lon": 0.1314}, {"nom": "Cerisy-Belle-Étoile", "cp": "61100", "dept": "61", "lat": 48.7841, "lon": -0.6256}, {"nom": "Ceton", "cp": "61260", "dept": "61", "lat": 48.2209, "lon": 0.7563}, {"nom": "Chahains", "cp": "61320", "dept": "61", "lat": 48.5614, "lon": -0.1099}, {"nom": "Chailloué", "cp": "61240", "dept": "61", "lat": 48.6597, "lon": 0.2124}, {"nom": "Le Chalange", "cp": "61390", "dept": "61", "lat": 48.5895, "lon": 0.3128}, {"nom": "Champcerie", "cp": "61210", "dept": "61", "lat": 48.7993, "lon": -0.2288}, {"nom": "Le Champ-de-la-Pierre", "cp": "61320", "dept": "61", "lat": 48.6008, "lon": -0.2071}, {"nom": "Les Champeaux", "cp": "61120", "dept": "61", "lat": 48.8904, "lon": 0.1333}, {"nom": "Champeaux-sur-Sarthe", "cp": "61560", "dept": "61", "lat": 48.5743, "lon": 0.4458}, {"nom": "Champ-Haut", "cp": "61240", "dept": "61", "lat": 48.7276, "lon": 0.3232}, {"nom": "Champosoult", "cp": "61120", "dept": "61", "lat": 48.8649, "lon": 0.1662}, {"nom": "Champsecret", "cp": "61700", "dept": "61", "lat": 48.6066, "lon": -0.5254}, {"nom": "Chandai", "cp": "61300", "dept": "61", "lat": 48.7424, "lon": 0.7444}, {"nom": "Chanu", "cp": "61800", "dept": "61", "lat": 48.7242, "lon": -0.6733}, {"nom": "La Chapelle-au-Moine", "cp": "61100", "dept": "61", "lat": 48.7039, "lon": -0.5921}, {"nom": "La Chapelle-Biche", "cp": "61100", "dept": "61", "lat": 48.7139, "lon": -0.6231}, {"nom": "Rives d'Andaine", "cp": "61140", "dept": "61", "lat": 48.5352, "lon": -0.4434}, {"nom": "La Chapelle-Montligeon", "cp": "61400", "dept": "61", "lat": 48.4836, "lon": 0.6583}, {"nom": "La Chapelle-près-Sées", "cp": "61500", "dept": "61", "lat": 48.5692, "lon": 0.1493}, {"nom": "La Chapelle-Souëf", "cp": "61130", "dept": "61", "lat": 48.3177, "lon": 0.5893}, {"nom": "La Chapelle-Viel", "cp": "61270", "dept": "61", "lat": 48.7114, "lon": 0.6123}, {"nom": "Le Château-d'Almenêches", "cp": "61570", "dept": "61", "lat": 48.672, "lon": 0.1322}, {"nom": "Le Châtellier", "cp": "61450", "dept": "61", "lat": 48.6747, "lon": -0.5811}, {"nom": "Chaumont", "cp": "61230", "dept": "61", "lat": 48.8472, "lon": 0.3341}, {"nom": "La Chaux", "cp": "61600", "dept": "61", "lat": 48.6007, "lon": -0.2668}, {"nom": "Chemilli", "cp": "61360", "dept": "61", "lat": 48.3618, "lon": 0.4528}, {"nom": "Ciral", "cp": "61320", "dept": "61", "lat": 48.5115, "lon": -0.1343}, {"nom": "Cisai-Saint-Aubin", "cp": "61230", "dept": "61", "lat": 48.7746, "lon": 0.3572}, {"nom": "Colombiers", "cp": "61250", "dept": "61", "lat": 48.4746, "lon": 0.047}, {"nom": "Comblot", "cp": "61400", "dept": "61", "lat": 48.4617, "lon": 0.5854}, {"nom": "Commeaux", "cp": "61200", "dept": "61", "lat": 48.7874, "lon": -0.0958}, {"nom": "Sablons sur Huisne", "cp": "61110", "dept": "61", "lat": 48.384, "lon": 0.8714}, {"nom": "Condé-sur-Sarthe", "cp": "61250", "dept": "61", "lat": 48.4316, "lon": 0.0319}, {"nom": "Corbon", "cp": "61400", "dept": "61", "lat": 48.4577, "lon": 0.6445}, {"nom": "Coudehard", "cp": "61160", "dept": "61", "lat": 48.848, "lon": 0.1399}, {"nom": "Coulimer", "cp": "61360", "dept": "61", "lat": 48.4795, "lon": 0.4634}, {"nom": "Coulmer", "cp": "61230", "dept": "61", "lat": 48.7664, "lon": 0.3024}, {"nom": "Coulonces", "cp": "61160", "dept": "61", "lat": 48.8328, "lon": 0.0166}, {"nom": "La Coulonche", "cp": "61220", "dept": "61", "lat": 48.6375, "lon": -0.4635}, {"nom": "Coulonges-sur-Sarthe", "cp": "61170", "dept": "61", "lat": 48.5284, "lon": 0.3915}, {"nom": "Courgeon", "cp": "61400", "dept": "61", "lat": 48.4786, "lon": 0.6159}, {"nom": "Courgeoût", "cp": "61560", "dept": "61", "lat": 48.5069, "lon": 0.4829}, {"nom": "Courtomer", "cp": "61390", "dept": "61", "lat": 48.6267, "lon": 0.3504}, {"nom": "Craménil", "cp": "61220", "dept": "61", "lat": 48.7437, "lon": -0.3712}, {"nom": "Croisilles", "cp": "61230", "dept": "61", "lat": 48.7609, "lon": 0.2663}, {"nom": "Crouttes", "cp": "61120", "dept": "61", "lat": 48.9241, "lon": 0.1459}, {"nom": "Crulai", "cp": "61300", "dept": "61", "lat": 48.6937, "lon": 0.6599}, {"nom": "Cuissai", "cp": "61250", "dept": "61", "lat": 48.4723, "lon": 0.0026}, {"nom": "Dame-Marie", "cp": "61130", "dept": "61", "lat": 48.3582, "lon": 0.6179}, {"nom": "Damigny", "cp": "61250", "dept": "61", "lat": 48.4519, "lon": 0.0699}, {"nom": "Domfront en Poiraie", "cp": "61700", "dept": "61", "lat": 48.5866, "lon": -0.6554}, {"nom": "Dompierre", "cp": "61700", "dept": "61", "lat": 48.6356, "lon": -0.5557}, {"nom": "Durcet", "cp": "61100", "dept": "61", "lat": 48.7397, "lon": -0.4444}, {"nom": "Échalou", "cp": "61440", "dept": "61", "lat": 48.7229, "lon": -0.4922}, {"nom": "Échauffour", "cp": "61370", "dept": "61", "lat": 48.7352, "lon": 0.3949}, {"nom": "Écorcei", "cp": "61270", "dept": "61", "lat": 48.7208, "lon": 0.5749}, {"nom": "Écorches", "cp": "61160", "dept": "61", "lat": 48.8715, "lon": 0.0891}, {"nom": "Écouché-les-Vallées", "cp": "61150", "dept": "61", "lat": 48.7232, "lon": -0.1316}, {"nom": "Essay", "cp": "61500", "dept": "61", "lat": 48.5388, "lon": 0.2471}, {"nom": "Faverolles", "cp": "61600", "dept": "61", "lat": 48.6691, "lon": -0.2898}, {"nom": "Fay", "cp": "61390", "dept": "61", "lat": 48.6637, "lon": 0.411}, {"nom": "Feings", "cp": "61400", "dept": "61", "lat": 48.5423, "lon": 0.648}, {"nom": "La Ferrière-au-Doyen", "cp": "61380", "dept": "61", "lat": 48.6781, "lon": 0.5072}, {"nom": "La Ferrière-aux-Étangs", "cp": "61450", "dept": "61", "lat": 48.6527, "lon": -0.5069}, {"nom": "La Ferrière-Béchet", "cp": "61500", "dept": "61", "lat": 48.573, "lon": 0.0736}, {"nom": "La Ferrière-Bochard", "cp": "61420", "dept": "61", "lat": 48.4143, "lon": -0.0345}, {"nom": "Ferrières-la-Verrerie", "cp": "61390", "dept": "61", "lat": 48.6534, "lon": 0.3819}, {"nom": "La Ferté-en-Ouche", "cp": "61470", "dept": "61", "lat": 48.8436, "lon": 0.4951}, {"nom": "La Ferté Macé", "cp": "61410", "dept": "61", "lat": 48.5688, "lon": -0.3592}, {"nom": "Flers", "cp": "61100", "dept": "61", "lat": 48.7389, "lon": -0.5603}, {"nom": "Fleuré", "cp": "61200", "dept": "61", "lat": 48.6803, "lon": -0.0458}, {"nom": "Fontaine-les-Bassets", "cp": "61160", "dept": "61", "lat": 48.8618, "lon": 0.0017}, {"nom": "Francheville", "cp": "61570", "dept": "61", "lat": 48.6371, "lon": -0.0615}, {"nom": "La Fresnaie-Fayel", "cp": "61230", "dept": "61", "lat": 48.8343, "lon": 0.2279}, {"nom": "Fresnay-le-Samson", "cp": "61120", "dept": "61", "lat": 48.8747, "lon": 0.2052}, {"nom": "Gacé", "cp": "61230", "dept": "61", "lat": 48.7895, "lon": 0.3118}, {"nom": "Gandelain", "cp": "61420", "dept": "61", "lat": 48.4724, "lon": -0.0852}, {"nom": "Gâprée", "cp": "61390", "dept": "61", "lat": 48.6262, "lon": 0.2899}, {"nom": "Les Genettes", "cp": "61270", "dept": "61", "lat": 48.6623, "lon": 0.5822}, {"nom": "Giel-Courteilles", "cp": "61210", "dept": "61", "lat": 48.7638, "lon": -0.2117}, {"nom": "Ginai", "cp": "61310", "dept": "61", "lat": 48.7447, "lon": 0.2093}, {"nom": "La Gonfrière", "cp": "61550", "dept": "61", "lat": 48.8145, "lon": 0.4919}, {"nom": "Monts-sur-Orne", "cp": "61150", "dept": "61", "lat": 48.7509, "lon": -0.1194}, {"nom": "Le Grais", "cp": "61600", "dept": "61", "lat": 48.6446, "lon": -0.3253}, {"nom": "Belforêt-en-Perche", "cp": "61130", "dept": "61", "lat": 48.3841, "lon": 0.5039}, {"nom": "Guêprei", "cp": "61160", "dept": "61", "lat": 48.8361, "lon": -0.0188}, {"nom": "Guerquesalles", "cp": "61120", "dept": "61", "lat": 48.8967, "lon": 0.2179}, {"nom": "Habloville", "cp": "61210", "dept": "61", "lat": 48.7862, "lon": -0.1761}, {"nom": "Hauterive", "cp": "61250", "dept": "61", "lat": 48.4807, "lon": 0.2057}, {"nom": "Héloup", "cp": "61250", "dept": "61", "lat": 48.3994, "lon": 0.0353}, {"nom": "L'Hôme-Chamondot", "cp": "61290", "dept": "61", "lat": 48.6032, "lon": 0.7373}, {"nom": "Igé", "cp": "61130", "dept": "61", "lat": 48.3142, "lon": 0.5129}, {"nom": "Irai", "cp": "61190", "dept": "61", "lat": 48.6721, "lon": 0.6883}, {"nom": "Joué-du-Bois", "cp": "61320", "dept": "61", "lat": 48.5854, "lon": -0.2356}, {"nom": "Joué-du-Plain", "cp": "61150", "dept": "61", "lat": 48.6829, "lon": -0.1462}, {"nom": "Juvigny Val d'Andaine", "cp": "61140", "dept": "61", "lat": 48.5269, "lon": -0.5205}, {"nom": "Juvigny-sur-Orne", "cp": "61200", "dept": "61", "lat": 48.7247, "lon": 0.024}, {"nom": "Lalacelle", "cp": "61320", "dept": "61", "lat": 48.4694, "lon": -0.1249}, {"nom": "L'Aigle", "cp": "61300", "dept": "61", "lat": 48.7566, "lon": 0.6118}, {"nom": "Laleu", "cp": "61170", "dept": "61", "lat": 48.5369, "lon": 0.3669}, {"nom": "La Lande-de-Goult", "cp": "61320", "dept": "61", "lat": 48.5852, "lon": -0.0535}, {"nom": "La Lande-de-Lougé", "cp": "61210", "dept": "61", "lat": 48.7021, "lon": -0.2499}, {"nom": "La Lande-Patry", "cp": "61100", "dept": "61", "lat": 48.7529, "lon": -0.5988}, {"nom": "La Lande-Saint-Siméon", "cp": "61100", "dept": "61", "lat": 48.8271, "lon": -0.4311}, {"nom": "Landigou", "cp": "61100", "dept": "61", "lat": 48.7429, "lon": -0.4753}, {"nom": "Landisacq", "cp": "61100", "dept": "61", "lat": 48.7507, "lon": -0.654}, {"nom": "Larré", "cp": "61250", "dept": "61", "lat": 48.4939, "lon": 0.1658}, {"nom": "Lignères", "cp": "61240", "dept": "61", "lat": 48.7395, "lon": 0.3031}, {"nom": "Lignou", "cp": "61220", "dept": "61", "lat": 48.6756, "lon": -0.345}, {"nom": "L'Orée-d'Écouves", "cp": "61320", "dept": "61", "lat": 48.5182, "lon": -0.0135}, {"nom": "Loisail", "cp": "61400", "dept": "61", "lat": 48.5048, "lon": 0.5841}, {"nom": "Longny les Villages", "cp": "61290", "dept": "61", "lat": 48.5419, "lon": 0.8033}, {"nom": "Lonlay-l'Abbaye", "cp": "61700", "dept": "61", "lat": 48.6547, "lon": -0.7082}, {"nom": "Lonlay-le-Tesson", "cp": "61600", "dept": "61", "lat": 48.6527, "lon": -0.3506}, {"nom": "Lonrai", "cp": "61250", "dept": "61", "lat": 48.4537, "lon": 0.0379}, {"nom": "Lougé-sur-Maire", "cp": "61150", "dept": "61", "lat": 48.7014, "lon": -0.2187}, {"nom": "Louvières-en-Auge", "cp": "61160", "dept": "61", "lat": 48.8684, "lon": 0.0267}, {"nom": "Macé", "cp": "61500", "dept": "61", "lat": 48.6479, "lon": 0.1372}, {"nom": "La Madeleine-Bouvet", "cp": "61110", "dept": "61", "lat": 48.4712, "lon": 0.8952}, {"nom": "Le Mage", "cp": "61290", "dept": "61", "lat": 48.5039, "lon": 0.8128}, {"nom": "Magny-le-Désert", "cp": "61600", "dept": "61", "lat": 48.5685, "lon": -0.3217}, {"nom": "Mahéru", "cp": "61380", "dept": "61", "lat": 48.6597, "lon": 0.4392}, {"nom": "Mantilly", "cp": "61350", "dept": "61", "lat": 48.5124, "lon": -0.8179}, {"nom": "Marchemaisons", "cp": "61170", "dept": "61", "lat": 48.5232, "lon": 0.3176}, {"nom": "Mardilly", "cp": "61230", "dept": "61", "lat": 48.8283, "lon": 0.2651}, {"nom": "Mauves-sur-Huisne", "cp": "61400", "dept": "61", "lat": 48.44, "lon": 0.6071}, {"nom": "Médavy", "cp": "61570", "dept": "61", "lat": 48.6729, "lon": 0.0806}, {"nom": "Méhoudin", "cp": "61410", "dept": "61", "lat": 48.5085, "lon": -0.3808}, {"nom": "Le Mêle-sur-Sarthe", "cp": "61170", "dept": "61", "lat": 48.5116, "lon": 0.3536}, {"nom": "Le Ménil-Bérard", "cp": "61270", "dept": "61", "lat": 48.7068, "lon": 0.511}, {"nom": "Le Ménil-de-Briouze", "cp": "61220", "dept": "61", "lat": 48.6645, "lon": -0.3974}, {"nom": "Le Ménil-Broût", "cp": "61250", "dept": "61", "lat": 48.482, "lon": 0.2396}, {"nom": "Le Ménil-Ciboult", "cp": "61800", "dept": "61", "lat": 48.7637, "lon": -0.7924}, {"nom": "Ménil-Erreux", "cp": "61250", "dept": "61", "lat": 48.5043, "lon": 0.1844}, {"nom": "Ménil-Froger", "cp": "61240", "dept": "61", "lat": 48.7331, "lon": 0.2673}, {"nom": "Ménil-Gondouin", "cp": "61210", "dept": "61", "lat": 48.754, "lon": -0.2961}, {"nom": "Le Ménil-Guyon", "cp": "61170", "dept": "61", "lat": 48.5797, "lon": 0.2937}, {"nom": "Ménil-Hermei", "cp": "61210", "dept": "61", "lat": 48.8268, "lon": -0.319}, {"nom": "Ménil-Hubert-en-Exmes", "cp": "61230", "dept": "61", "lat": 48.8031, "lon": 0.2344}, {"nom": "Ménil-Hubert-sur-Orne", "cp": "61430", "dept": "61", "lat": 48.8518, "lon": -0.4141}, {"nom": "Le Ménil-Scelleur", "cp": "61320", "dept": "61", "lat": 48.614, "lon": -0.124}, {"nom": "Le Ménil-Vicomte", "cp": "61240", "dept": "61", "lat": 48.7445, "lon": 0.2958}, {"nom": "Ménil-Vin", "cp": "61210", "dept": "61", "lat": 48.8466, "lon": -0.3173}, {"nom": "Les Menus", "cp": "61290", "dept": "61", "lat": 48.5165, "lon": 0.9289}, {"nom": "Merlerault-le-Pin", "cp": "61240", "dept": "61", "lat": 48.695, "lon": 0.2669}, {"nom": "Merri", "cp": "61160", "dept": "61", "lat": 48.8492, "lon": -0.0481}, {"nom": "La Mesnière", "cp": "61560", "dept": "61", "lat": 48.5218, "lon": 0.4385}, {"nom": "Messei", "cp": "61440", "dept": "61", "lat": 48.713, "lon": -0.536}, {"nom": "Mieuxcé", "cp": "61250", "dept": "61", "lat": 48.4127, "lon": -0.0043}, {"nom": "Moncy", "cp": "61800", "dept": "61", "lat": 48.8347, "lon": -0.6736}, {"nom": "Montabard", "cp": "61160", "dept": "61", "lat": 48.812, "lon": -0.0845}, {"nom": "Montchevrel", "cp": "61170", "dept": "61", "lat": 48.5819, "lon": 0.3348}, {"nom": "Montgaudry", "cp": "61360", "dept": "61", "lat": 48.4071, "lon": 0.4028}, {"nom": "Montilly-sur-Noireau", "cp": "61100", "dept": "61", "lat": 48.8134, "lon": -0.5728}, {"nom": "Montmerrei", "cp": "61570", "dept": "61", "lat": 48.6307, "lon": 0.031}, {"nom": "Mont-Ormel", "cp": "61160", "dept": "61", "lat": 48.8357, "lon": 0.1537}, {"nom": "Montreuil-au-Houlme", "cp": "61210", "dept": "61", "lat": 48.6813, "lon": -0.266}, {"nom": "Montreuil-la-Cambe", "cp": "61160", "dept": "61", "lat": 48.8844, "lon": 0.0325}, {"nom": "Montsecret-Clairefougère", "cp": "61800", "dept": "61", "lat": 48.8006, "lon": -0.6787}, {"nom": "Mortagne-au-Perche", "cp": "61400", "dept": "61", "lat": 48.5189, "lon": 0.5642}, {"nom": "Mortrée", "cp": "61500", "dept": "61", "lat": 48.6242, "lon": 0.0745}, {"nom": "La Motte-Fouquet", "cp": "61600", "dept": "61", "lat": 48.5671, "lon": -0.2695}, {"nom": "Moulins-la-Marche", "cp": "61380", "dept": "61", "lat": 48.6522, "lon": 0.4767}, {"nom": "Moulins-sur-Orne", "cp": "61200", "dept": "61", "lat": 48.7534, "lon": -0.0707}, {"nom": "Moutiers-au-Perche", "cp": "61110", "dept": "61", "lat": 48.4804, "lon": 0.8624}, {"nom": "Neauphe-sous-Essai", "cp": "61500", "dept": "61", "lat": 48.562, "lon": 0.1948}, {"nom": "Neauphe-sur-Dive", "cp": "61160", "dept": "61", "lat": 48.8513, "lon": 0.0913}, {"nom": "Nécy", "cp": "61160", "dept": "61", "lat": 48.8294, "lon": -0.1189}, {"nom": "Neuilly-le-Bisson", "cp": "61250", "dept": "61", "lat": 48.505, "lon": 0.2186}, {"nom": "Neuville-sur-Touques", "cp": "61120", "dept": "61", "lat": 48.8635, "lon": 0.2871}, {"nom": "Neuvy-au-Houlme", "cp": "61210", "dept": "61", "lat": 48.8231, "lon": -0.1901}, {"nom": "Perche en Nocé", "cp": "61340", "dept": "61", "lat": 48.3585, "lon": 0.6958}, {"nom": "Occagnes", "cp": "61200", "dept": "61", "lat": 48.7843, "lon": -0.0673}, {"nom": "Ommoy", "cp": "61160", "dept": "61", "lat": 48.8551, "lon": -0.0251}, {"nom": "Orgères", "cp": "61230", "dept": "61", "lat": 48.7484, "lon": 0.3522}, {"nom": "Origny-le-Roux", "cp": "61130", "dept": "61", "lat": 48.3333, "lon": 0.4196}, {"nom": "Pacé", "cp": "61250", "dept": "61", "lat": 48.4478, "lon": -0.0078}, {"nom": "Parfondeval", "cp": "61400", "dept": "61", "lat": 48.4797, "lon": 0.5058}, {"nom": "Le Pas-Saint-l'Homer", "cp": "61290", "dept": "61", "lat": 48.4932, "lon": 0.9265}, {"nom": "Passais Villages", "cp": "61350", "dept": "61", "lat": 48.4886, "lon": -0.7687}, {"nom": "Perrou", "cp": "61700", "dept": "61", "lat": 48.5753, "lon": -0.5469}, {"nom": "Pervenchères", "cp": "61360", "dept": "61", "lat": 48.442, "lon": 0.4062}, {"nom": "Le Pin-au-Haras", "cp": "61310", "dept": "61", "lat": 48.7461, "lon": 0.1386}, {"nom": "Le Pin-la-Garenne", "cp": "61400", "dept": "61", "lat": 48.4433, "lon": 0.5494}, {"nom": "Planches", "cp": "61370", "dept": "61", "lat": 48.687, "lon": 0.376}, {"nom": "Le Plantis", "cp": "61170", "dept": "61", "lat": 48.6027, "lon": 0.3944}, {"nom": "Pointel", "cp": "61220", "dept": "61", "lat": 48.697, "lon": -0.35}, {"nom": "Pontchardon", "cp": "61120", "dept": "61", "lat": 48.9307, "lon": 0.2613}, {"nom": "Pouvrai", "cp": "61130", "dept": "61", "lat": 48.2797, "lon": 0.5183}, {"nom": "Putanges-le-Lac", "cp": "61210", "dept": "61", "lat": 48.7711, "lon": -0.2889}, {"nom": "Écouves", "cp": "61250", "dept": "61", "lat": 48.5101, "lon": 0.1057}, {"nom": "Rai", "cp": "61270", "dept": "61", "lat": 48.7552, "lon": 0.5604}, {"nom": "Rânes", "cp": "61150", "dept": "61", "lat": 48.6424, "lon": -0.2196}, {"nom": "Rémalard en Perche", "cp": "61110", "dept": "61", "lat": 48.4405, "lon": 0.7644}, {"nom": "Le Renouard", "cp": "61120", "dept": "61", "lat": 48.9182, "lon": 0.0946}, {"nom": "Résenlieu", "cp": "61230", "dept": "61", "lat": 48.7907, "lon": 0.276}, {"nom": "Réveillon", "cp": "61400", "dept": "61", "lat": 48.4808, "lon": 0.5595}, {"nom": "Ri", "cp": "61210", "dept": "61", "lat": 48.7897, "lon": -0.1416}, {"nom": "La Roche-Mabile", "cp": "61420", "dept": "61", "lat": 48.4892, "lon": -0.0699}, {"nom": "Roiville", "cp": "61120", "dept": "61", "lat": 48.8797, "lon": 0.2361}, {"nom": "Rônai", "cp": "61160", "dept": "61", "lat": 48.8103, "lon": -0.1347}, {"nom": "Rouperroux", "cp": "61320", "dept": "61", "lat": 48.5476, "lon": -0.079}, {"nom": "Sai", "cp": "61200", "dept": "61", "lat": 48.7415, "lon": 0.0246}, {"nom": "Saint-Agnan-sur-Sarthe", "cp": "61170", "dept": "61", "lat": 48.6194, "lon": 0.4304}, {"nom": "Saint-André-de-Briouze", "cp": "61220", "dept": "61", "lat": 48.7327, "lon": -0.3243}, {"nom": "Saint-André-de-Messei", "cp": "61440", "dept": "61", "lat": 48.6882, "lon": -0.5275}, {"nom": "Saint-Aquilin-de-Corbion", "cp": "61380", "dept": "61", "lat": 48.6416, "lon": 0.5285}, {"nom": "Saint-Aubin-d'Appenai", "cp": "61170", "dept": "61", "lat": 48.5404, "lon": 0.3413}, {"nom": "Saint-Aubin-de-Bonneval", "cp": "61470", "dept": "61", "lat": 48.9495, "lon": 0.3691}, {"nom": "Saint-Aubin-de-Courteraie", "cp": "61560", "dept": "61", "lat": 48.6096, "lon": 0.4512}, {"nom": "Saint-Bômer-les-Forges", "cp": "61700", "dept": "61", "lat": 48.6443, "lon": -0.6196}, {"nom": "Saint-Brice", "cp": "61700", "dept": "61", "lat": 48.5486, "lon": -0.6398}, {"nom": "Saint-Brice-sous-Rânes", "cp": "61150", "dept": "61", "lat": 48.6793, "lon": -0.1932}, {"nom": "Saint-Céneri-le-Gérei", "cp": "61250", "dept": "61", "lat": 48.3872, "lon": -0.0391}, {"nom": "Sainte-Céronne-lès-Mortagne", "cp": "61380", "dept": "61", "lat": 48.5911, "lon": 0.5241}, {"nom": "Saint-Christophe-de-Chaulieu", "cp": "61800", "dept": "61", "lat": 48.7439, "lon": -0.8303}, {"nom": "Boischampré", "cp": "61570", "dept": "61", "lat": 48.6765, "lon": 0.0084}, {"nom": "Saint-Clair-de-Halouze", "cp": "61490", "dept": "61", "lat": 48.6875, "lon": -0.6229}, {"nom": "Saint-Cyr-la-Rosière", "cp": "61130", "dept": "61", "lat": 48.3164, "lon": 0.6428}, {"nom": "Saint-Denis-sur-Huisne", "cp": "61400", "dept": "61", "lat": 48.4706, "lon": 0.5317}, {"nom": "Saint-Denis-sur-Sarthon", "cp": "61420", "dept": "61", "lat": 48.4563, "lon": -0.0346}, {"nom": "Saint-Ellier-les-Bois", "cp": "61320", "dept": "61", "lat": 48.5263, "lon": -0.1008}, {"nom": "Saint-Evroult-de-Montfort", "cp": "61230", "dept": "61", "lat": 48.8139, "lon": 0.3134}, {"nom": "Saint-Evroult-Notre-Dame-du-Bois", "cp": "61550", "dept": "61", "lat": 48.7829, "lon": 0.4457}, {"nom": "Saint-Fraimbault", "cp": "61350", "dept": "61", "lat": 48.4987, "lon": -0.7165}, {"nom": "Saint-Fulgent-des-Ormes", "cp": "61130", "dept": "61", "lat": 48.3224, "lon": 0.452}, {"nom": "Sainte-Gauburge-Sainte-Colombe", "cp": "61370", "dept": "61", "lat": 48.7082, "lon": 0.4443}, {"nom": "Saint-Georges-d'Annebecq", "cp": "61600", "dept": "61", "lat": 48.6271, "lon": -0.2657}, {"nom": "Saint-Georges-des-Groseillers", "cp": "61100", "dept": "61", "lat": 48.7705, "lon": -0.5655}, {"nom": "Saint-Germain-d'Aunay", "cp": "61470", "dept": "61", "lat": 48.93, "lon": 0.3809}, {"nom": "Saint-Germain-de-Clairefeuille", "cp": "61240", "dept": "61", "lat": 48.7267, "lon": 0.2338}, {"nom": "Saint-Germain-de-la-Coudre", "cp": "61130", "dept": "61", "lat": 48.2729, "lon": 0.5943}, {"nom": "Saint-Germain-des-Grois", "cp": "61110", "dept": "61", "lat": 48.4066, "lon": 0.8154}, {"nom": "Saint-Germain-de-Martigny", "cp": "61560", "dept": "61", "lat": 48.5867, "lon": 0.4656}, {"nom": "Saint-Germain-du-Corbéis", "cp": "61000", "dept": "61", "lat": 48.4178, "lon": 0.0587}, {"nom": "Saint-Germain-le-Vieux", "cp": "61390", "dept": "61", "lat": 48.612, "lon": 0.3108}, {"nom": "Saint-Gervais-des-Sablons", "cp": "61160", "dept": "61", "lat": 48.9029, "lon": 0.0705}, {"nom": "Saint-Gervais-du-Perron", "cp": "61500", "dept": "61", "lat": 48.5372, "lon": 0.1456}, {"nom": "Saint-Gilles-des-Marais", "cp": "61700", "dept": "61", "lat": 48.5863, "lon": -0.6973}, {"nom": "Saint-Hilaire-de-Briouze", "cp": "61220", "dept": "61", "lat": 48.7059, "lon": -0.3051}, {"nom": "Saint-Hilaire-le-Châtel", "cp": "61400", "dept": "61", "lat": 48.5563, "lon": 0.5456}, {"nom": "Saint-Hilaire-sur-Erre", "cp": "61340", "dept": "61", "lat": 48.3119, "lon": 0.7495}, {"nom": "Saint-Hilaire-sur-Risle", "cp": "61270", "dept": "61", "lat": 48.7246, "lon": 0.5073}, {"nom": "Sainte-Honorine-la-Chardonne", "cp": "61430", "dept": "61", "lat": 48.8233, "lon": -0.4824}, {"nom": "Sainte-Honorine-la-Guillaume", "cp": "61210", "dept": "61", "lat": 48.7775, "lon": -0.3769}, {"nom": "Saint-Jouin-de-Blavou", "cp": "61360", "dept": "61", "lat": 48.448, "lon": 0.4816}, {"nom": "Saint-Julien-sur-Sarthe", "cp": "61170", "dept": "61", "lat": 48.4887, "lon": 0.372}, {"nom": "Saint-Lambert-sur-Dive", "cp": "61160", "dept": "61", "lat": 48.8295, "lon": 0.0933}, {"nom": "Saint-Langis-lès-Mortagne", "cp": "61400", "dept": "61", "lat": 48.5101, "lon": 0.5335}, {"nom": "Saint-Léger-sur-Sarthe", "cp": "61170", "dept": "61", "lat": 48.4956, "lon": 0.3166}, {"nom": "Saint-Léonard-des-Parcs", "cp": "61390", "dept": "61", "lat": 48.6438, "lon": 0.2789}, {"nom": "Saint-Mard-de-Réno", "cp": "61400", "dept": "61", "lat": 48.5091, "lon": 0.6368}, {"nom": "Sainte-Marguerite-de-Carrouges", "cp": "61320", "dept": "61", "lat": 48.5937, "lon": -0.1515}, {"nom": "Sainte-Marie-la-Robert", "cp": "61320", "dept": "61", "lat": 48.6276, "lon": -0.1435}, {"nom": "Saint-Mars-d'Égrenne", "cp": "61350", "dept": "61", "lat": 48.5514, "lon": -0.7366}, {"nom": "Les Aspres", "cp": "61270", "dept": "61", "lat": 48.6735, "lon": 0.6026}, {"nom": "Saint-Martin-d'Écublei", "cp": "61300", "dept": "61", "lat": 48.7947, "lon": 0.6689}, {"nom": "Saint-Martin-des-Landes", "cp": "61320", "dept": "61", "lat": 48.546, "lon": -0.1563}, {"nom": "Saint-Martin-des-Pézerits", "cp": "61380", "dept": "61", "lat": 48.6285, "lon": 0.489}, {"nom": "Saint-Martin-du-Vieux-Bellême", "cp": "61130", "dept": "61", "lat": 48.37, "lon": 0.5466}, {"nom": "Saint-Martin-l'Aiguillon", "cp": "61320", "dept": "61", "lat": 48.6008, "lon": -0.176}, {"nom": "Charencey", "cp": "61190", "dept": "61", "lat": 48.6394, "lon": 0.7597}, {"nom": "Saint-Michel-Tubœuf", "cp": "61300", "dept": "61", "lat": 48.7555, "lon": 0.6856}, {"nom": "Saint-Nicolas-des-Bois", "cp": "61250", "dept": "61", "lat": 48.5109, "lon": 0.0186}, {"nom": "Saint-Nicolas-de-Sommaire", "cp": "61550", "dept": "61", "lat": 48.814, "lon": 0.5958}, {"nom": "Sainte-Opportune", "cp": "61100", "dept": "61", "lat": 48.7358, "lon": -0.4124}, {"nom": "Saint-Ouen-de-Sécherouvre", "cp": "61560", "dept": "61", "lat": 48.5972, "lon": 0.4881}, {"nom": "Saint-Ouen-le-Brisoult", "cp": "61410", "dept": "61", "lat": 48.5062, "lon": -0.3481}, {"nom": "Saint-Ouen-sur-Iton", "cp": "61300", "dept": "61", "lat": 48.7364, "lon": 0.6736}, {"nom": "Saint-Patrice-du-Désert", "cp": "61600", "dept": "61", "lat": 48.5347, "lon": -0.2902}, {"nom": "Saint-Paul", "cp": "61100", "dept": "61", "lat": 48.737, "lon": -0.6289}, {"nom": "Saint-Philbert-sur-Orne", "cp": "61430", "dept": "61", "lat": 48.8347, "lon": -0.3741}, {"nom": "Saint-Pierre-d'Entremont", "cp": "61800", "dept": "61", "lat": 48.812, "lon": -0.65}, {"nom": "Saint-Pierre-des-Loges", "cp": "61370", "dept": "61", "lat": 48.7425, "lon": 0.467}, {"nom": "Saint-Pierre-du-Regard", "cp": "61790", "dept": "61", "lat": 48.8322, "lon": -0.5399}, {"nom": "Saint-Pierre-la-Bruyère", "cp": "61340", "dept": "61", "lat": 48.361, "lon": 0.8014}, {"nom": "Saint-Quentin-de-Blavou", "cp": "61360", "dept": "61", "lat": 48.4799, "lon": 0.419}, {"nom": "Saint-Quentin-les-Chardonnets", "cp": "61800", "dept": "61", "lat": 48.7824, "lon": -0.7498}, {"nom": "Saint-Roch-sur-Égrenne", "cp": "61350", "dept": "61", "lat": 48.577, "lon": -0.7426}, {"nom": "Saint-Sauveur-de-Carrouges", "cp": "61320", "dept": "61", "lat": 48.5887, "lon": -0.1111}, {"nom": "Sainte-Scolasse-sur-Sarthe", "cp": "61170", "dept": "61", "lat": 48.5816, "lon": 0.3862}, {"nom": "Saint-Sulpice-sur-Risle", "cp": "61300", "dept": "61", "lat": 48.7784, "lon": 0.6806}, {"nom": "Saint-Symphorien-des-Bruyères", "cp": "61300", "dept": "61", "lat": 48.7869, "lon": 0.5634}, {"nom": "Saires-la-Verrerie", "cp": "61220", "dept": "61", "lat": 48.6883, "lon": -0.4867}, {"nom": "Sap-en-Auge", "cp": "61120", "dept": "61", "lat": 48.8868, "lon": 0.3196}, {"nom": "Le Sap-André", "cp": "61230", "dept": "61", "lat": 48.8309, "lon": 0.3893}, {"nom": "Sarceaux", "cp": "61200", "dept": "61", "lat": 48.7157, "lon": -0.0336}, {"nom": "Les Monts d'Andaine", "cp": "61600", "dept": "61", "lat": 48.6129, "lon": -0.4259}, {"nom": "Sées", "cp": "61500", "dept": "61", "lat": 48.6075, "lon": 0.1645}, {"nom": "La Selle-la-Forge", "cp": "61100", "dept": "61", "lat": 48.736, "lon": -0.5302}, {"nom": "Semallé", "cp": "61250", "dept": "61", "lat": 48.473, "lon": 0.1578}, {"nom": "Sévigny", "cp": "61200", "dept": "61", "lat": 48.7726, "lon": -0.0198}, {"nom": "Sevrai", "cp": "61150", "dept": "61", "lat": 48.7038, "lon": -0.1495}, {"nom": "Gouffern en Auge", "cp": "61160", "dept": "61", "lat": 48.7851, "lon": 0.1126}, {"nom": "Soligny-la-Trappe", "cp": "61380", "dept": "61", "lat": 48.6256, "lon": 0.5561}, {"nom": "Suré", "cp": "61360", "dept": "61", "lat": 48.3692, "lon": 0.4099}, {"nom": "Tanques", "cp": "61150", "dept": "61", "lat": 48.6832, "lon": -0.0763}, {"nom": "Tanville", "cp": "61500", "dept": "61", "lat": 48.566, "lon": 0.0108}, {"nom": "Tellières-le-Plessis", "cp": "61390", "dept": "61", "lat": 48.6232, "lon": 0.3942}, {"nom": "Tessé-Froulay", "cp": "61410", "dept": "61", "lat": 48.531, "lon": -0.4287}, {"nom": "Bagnoles de l'Orne Normandie", "cp": "61140", "dept": "61", "lat": 48.5696, "lon": -0.4174}, {"nom": "Val-au-Perche", "cp": "61130", "dept": "61", "lat": 48.2883, "lon": 0.6987}, {"nom": "Ticheville", "cp": "61120", "dept": "61", "lat": 48.9055, "lon": 0.2619}, {"nom": "Tinchebray-Bocage", "cp": "61800", "dept": "61", "lat": 48.7283, "lon": -0.7337}, {"nom": "Torchamp", "cp": "61330", "dept": "61", "lat": 48.5376, "lon": -0.6741}, {"nom": "Touquettes", "cp": "61550", "dept": "61", "lat": 48.7938, "lon": 0.4186}, {"nom": "Tournai-sur-Dive", "cp": "61160", "dept": "61", "lat": 48.81, "lon": 0.0477}, {"nom": "Tourouvre au Perche", "cp": "61190", "dept": "61", "lat": 48.6065, "lon": 0.6321}, {"nom": "Trémont", "cp": "61390", "dept": "61", "lat": 48.5988, "lon": 0.2737}, {"nom": "La Trinité-des-Laitiers", "cp": "61230", "dept": "61", "lat": 48.7959, "lon": 0.3774}, {"nom": "Trun", "cp": "61160", "dept": "61", "lat": 48.8504, "lon": 0.0438}, {"nom": "Valframbert", "cp": "61250", "dept": "61", "lat": 48.4659, "lon": 0.1157}, {"nom": "Vaunoise", "cp": "61130", "dept": "61", "lat": 48.3495, "lon": 0.4839}, {"nom": "Les Ventes-de-Bourse", "cp": "61170", "dept": "61", "lat": 48.5061, "lon": 0.2664}, {"nom": "La Ventrouze", "cp": "61190", "dept": "61", "lat": 48.6124, "lon": 0.6877}, {"nom": "Verrières", "cp": "61110", "dept": "61", "lat": 48.3937, "lon": 0.747}, {"nom": "Vidai", "cp": "61360", "dept": "61", "lat": 48.46, "lon": 0.3724}, {"nom": "Vieux-Pont", "cp": "61150", "dept": "61", "lat": 48.6504, "lon": -0.1507}, {"nom": "Villedieu-lès-Bailleul", "cp": "61160", "dept": "61", "lat": 48.8008, "lon": 0.0171}, {"nom": "Villiers-sous-Mortagne", "cp": "61400", "dept": "61", "lat": 48.542, "lon": 0.5954}, {"nom": "Vimoutiers", "cp": "61120", "dept": "61", "lat": 48.9254, "lon": 0.1954}, {"nom": "Vitrai-sous-Laigle", "cp": "61300", "dept": "61", "lat": 48.7149, "lon": 0.709}, {"nom": "Les Yveteaux", "cp": "61210", "dept": "61", "lat": 48.7107, "lon": -0.271}]