[{"nom": "Achun", "cp": "58110", "dept": "58", "lat": 47.1317, "lon": 3.6605}, {"nom": "Alligny-Cosne", "cp": "58200", "dept": "58", "lat": 47.4463, "lon": 3.0726}, {"nom": "Alligny-en-Morvan", "cp": "58230", "dept": "58", "lat": 47.2102, "lon": 4.1674}, {"nom": "Alluy", "cp": "58110", "dept": "58", "lat": 47.036, "lon": 3.6417}, {"nom": "Amazy", "cp": "58190", "dept": "58", "lat": 47.384, "lon": 3.5697}, {"nom": "Anlezy", "cp": "58270", "dept": "58", "lat": 46.9688, "lon": 3.4925}, {"nom": "Annay", "cp": "58450", "dept": "58", "lat": 47.5297, "lon": 2.9415}, {"nom": "Anthien", "cp": "58800", "dept": "58", "lat": 47.3087, "lon": 3.7265}, {"nom": "Arbourse", "cp": "58350", "dept": "58", "lat": 47.2478, "lon": 3.2275}, {"nom": "Arleuf", "cp": "58430", "dept": "58", "lat": 47.0388, "lon": 4.0175}, {"nom": "Armes", "cp": "58500", "dept": "58", "lat": 47.464, "lon": 3.5591}, {"nom": "Arquian", "cp": "58310", "dept": "58", "lat": 47.5313, "lon": 3.0008}, {"nom": "Arthel", "cp": "58700", "dept": "58", "lat": 47.243, "lon": 3.4104}, {"nom": "Arzembouy", "cp": "58700", "dept": "58", "lat": 47.2452, "lon": 3.3596}, {"nom": "Asnan", "cp": "58420", "dept": "58", "lat": 47.3105, "lon": 3.5519}, {"nom": "Asnois", "cp": "58190", "dept": "58", "lat": 47.4011, "lon": 3.5868}, {"nom": "Aunay-en-Bazois", "cp": "58110", "dept": "58", "lat": 47.1268, "lon": 3.724}, {"nom": "Authiou", "cp": "58700", "dept": "58", "lat": 47.2676, "lon": 3.4145}, {"nom": "Avrée", "cp": "58170", "dept": "58", "lat": 46.8251, "lon": 3.8801}, {"nom": "Avril-sur-Loire", "cp": "58300", "dept": "58", "lat": 46.8041, "lon": 3.3654}, {"nom": "Azy-le-Vif", "cp": "58240", "dept": "58", "lat": 46.7873, "lon": 3.2268}, {"nom": "Bazoches", "cp": "58190", "dept": "58", "lat": 47.3686, "lon": 3.7938}, {"nom": "Bazolles", "cp": "58110", "dept": "58", "lat": 47.145, "lon": 3.6075}, {"nom": "Béard", "cp": "58160", "dept": "58", "lat": 46.8682, "lon": 3.3238}, {"nom": "Beaulieu", "cp": "58420", "dept": "58", "lat": 47.2593, "lon": 3.536}, {"nom": "Beaumont-la-Ferrière", "cp": "58700", "dept": "58", "lat": 47.1847, "lon": 3.2364}, {"nom": "Beaumont-Sardolles", "cp": "58270", "dept": "58", "lat": 46.9358, "lon": 3.3987}, {"nom": "Beuvron", "cp": "58210", "dept": "58", "lat": 47.351, "lon": 3.4997}, {"nom": "Biches", "cp": "58110", "dept": "58", "lat": 46.9936, "lon": 3.6583}, {"nom": "Billy-Chevannes", "cp": "58270", "dept": "58", "lat": 47.0108, "lon": 3.4662}, {"nom": "Billy-sur-Oisy", "cp": "58500", "dept": "58", "lat": 47.4836, "lon": 3.3962}, {"nom": "Bitry", "cp": "58310", "dept": "58", "lat": 47.4908, "lon": 3.0891}, {"nom": "Blismes", "cp": "58120", "dept": "58", "lat": 47.1296, "lon": 3.8227}, {"nom": "Bona", "cp": "58330", "dept": "58", "lat": 47.0636, "lon": 3.426}, {"nom": "Bouhy", "cp": "58310", "dept": "58", "lat": 47.4897, "lon": 3.1831}, {"nom": "Brassy", "cp": "58140", "dept": "58", "lat": 47.2584, "lon": 3.9374}, {"nom": "Breugnon", "cp": "58460", "dept": "58", "lat": 47.4281, "lon": 3.4576}, {"nom": "Brèves", "cp": "58530", "dept": "58", "lat": 47.4299, "lon": 3.6223}, {"nom": "Brinay", "cp": "58110", "dept": "58", "lat": 47.0113, "lon": 3.7058}, {"nom": "Brinon-sur-Beuvron", "cp": "58420", "dept": "58", "lat": 47.2844, "lon": 3.4912}, {"nom": "Bulcy", "cp": "58400", "dept": "58", "lat": 47.2405, "lon": 3.0271}, {"nom": "Bussy-la-Pesle", "cp": "58420", "dept": "58", "lat": 47.2547, "lon": 3.4746}, {"nom": "La Celle-sur-Loire", "cp": "58440", "dept": "58", "lat": 47.4835, "lon": 2.9403}, {"nom": "La Celle-sur-Nièvre", "cp": "58700", "dept": "58", "lat": 47.2174, "lon": 3.2005}, {"nom": "Cercy-la-Tour", "cp": "58340", "dept": "58", "lat": 46.8492, "lon": 3.6457}, {"nom": "Cervon", "cp": "58800", "dept": "58", "lat": 47.2415, "lon": 3.744}, {"nom": "Cessy-les-Bois", "cp": "58220", "dept": "58", "lat": 47.3332, "lon": 3.2194}, {"nom": "Chalaux", "cp": "58140", "dept": "58", "lat": 47.3348, "lon": 3.9129}, {"nom": "Challement", "cp": "58420", "dept": "58", "lat": 47.3124, "lon": 3.5974}, {"nom": "Challuy", "cp": "58000", "dept": "58", "lat": 46.9446, "lon": 3.1368}, {"nom": "Champallement", "cp": "58420", "dept": "58", "lat": 47.2297, "lon": 3.4795}, {"nom": "Champlemy", "cp": "58210", "dept": "58", "lat": 47.2869, "lon": 3.3328}, {"nom": "Champlin", "cp": "58700", "dept": "58", "lat": 47.2449, "lon": 3.4506}, {"nom": "Champvert", "cp": "58300", "dept": "58", "lat": 46.8535, "lon": 3.5305}, {"nom": "Champvoux", "cp": "58400", "dept": "58", "lat": 47.1459, "lon": 3.0718}, {"nom": "Chantenay-Saint-Imbert", "cp": "58240", "dept": "58", "lat": 46.7394, "lon": 3.1681}, {"nom": "La Chapelle-Saint-André", "cp": "58210", "dept": "58", "lat": 47.3998, "lon": 3.3254}, {"nom": "La Charité-sur-Loire", "cp": "58400", "dept": "58", "lat": 47.183, "lon": 3.0291}, {"nom": "Charrin", "cp": "58300", "dept": "58", "lat": 46.7993, "lon": 3.599}, {"nom": "Chasnay", "cp": "58350", "dept": "58", "lat": 47.2351, "lon": 3.1738}, {"nom": "Château-Chinon (Ville)", "cp": "58120", "dept": "58", "lat": 47.066, "lon": 3.9261}, {"nom": "Château-Chinon (Campagne)", "cp": "58120", "dept": "58", "lat": 47.0559, "lon": 3.9408}, {"nom": "Châteauneuf-Val-de-Bargis", "cp": "58350", "dept": "58", "lat": 47.2807, "lon": 3.2129}, {"nom": "Châtillon-en-Bazois", "cp": "58110", "dept": "58", "lat": 47.0554, "lon": 3.6546}, {"nom": "Châtin", "cp": "58120", "dept": "58", "lat": 47.1048, "lon": 3.8858}, {"nom": "Chaulgnes", "cp": "58400", "dept": "58", "lat": 47.1242, "lon": 3.1104}, {"nom": "Chaumard", "cp": "58120", "dept": "58", "lat": 47.1447, "lon": 3.9151}, {"nom": "Chaumot", "cp": "58800", "dept": "58", "lat": 47.2506, "lon": 3.6425}, {"nom": "Chazeuil", "cp": "58700", "dept": "58", "lat": 47.2743, "lon": 3.4034}, {"nom": "Chevannes-Changy", "cp": "58420", "dept": "58", "lat": 47.2889, "lon": 3.4547}, {"nom": "Chevenon", "cp": "58160", "dept": "58", "lat": 46.9128, "lon": 3.2288}, {"nom": "Chevroches", "cp": "58500", "dept": "58", "lat": 47.4458, "lon": 3.5445}, {"nom": "Chiddes", "cp": "58170", "dept": "58", "lat": 46.863, "lon": 3.9318}, {"nom": "Chitry-les-Mines", "cp": "58800", "dept": "58", "lat": 47.2748, "lon": 3.6623}, {"nom": "Chougny", "cp": "58110", "dept": "58", "lat": 47.0876, "lon": 3.759}, {"nom": "Ciez", "cp": "58220", "dept": "58", "lat": 47.443, "lon": 3.1643}, {"nom": "Cizely", "cp": "58270", "dept": "58", "lat": 46.985, "lon": 3.4656}, {"nom": "Clamecy", "cp": "58500", "dept": "58", "lat": 47.4588, "lon": 3.5188}, {"nom": "La Collancelle", "cp": "58800", "dept": "58", "lat": 47.1779, "lon": 3.6453}, {"nom": "Colméry", "cp": "58350", "dept": "58", "lat": 47.346, "lon": 3.2441}, {"nom": "Corancy", "cp": "58120", "dept": "58", "lat": 47.1092, "lon": 3.9638}, {"nom": "Corbigny", "cp": "58800", "dept": "58", "lat": 47.2553, "lon": 3.6947}, {"nom": "Corvol-d'Embernard", "cp": "58210", "dept": "58", "lat": 47.2943, "lon": 3.4002}, {"nom": "Corvol-l'Orgueilleux", "cp": "58460", "dept": "58", "lat": 47.4342, "lon": 3.3716}, {"nom": "Cosne-Cours-sur-Loire", "cp": "58200", "dept": "58", "lat": 47.414, "lon": 2.9419}, {"nom": "Cossaye", "cp": "58300", "dept": "58", "lat": 46.7556, "lon": 3.511}, {"nom": "Coulanges-lès-Nevers", "cp": "58660", "dept": "58", "lat": 47.0157, "lon": 3.2005}, {"nom": "Couloutre", "cp": "58220", "dept": "58", "lat": 47.3989, "lon": 3.2232}, {"nom": "Courcelles", "cp": "58210", "dept": "58", "lat": 47.4013, "lon": 3.3924}, {"nom": "Crux-la-Ville", "cp": "58330", "dept": "58", "lat": 47.1556, "lon": 3.53}, {"nom": "Cuncy-lès-Varzy", "cp": "58210", "dept": "58", "lat": 47.3619, "lon": 3.4585}, {"nom": "Dampierre-sous-Bouhy", "cp": "58310", "dept": "58", "lat": 47.5061, "lon": 3.1323}, {"nom": "Decize", "cp": "58300", "dept": "58", "lat": 46.809, "lon": 3.4695}, {"nom": "Devay", "cp": "58300", "dept": "58", "lat": 46.8022, "lon": 3.5375}, {"nom": "Diennes-Aubigny", "cp": "58340", "dept": "58", "lat": 46.9185, "lon": 3.5751}, {"nom": "Dirol", "cp": "58190", "dept": "58", "lat": 47.3223, "lon": 3.6424}, {"nom": "Dommartin", "cp": "58120", "dept": "58", "lat": 47.0709, "lon": 3.8479}, {"nom": "Dompierre-sur-Nièvre", "cp": "58350", "dept": "58", "lat": 47.2327, "lon": 3.2556}, {"nom": "Donzy", "cp": "58220", "dept": "58", "lat": 47.3798, "lon": 3.1171}, {"nom": "Dornecy", "cp": "58530", "dept": "58", "lat": 47.4428, "lon": 3.5891}, {"nom": "Dornes", "cp": "58390", "dept": "58", "lat": 46.7196, "lon": 3.3373}, {"nom": "Druy-Parigny", "cp": "58160", "dept": "58", "lat": 46.8771, "lon": 3.3749}, {"nom": "Dun-les-Places", "cp": "58230", "dept": "58", "lat": 47.2868, "lon": 4.0174}, {"nom": "Dun-sur-Grandry", "cp": "58110", "dept": "58", "lat": 47.0877, "lon": 3.7996}, {"nom": "Empury", "cp": "58140", "dept": "58", "lat": 47.3484, "lon": 3.8207}, {"nom": "Entrains-sur-Nohain", "cp": "58410", "dept": "58", "lat": 47.4559, "lon": 3.2763}, {"nom": "Epiry", "cp": "58800", "dept": "58", "lat": 47.1718, "lon": 3.7308}, {"nom": "Fâchin", "cp": "58430", "dept": "58", "lat": 47.0019, "lon": 3.9683}, {"nom": "La Fermeté", "cp": "58160", "dept": "58", "lat": 46.9587, "lon": 3.3295}, {"nom": "Fertrève", "cp": "58270", "dept": "58", "lat": 46.9615, "lon": 3.5892}, {"nom": "Fléty", "cp": "58170", "dept": "58", "lat": 46.8006, "lon": 3.9095}, {"nom": "Fleury-sur-Loire", "cp": "58240", "dept": "58", "lat": 46.8307, "lon": 3.3173}, {"nom": "Flez-Cuzy", "cp": "58190", "dept": "58", "lat": 47.3592, "lon": 3.6315}, {"nom": "Fourchambault", "cp": "58600", "dept": "58", "lat": 47.0159, "lon": 3.0932}, {"nom": "Fours", "cp": "58250", "dept": "58", "lat": 46.8114, "lon": 3.722}, {"nom": "Frasnay-Reugny", "cp": "58270", "dept": "58", "lat": 46.9901, "lon": 3.5237}, {"nom": "Gâcogne", "cp": "58140", "dept": "58", "lat": 47.2321, "lon": 3.8788}, {"nom": "Garchizy", "cp": "58600", "dept": "58", "lat": 47.0445, "lon": 3.0944}, {"nom": "Garchy", "cp": "58150", "dept": "58", "lat": 47.2776, "lon": 3.0476}, {"nom": "Germenay", "cp": "58800", "dept": "58", "lat": 47.2886, "lon": 3.5993}, {"nom": "Germigny-sur-Loire", "cp": "58320", "dept": "58", "lat": 47.0762, "lon": 3.0479}, {"nom": "Gien-sur-Cure", "cp": "58230", "dept": "58", "lat": 47.1425, "lon": 4.0892}, {"nom": "Gimouille", "cp": "58470", "dept": "58", "lat": 46.9397, "lon": 3.0942}, {"nom": "Giry", "cp": "58700", "dept": "58", "lat": 47.2152, "lon": 3.3305}, {"nom": "Glux-en-Glenne", "cp": "58370", "dept": "58", "lat": 46.9541, "lon": 4.019}, {"nom": "Gouloux", "cp": "58230", "dept": "58", "lat": 47.2314, "lon": 4.0843}, {"nom": "Grenois", "cp": "58420", "dept": "58", "lat": 47.3183, "lon": 3.52}, {"nom": "Guérigny", "cp": "58130", "dept": "58", "lat": 47.0972, "lon": 3.2177}, {"nom": "Guipy", "cp": "58420", "dept": "58", "lat": 47.228, "lon": 3.5825}, {"nom": "Héry", "cp": "58800", "dept": "58", "lat": 47.2617, "lon": 3.5932}, {"nom": "Imphy", "cp": "58160", "dept": "58", "lat": 46.9366, "lon": 3.2815}, {"nom": "Isenay", "cp": "58290", "dept": "58", "lat": 46.9124, "lon": 3.7127}, {"nom": "Jailly", "cp": "58330", "dept": "58", "lat": 47.0853, "lon": 3.4693}, {"nom": "Lamenay-sur-Loire", "cp": "58300", "dept": "58", "lat": 46.7459, "lon": 3.5788}, {"nom": "Langeron", "cp": "58240", "dept": "58", "lat": 46.818, "lon": 3.0832}, {"nom": "Lanty", "cp": "58250", "dept": "58", "lat": 46.8085, "lon": 3.8288}, {"nom": "Larochemillay", "cp": "58370", "dept": "58", "lat": 46.8855, "lon": 3.9836}, {"nom": "Lavault-de-Frétoy", "cp": "58230", "dept": "58", "lat": 47.1024, "lon": 4.0162}, {"nom": "Limanton", "cp": "58290", "dept": "58", "lat": 46.9835, "lon": 3.7344}, {"nom": "Limon", "cp": "58270", "dept": "58", "lat": 46.9649, "lon": 3.3945}, {"nom": "Livry", "cp": "58240", "dept": "58", "lat": 46.7714, "lon": 3.072}, {"nom": "Lormes", "cp": "58140", "dept": "58", "lat": 47.2941, "lon": 3.827}, {"nom": "Lucenay-lès-Aix", "cp": "58380", "dept": "58", "lat": 46.694, "lon": 3.4947}, {"nom": "Lurcy-le-Bourg", "cp": "58700", "dept": "58", "lat": 47.167, "lon": 3.3962}, {"nom": "Luthenay-Uxeloup", "cp": "58240", "dept": "58", "lat": 46.8583, "lon": 3.2686}, {"nom": "Luzy", "cp": "58170", "dept": "58", "lat": 46.7986, "lon": 3.9929}, {"nom": "Lys", "cp": "58190", "dept": "58", "lat": 47.3361, "lon": 3.6003}, {"nom": "La Machine", "cp": "58260", "dept": "58", "lat": 46.8875, "lon": 3.4617}, {"nom": "Magny-Cours", "cp": "58470", "dept": "58", "lat": 46.8906, "lon": 3.1562}, {"nom": "Magny-Lormes", "cp": "58800", "dept": "58", "lat": 47.2904, "lon": 3.7479}, {"nom": "La Maison-Dieu", "cp": "58190", "dept": "58", "lat": 47.4255, "lon": 3.6704}, {"nom": "La Marche", "cp": "58400", "dept": "58", "lat": 47.148, "lon": 3.0453}, {"nom": "Marcy", "cp": "58210", "dept": "58", "lat": 47.3203, "lon": 3.3997}, {"nom": "Marigny-l'Église", "cp": "58140", "dept": "58", "lat": 47.3445, "lon": 3.9346}, {"nom": "Mars-sur-Allier", "cp": "58240", "dept": "58", "lat": 46.8597, "lon": 3.0879}, {"nom": "Marigny-sur-Yonne", "cp": "58800", "dept": "58", "lat": 47.2871, "lon": 3.643}, {"nom": "Marzy", "cp": "58180", "dept": "58", "lat": 46.9865, "lon": 3.0942}, {"nom": "Maux", "cp": "58290", "dept": "58", "lat": 47.0405, "lon": 3.7729}, {"nom": "Menestreau", "cp": "58410", "dept": "58", "lat": 47.4115, "lon": 3.2638}, {"nom": "Menou", "cp": "58210", "dept": "58", "lat": 47.3664, "lon": 3.2817}, {"nom": "Mesves-sur-Loire", "cp": "58400", "dept": "58", "lat": 47.2329, "lon": 3.0089}, {"nom": "Metz-le-Comte", "cp": "58190", "dept": "58", "lat": 47.3925, "lon": 3.6405}, {"nom": "Mhère", "cp": "58140", "dept": "58", "lat": 47.1946, "lon": 3.8611}, {"nom": "Millay", "cp": "58170", "dept": "58", "lat": 46.8363, "lon": 3.9813}, {"nom": "Moissy-Moulinot", "cp": "58190", "dept": "58", "lat": 47.3275, "lon": 3.7053}, {"nom": "Monceaux-le-Comte", "cp": "58190", "dept": "58", "lat": 47.331, "lon": 3.6637}, {"nom": "Montapas", "cp": "58110", "dept": "58", "lat": 47.0816, "lon": 3.5852}, {"nom": "Montambert", "cp": "58250", "dept": "58", "lat": 46.7736, "lon": 3.689}, {"nom": "Montaron", "cp": "58250", "dept": "58", "lat": 46.8803, "lon": 3.7476}, {"nom": "Montenoison", "cp": "58700", "dept": "58", "lat": 47.2151, "lon": 3.4173}, {"nom": "Mont-et-Marré", "cp": "58110", "dept": "58", "lat": 47.0902, "lon": 3.6432}, {"nom": "Montigny-aux-Amognes", "cp": "58130", "dept": "58", "lat": 47.0243, "lon": 3.2792}, {"nom": "Montigny-en-Morvan", "cp": "58120", "dept": "58", "lat": 47.1422, "lon": 3.8603}, {"nom": "Montigny-sur-Canne", "cp": "58340", "dept": "58", "lat": 46.9458, "lon": 3.6504}, {"nom": "Montreuillon", "cp": "58800", "dept": "58", "lat": 47.168, "lon": 3.7935}, {"nom": "Montsauche-les-Settons", "cp": "58230", "dept": "58", "lat": 47.2179, "lon": 4.0395}, {"nom": "Moraches", "cp": "58420", "dept": "58", "lat": 47.2854, "lon": 3.5443}, {"nom": "Moulins-Engilbert", "cp": "58290", "dept": "58", "lat": 46.9759, "lon": 3.8216}, {"nom": "Mouron-sur-Yonne", "cp": "58800", "dept": "58", "lat": 47.1965, "lon": 3.7372}, {"nom": "Moussy", "cp": "58700", "dept": "58", "lat": 47.197, "lon": 3.4581}, {"nom": "Moux-en-Morvan", "cp": "58230", "dept": "58", "lat": 47.1714, "lon": 4.1258}, {"nom": "Murlin", "cp": "58700", "dept": "58", "lat": 47.1955, "lon": 3.1729}, {"nom": "Myennes", "cp": "58440", "dept": "58", "lat": 47.4549, "lon": 2.9449}, {"nom": "Nannay", "cp": "58350", "dept": "58", "lat": 47.2615, "lon": 3.1705}, {"nom": "Narcy", "cp": "58400", "dept": "58", "lat": 47.2308, "lon": 3.0989}, {"nom": "Neuffontaines", "cp": "58190", "dept": "58", "lat": 47.3536, "lon": 3.7335}, {"nom": "Neuilly", "cp": "58420", "dept": "58", "lat": 47.2449, "lon": 3.521}, {"nom": "Neuville-lès-Decize", "cp": "58300", "dept": "58", "lat": 46.7755, "lon": 3.2981}, {"nom": "Neuvy-sur-Loire", "cp": "58450", "dept": "58", "lat": 47.5294, "lon": 2.8866}, {"nom": "Nevers", "cp": "58000", "dept": "58", "lat": 46.9852, "lon": 3.1598}, {"nom": "La Nocle-Maulaix", "cp": "58250", "dept": "58", "lat": 46.7636, "lon": 3.7531}, {"nom": "Nolay", "cp": "58700", "dept": "58", "lat": 47.1178, "lon": 3.3197}, {"nom": "Nuars", "cp": "58190", "dept": "58", "lat": 47.3881, "lon": 3.7144}, {"nom": "Oisy", "cp": "58500", "dept": "58", "lat": 47.4717, "lon": 3.4461}, {"nom": "Onlay", "cp": "58370", "dept": "58", "lat": 46.9659, "lon": 3.8967}, {"nom": "Ouagne", "cp": "58500", "dept": "58", "lat": 47.4025, "lon": 3.5016}, {"nom": "Oudan", "cp": "58210", "dept": "58", "lat": 47.3419, "lon": 3.3292}, {"nom": "Ougny", "cp": "58110", "dept": "58", "lat": 47.0751, "lon": 3.7103}, {"nom": "Oulon", "cp": "58700", "dept": "58", "lat": 47.1966, "lon": 3.4035}, {"nom": "Vaux d'Amognes", "cp": "58130", "dept": "58", "lat": 47.077, "lon": 3.2904}, {"nom": "Ouroux-en-Morvan", "cp": "58230", "dept": "58", "lat": 47.1917, "lon": 3.9483}, {"nom": "Parigny-la-Rose", "cp": "58210", "dept": "58", "lat": 47.3318, "lon": 3.4577}, {"nom": "Parigny-les-Vaux", "cp": "58320", "dept": "58", "lat": 47.102, "lon": 3.141}, {"nom": "Pazy", "cp": "58800", "dept": "58", "lat": 47.2329, "lon": 3.6353}, {"nom": "Perroy", "cp": "58220", "dept": "58", "lat": 47.4014, "lon": 3.1597}, {"nom": "Planchez", "cp": "58230", "dept": "58", "lat": 47.1483, "lon": 4.0241}, {"nom": "Poil", "cp": "58170", "dept": "58", "lat": 46.8704, "lon": 4.0559}, {"nom": "Poiseux", "cp": "58130", "dept": "58", "lat": 47.1251, "lon": 3.2413}, {"nom": "Pougny", "cp": "58200", "dept": "58", "lat": 47.3965, "lon": 3.0251}, {"nom": "Pougues-les-Eaux", "cp": "58320", "dept": "58", "lat": 47.0763, "lon": 3.0944}, {"nom": "Pouilly-sur-Loire", "cp": "58150", "dept": "58", "lat": 47.2815, "lon": 2.9799}, {"nom": "Pouques-Lormes", "cp": "58140", "dept": "58", "lat": 47.3259, "lon": 3.7742}, {"nom": "Pousseaux", "cp": "58500", "dept": "58", "lat": 47.4974, "lon": 3.5446}, {"nom": "Prémery", "cp": "58700", "dept": "58", "lat": 47.168, "lon": 3.3205}, {"nom": "Préporché", "cp": "58360", "dept": "58", "lat": 46.9406, "lon": 3.861}, {"nom": "Raveau", "cp": "58400", "dept": "58", "lat": 47.1832, "lon": 3.1161}, {"nom": "Rémilly", "cp": "58250", "dept": "58", "lat": 46.8304, "lon": 3.7932}, {"nom": "Rix", "cp": "58500", "dept": "58", "lat": 47.4265, "lon": 3.4963}, {"nom": "Rouy", "cp": "58110", "dept": "58", "lat": 47.0395, "lon": 3.5365}, {"nom": "Ruages", "cp": "58190", "dept": "58", "lat": 47.3097, "lon": 3.6831}, {"nom": "Saincaize-Meauce", "cp": "58470", "dept": "58", "lat": 46.9088, "lon": 3.0869}, {"nom": "Saint-Agnan", "cp": "58230", "dept": "58", "lat": 47.3251, "lon": 4.0917}, {"nom": "Saint-Amand-en-Puisaye", "cp": "58310", "dept": "58", "lat": 47.5479, "lon": 3.0774}, {"nom": "Saint-Andelain", "cp": "58150", "dept": "58", "lat": 47.3104, "lon": 2.976}, {"nom": "Saint-André-en-Morvan", "cp": "58140", "dept": "58", "lat": 47.3979, "lon": 3.8569}, {"nom": "Saint-Aubin-des-Chaumes", "cp": "58190", "dept": "58", "lat": 47.3886, "lon": 3.7451}, {"nom": "Saint-Aubin-les-Forges", "cp": "58130", "dept": "58", "lat": 47.1359, "lon": 3.1927}, {"nom": "Saint-Benin-d'Azy", "cp": "58270", "dept": "58", "lat": 46.9928, "lon": 3.406}, {"nom": "Saint-Benin-des-Bois", "cp": "58330", "dept": "58", "lat": 47.1202, "lon": 3.4064}, {"nom": "Saint-Bonnot", "cp": "58700", "dept": "58", "lat": 47.2492, "lon": 3.3074}, {"nom": "Saint-Brisson", "cp": "58230", "dept": "58", "lat": 47.2623, "lon": 4.0869}, {"nom": "Sainte-Colombe-des-Bois", "cp": "58220", "dept": "58", "lat": 47.3202, "lon": 3.1511}, {"nom": "Saint-Didier", "cp": "58190", "dept": "58", "lat": 47.3475, "lon": 3.6198}, {"nom": "Saint-Éloi", "cp": "58000", "dept": "58", "lat": 46.9865, "lon": 3.227}, {"nom": "Saint-Firmin", "cp": "58270", "dept": "58", "lat": 47.0412, "lon": 3.3923}, {"nom": "Saint-Franchy", "cp": "58330", "dept": "58", "lat": 47.1515, "lon": 3.4603}, {"nom": "Saint-Germain-Chassenay", "cp": "58300", "dept": "58", "lat": 46.7829, "lon": 3.3955}, {"nom": "Saint-Germain-des-Bois", "cp": "58210", "dept": "58", "lat": 47.3679, "lon": 3.5146}, {"nom": "Saint-Gratien-Savigny", "cp": "58340", "dept": "58", "lat": 46.8986, "lon": 3.655}, {"nom": "Saint-Hilaire-en-Morvan", "cp": "58120", "dept": "58", "lat": 47.0665, "lon": 3.8884}, {"nom": "Saint-Hilaire-Fontaine", "cp": "58300", "dept": "58", "lat": 46.7799, "lon": 3.6315}, {"nom": "Saint-Honoré-les-Bains", "cp": "58360", "dept": "58", "lat": 46.8991, "lon": 3.8556}, {"nom": "Saint-Jean-aux-Amognes", "cp": "58270", "dept": "58", "lat": 47.008, "lon": 3.339}, {"nom": "Saint-Laurent-l'Abbaye", "cp": "58150", "dept": "58", "lat": 47.3362, "lon": 2.9939}, {"nom": "Saint-Léger-de-Fougeret", "cp": "58120", "dept": "58", "lat": 47.0079, "lon": 3.9077}, {"nom": "Saint-Léger-des-Vignes", "cp": "58300", "dept": "58", "lat": 46.8516, "lon": 3.4537}, {"nom": "Saint-Loup-des-Bois", "cp": "58200", "dept": "58", "lat": 47.4512, "lon": 3.0077}, {"nom": "Saint-Malo-en-Donziois", "cp": "58350", "dept": "58", "lat": 47.3094, "lon": 3.2789}, {"nom": "Sainte-Marie", "cp": "58330", "dept": "58", "lat": 47.1138, "lon": 3.4493}, {"nom": "Saint-Martin-d'Heuille", "cp": "58130", "dept": "58", "lat": 47.0494, "lon": 3.2326}, {"nom": "Saint-Martin-du-Puy", "cp": "58140", "dept": "58", "lat": 47.3293, "lon": 3.8788}, {"nom": "Saint-Martin-sur-Nohain", "cp": "58150", "dept": "58", "lat": 47.3578, "lon": 2.9904}, {"nom": "Saint-Maurice", "cp": "58330", "dept": "58", "lat": 47.1151, "lon": 3.5713}, {"nom": "Saint-Ouen-sur-Loire", "cp": "58160", "dept": "58", "lat": 46.8982, "lon": 3.3196}, {"nom": "Saint-Parize-en-Viry", "cp": "58300", "dept": "58", "lat": 46.7518, "lon": 3.3616}, {"nom": "Saint-Parize-le-Châtel", "cp": "58490", "dept": "58", "lat": 46.8536, "lon": 3.178}, {"nom": "Saint-Père", "cp": "58200", "dept": "58", "lat": 47.4011, "lon": 2.9777}, {"nom": "Saint-Péreuse", "cp": "58110", "dept": "58", "lat": 47.0559, "lon": 3.8054}, {"nom": "Saint-Pierre-du-Mont", "cp": "58210", "dept": "58", "lat": 47.3999, "lon": 3.4459}, {"nom": "Saint-Pierre-le-Moûtier", "cp": "58240", "dept": "58", "lat": 46.7915, "lon": 3.1374}, {"nom": "Saint-Quentin-sur-Nohain", "cp": "58150", "dept": "58", "lat": 47.323, "lon": 3.0201}, {"nom": "Saint-Révérien", "cp": "58420", "dept": "58", "lat": 47.203, "lon": 3.5146}, {"nom": "Saint-Saulge", "cp": "58330", "dept": "58", "lat": 47.0975, "lon": 3.5142}, {"nom": "Saint-Seine", "cp": "58250", "dept": "58", "lat": 46.7253, "lon": 3.8152}, {"nom": "Saint-Sulpice", "cp": "58270", "dept": "58", "lat": 47.0609, "lon": 3.3596}, {"nom": "Saint-Vérain", "cp": "58310", "dept": "58", "lat": 47.4863, "lon": 3.0344}, {"nom": "Saizy", "cp": "58190", "dept": "58", "lat": 47.3573, "lon": 3.698}, {"nom": "Sardy-lès-Épiry", "cp": "58800", "dept": "58", "lat": 47.1941, "lon": 3.6917}, {"nom": "Sauvigny-les-Bois", "cp": "58160", "dept": "58", "lat": 46.9738, "lon": 3.267}, {"nom": "Savigny-Poil-Fol", "cp": "58170", "dept": "58", "lat": 46.7845, "lon": 3.8199}, {"nom": "Saxi-Bourdon", "cp": "58330", "dept": "58", "lat": 47.0593, "lon": 3.4885}, {"nom": "Sémelay", "cp": "58360", "dept": "58", "lat": 46.8628, "lon": 3.8595}, {"nom": "Sermages", "cp": "58290", "dept": "58", "lat": 47.0159, "lon": 3.8414}, {"nom": "Sermoise-sur-Loire", "cp": "58000", "dept": "58", "lat": 46.9442, "lon": 3.1877}, {"nom": "Sichamps", "cp": "58700", "dept": "58", "lat": 47.1565, "lon": 3.277}, {"nom": "Sougy-sur-Loire", "cp": "58300", "dept": "58", "lat": 46.8653, "lon": 3.4002}, {"nom": "Suilly-la-Tour", "cp": "58150", "dept": "58", "lat": 47.3341, "lon": 3.0758}, {"nom": "Surgy", "cp": "58500", "dept": "58", "lat": 47.5171, "lon": 3.5078}, {"nom": "Taconnay", "cp": "58420", "dept": "58", "lat": 47.3148, "lon": 3.4885}, {"nom": "Talon", "cp": "58190", "dept": "58", "lat": 47.3335, "lon": 3.5502}, {"nom": "Tamnay-en-Bazois", "cp": "58110", "dept": "58", "lat": 47.0536, "lon": 3.724}, {"nom": "Tannay", "cp": "58190", "dept": "58", "lat": 47.3622, "lon": 3.5787}, {"nom": "Tazilly", "cp": "58170", "dept": "58", "lat": 46.7561, "lon": 3.9174}, {"nom": "Teigny", "cp": "58190", "dept": "58", "lat": 47.3913, "lon": 3.6674}, {"nom": "Ternant", "cp": "58250", "dept": "58", "lat": 46.7508, "lon": 3.8489}, {"nom": "Thaix", "cp": "58250", "dept": "58", "lat": 46.8519, "lon": 3.7169}, {"nom": "Thianges", "cp": "58260", "dept": "58", "lat": 46.9128, "lon": 3.4837}, {"nom": "Tintury", "cp": "58110", "dept": "58", "lat": 47.0031, "lon": 3.5862}, {"nom": "Toury-Lurcy", "cp": "58300", "dept": "58", "lat": 46.7408, "lon": 3.4218}, {"nom": "Toury-sur-Jour", "cp": "58240", "dept": "58", "lat": 46.7271, "lon": 3.2562}, {"nom": "Tracy-sur-Loire", "cp": "58150", "dept": "58", "lat": 47.3333, "lon": 2.9148}, {"nom": "Tresnay", "cp": "58240", "dept": "58", "lat": 46.7, "lon": 3.1915}, {"nom": "Trois-Vèvres", "cp": "58260", "dept": "58", "lat": 46.9094, "lon": 3.4217}, {"nom": "Tronsanges", "cp": "58400", "dept": "58", "lat": 47.1149, "lon": 3.0515}, {"nom": "Trucy-l'Orgueilleux", "cp": "58460", "dept": "58", "lat": 47.4528, "lon": 3.3993}, {"nom": "Urzy", "cp": "58130", "dept": "58", "lat": 47.0542, "lon": 3.2078}, {"nom": "Vandenesse", "cp": "58290", "dept": "58", "lat": 46.912, "lon": 3.7766}, {"nom": "Varennes-lès-Narcy", "cp": "58400", "dept": "58", "lat": 47.2164, "lon": 3.0689}, {"nom": "Varennes-Vauzelles", "cp": "58640", "dept": "58", "lat": 47.0381, "lon": 3.1447}, {"nom": "Varzy", "cp": "58210", "dept": "58", "lat": 47.3543, "lon": 3.3895}, {"nom": "Vauclaix", "cp": "58140", "dept": "58", "lat": 47.2282, "lon": 3.8196}, {"nom": "Verneuil", "cp": "58300", "dept": "58", "lat": 46.8569, "lon": 3.5815}, {"nom": "Vielmanay", "cp": "58150", "dept": "58", "lat": 47.2759, "lon": 3.113}, {"nom": "Vignol", "cp": "58190", "dept": "58", "lat": 47.3553, "lon": 3.6637}, {"nom": "Villapourçon", "cp": "58370", "dept": "58", "lat": 46.9358, "lon": 3.9551}, {"nom": "Villiers-le-Sec", "cp": "58210", "dept": "58", "lat": 47.3768, "lon": 3.4376}, {"nom": "Ville-Langy", "cp": "58270", "dept": "58", "lat": 46.9359, "lon": 3.5031}, {"nom": "Villiers-sur-Yonne", "cp": "58500", "dept": "58", "lat": 47.4145, "lon": 3.557}, {"nom": "Vitry-Laché", "cp": "58420", "dept": "58", "lat": 47.1924, "lon": 3.5652}]