[{"nom": "Aigaliers", "cp": "30700", "dept": "30", "lat": 44.0703, "lon": 4.3092}, {"nom": "Aigremont", "cp": "30350", "dept": "30", "lat": 43.9594, "lon": 4.1155}, {"nom": "Aigues-Mortes", "cp": "30220", "dept": "30", "lat": 43.5482, "lon": 4.1606}, {"nom": "Aigues-Vives", "cp": "30670", "dept": "30", "lat": 43.7343, "lon": 4.193}, {"nom": "Aiguèze", "cp": "30760", "dept": "30", "lat": 44.3124, "lon": 4.5184}, {"nom": "Aimargues", "cp": "30470", "dept": "30", "lat": 43.6667, "lon": 4.201}, {"nom": "Alès", "cp": "30100", "dept": "30", "lat": 44.125, "lon": 4.0905}, {"nom": "Allègre-les-Fumades", "cp": "30500", "dept": "30", "lat": 44.2016, "lon": 4.2536}, {"nom": "Alzon", "cp": "30770", "dept": "30", "lat": 43.974, "lon": 3.4466}, {"nom": "Anduze", "cp": "30140", "dept": "30", "lat": 44.054, "lon": 3.9766}, {"nom": "Les Angles", "cp": "30133", "dept": "30", "lat": 43.9414, "lon": 4.7563}, {"nom": "Aramon", "cp": "30390", "dept": "30", "lat": 43.8997, "lon": 4.6869}, {"nom": "Argilliers", "cp": "30210", "dept": "30", "lat": 43.9819, "lon": 4.49}, {"nom": "Arpaillargues-et-Aureillac", "cp": "30700", "dept": "30", "lat": 43.9985, "lon": 4.3687}, {"nom": "Arphy", "cp": "30120", "dept": "30", "lat": 44.0414, "lon": 3.5875}, {"nom": "Arre", "cp": "30120", "dept": "30", "lat": 43.9584, "lon": 3.5258}, {"nom": "Arrigas", "cp": "30770", "dept": "30", "lat": 43.9927, "lon": 3.4806}, {"nom": "Aspères", "cp": "30250", "dept": "30", "lat": 43.8066, "lon": 4.0325}, {"nom": "Aubais", "cp": "30250", "dept": "30", "lat": 43.7498, "lon": 4.1422}, {"nom": "Aubord", "cp": "30620", "dept": "30", "lat": 43.7533, "lon": 4.3162}, {"nom": "Aubussargues", "cp": "30190", "dept": "30", "lat": 44.011, "lon": 4.3256}, {"nom": "Aujac", "cp": "30450", "dept": "30", "lat": 44.3559, "lon": 4.0169}, {"nom": "Aujargues", "cp": "30250", "dept": "30", "lat": 43.7918, "lon": 4.1253}, {"nom": "Aulas", "cp": "30120", "dept": "30", "lat": 43.9955, "lon": 3.5896}, {"nom": "Aumessas", "cp": "30770", "dept": "30", "lat": 44.0074, "lon": 3.5126}, {"nom": "Avèze", "cp": "30120", "dept": "30", "lat": 43.9748, "lon": 3.5992}, {"nom": "Bagard", "cp": "30140", "dept": "30", "lat": 44.0684, "lon": 4.0422}, {"nom": "Bagnols-sur-Cèze", "cp": "30200", "dept": "30", "lat": 44.1622, "lon": 4.6244}, {"nom": "Barjac", "cp": "30430", "dept": "30", "lat": 44.3137, "lon": 4.3456}, {"nom": "Baron", "cp": "30700", "dept": "30", "lat": 44.0552, "lon": 4.2722}, {"nom": "La Bastide-d'Engras", "cp": "30330", "dept": "30", "lat": 44.0965, "lon": 4.4732}, {"nom": "Beaucaire", "cp": "30300", "dept": "30", "lat": 43.7815, "lon": 4.5912}, {"nom": "Beauvoisin", "cp": "30640", "dept": "30", "lat": 43.6896, "lon": 4.3222}, {"nom": "Bellegarde", "cp": "30127", "dept": "30", "lat": 43.7483, "lon": 4.4967}, {"nom": "Belvézet", "cp": "30580", "dept": "30", "lat": 44.0904, "lon": 4.3545}, {"nom": "Bernis", "cp": "30620", "dept": "30", "lat": 43.7673, "lon": 4.2824}, {"nom": "Bessèges", "cp": "30160", "dept": "30", "lat": 44.2889, "lon": 4.107}, {"nom": "Bez-et-Esparon", "cp": "30120", "dept": "30", "lat": 43.9792, "lon": 3.5356}, {"nom": "Bezouce", "cp": "30320", "dept": "30", "lat": 43.8767, "lon": 4.5019}, {"nom": "Blandas", "cp": "30770", "dept": "30", "lat": 43.921, "lon": 3.5074}, {"nom": "Blauzac", "cp": "30700", "dept": "30", "lat": 43.9667, "lon": 4.3727}, {"nom": "Boisset-et-Gaujac", "cp": "30140", "dept": "30", "lat": 44.0508, "lon": 4.0282}, {"nom": "Boissières", "cp": "30114", "dept": "30", "lat": 43.7695, "lon": 4.2277}, {"nom": "Bonnevaux", "cp": "30450", "dept": "30", "lat": 44.3724, "lon": 4.0374}, {"nom": "Bordezac", "cp": "30160", "dept": "30", "lat": 44.3161, "lon": 4.0843}, {"nom": "Boucoiran-et-Nozières", "cp": "30190", "dept": "30", "lat": 43.9937, "lon": 4.1816}, {"nom": "Bouillargues", "cp": "30230", "dept": "30", "lat": 43.7989, "lon": 4.4345}, {"nom": "Bouquet", "cp": "30580", "dept": "30", "lat": 44.1517, "lon": 4.2944}, {"nom": "Bourdic", "cp": "30190", "dept": "30", "lat": 43.9777, "lon": 4.3357}, {"nom": "Bragassargues", "cp": "30260", "dept": "30", "lat": 43.9181, "lon": 4.0475}, {"nom": "Branoux-les-Taillades", "cp": "30110", "dept": "30", "lat": 44.2292, "lon": 3.9822}, {"nom": "Bréau-Mars", "cp": "30120", "dept": "30", "lat": 44.0305, "lon": 3.5581}, {"nom": "Brignon", "cp": "30190", "dept": "30", "lat": 43.9956, "lon": 4.2137}, {"nom": "Brouzet-lès-Quissac", "cp": "30260", "dept": "30", "lat": 43.863, "lon": 3.9863}, {"nom": "Brouzet-lès-Alès", "cp": "30580", "dept": "30", "lat": 44.1338, "lon": 4.2533}, {"nom": "La Bruguière", "cp": "30580", "dept": "30", "lat": 44.1018, "lon": 4.4018}, {"nom": "Cabrières", "cp": "30210", "dept": "30", "lat": 43.9079, "lon": 4.4687}, {"nom": "La Cadière-et-Cambo", "cp": "30170", "dept": "30", "lat": 43.9677, "lon": 3.8097}, {"nom": "Le Cailar", "cp": "30740", "dept": "30", "lat": 43.653, "lon": 4.2417}, {"nom": "Caissargues", "cp": "30132", "dept": "30", "lat": 43.7924, "lon": 4.3919}, {"nom": "La Calmette", "cp": "30190", "dept": "30", "lat": 43.9272, "lon": 4.2649}, {"nom": "Calvisson", "cp": "30420", "dept": "30", "lat": 43.7853, "lon": 4.189}, {"nom": "Campestre-et-Luc", "cp": "30770", "dept": "30", "lat": 43.9397, "lon": 3.4064}, {"nom": "Canaules-et-Argentières", "cp": "30350", "dept": "30", "lat": 43.9788, "lon": 4.0473}, {"nom": "Cannes-et-Clairan", "cp": "30260", "dept": "30", "lat": 43.9101, "lon": 4.0879}, {"nom": "La Capelle-et-Masmolène", "cp": "30700", "dept": "30", "lat": 44.0437, "lon": 4.5309}, {"nom": "Cardet", "cp": "30350", "dept": "30", "lat": 44.0143, "lon": 4.0897}, {"nom": "Carnas", "cp": "30260", "dept": "30", "lat": 43.8334, "lon": 3.9886}, {"nom": "Carsan", "cp": "30130", "dept": "30", "lat": 44.23, "lon": 4.5838}, {"nom": "Cassagnoles", "cp": "30350", "dept": "30", "lat": 44.019, "lon": 4.1254}, {"nom": "Castelnau-Valence", "cp": "30190", "dept": "30", "lat": 44.0076, "lon": 4.2407}, {"nom": "Castillon-du-Gard", "cp": "30210", "dept": "30", "lat": 43.98, "lon": 4.5599}, {"nom": "Causse-Bégon", "cp": "30750", "dept": "30", "lat": 44.064, "lon": 3.3562}, {"nom": "Caveirac", "cp": "30820", "dept": "30", "lat": 43.8344, "lon": 4.2723}, {"nom": "Cavillargues", "cp": "30330", "dept": "30", "lat": 44.1194, "lon": 4.5178}, {"nom": "Cendras", "cp": "30480", "dept": "30", "lat": 44.1531, "lon": 4.036}, {"nom": "Chambon", "cp": "30450", "dept": "30", "lat": 44.3038, "lon": 4.0155}, {"nom": "Chamborigaud", "cp": "30530", "dept": "30", "lat": 44.303, "lon": 3.9661}, {"nom": "Chusclan", "cp": "30200", "dept": "30", "lat": 44.1549, "lon": 4.6902}, {"nom": "Clarensac", "cp": "30870", "dept": "30", "lat": 43.8357, "lon": 4.2251}, {"nom": "Codognan", "cp": "30920", "dept": "30", "lat": 43.7228, "lon": 4.2293}, {"nom": "Codolet", "cp": "30200", "dept": "30", "lat": 44.1267, "lon": 4.7002}, {"nom": "Collias", "cp": "30210", "dept": "30", "lat": 43.9493, "lon": 4.4719}, {"nom": "Collorgues", "cp": "30190", "dept": "30", "lat": 44.0146, "lon": 4.2901}, {"nom": "Colognac", "cp": "30460", "dept": "30", "lat": 44.0328, "lon": 3.8175}, {"nom": "Combas", "cp": "30250", "dept": "30", "lat": 43.8597, "lon": 4.1158}, {"nom": "Comps", "cp": "30300", "dept": "30", "lat": 43.8489, "lon": 4.5863}, {"nom": "Concoules", "cp": "30450", "dept": "30", "lat": 44.3684, "lon": 3.9356}, {"nom": "Congénies", "cp": "30111", "dept": "30", "lat": 43.7752, "lon": 4.1583}, {"nom": "Connaux", "cp": "30330", "dept": "30", "lat": 44.0744, "lon": 4.6019}, {"nom": "Conqueyrac", "cp": "30170", "dept": "30", "lat": 43.9369, "lon": 3.9032}, {"nom": "Corconne", "cp": "30260", "dept": "30", "lat": 43.874, "lon": 3.9406}, {"nom": "Cornillon", "cp": "30630", "dept": "30", "lat": 44.2189, "lon": 4.4931}, {"nom": "Courry", "cp": "30500", "dept": "30", "lat": 44.303, "lon": 4.1622}, {"nom": "Crespian", "cp": "30260", "dept": "30", "lat": 43.8827, "lon": 4.1111}, {"nom": "Cros", "cp": "30170", "dept": "30", "lat": 44.0021, "lon": 3.8204}, {"nom": "Cruviers-Lascours", "cp": "30360", "dept": "30", "lat": 44.0128, "lon": 4.1924}, {"nom": "Deaux", "cp": "30360", "dept": "30", "lat": 44.0698, "lon": 4.1575}, {"nom": "Dions", "cp": "30190", "dept": "30", "lat": 43.9248, "lon": 4.2924}, {"nom": "Domazan", "cp": "30390", "dept": "30", "lat": 43.9402, "lon": 4.6557}, {"nom": "Domessargues", "cp": "30350", "dept": "30", "lat": 43.973, "lon": 4.1662}, {"nom": "Dourbies", "cp": "30750", "dept": "30", "lat": 44.0664, "lon": 3.4956}, {"nom": "Durfort-et-Saint-Martin-de-Sossenac", "cp": "30170", "dept": "30", "lat": 43.9874, "lon": 3.948}, {"nom": "Estézargues", "cp": "30390", "dept": "30", "lat": 43.956, "lon": 4.6369}, {"nom": "L'Estréchure", "cp": "30124", "dept": "30", "lat": 44.1016, "lon": 3.7852}, {"nom": "Euzet", "cp": "30360", "dept": "30", "lat": 44.0736, "lon": 4.2372}, {"nom": "Flaux", "cp": "30700", "dept": "30", "lat": 44.0126, "lon": 4.5114}, {"nom": "Foissac", "cp": "30700", "dept": "30", "lat": 44.0356, "lon": 4.3}, {"nom": "Fons", "cp": "30730", "dept": "30", "lat": 43.9073, "lon": 4.1801}, {"nom": "Fons-sur-Lussan", "cp": "30580", "dept": "30", "lat": 44.1866, "lon": 4.3251}, {"nom": "Fontanès", "cp": "30250", "dept": "30", "lat": 43.8297, "lon": 4.0969}, {"nom": "Fontarèches", "cp": "30580", "dept": "30", "lat": 44.1118, "lon": 4.4278}, {"nom": "Fournès", "cp": "30210", "dept": "30", "lat": 43.9378, "lon": 4.6035}, {"nom": "Fourques", "cp": "30300", "dept": "30", "lat": 43.7105, "lon": 4.5459}, {"nom": "Fressac", "cp": "30170", "dept": "30", "lat": 43.9968, "lon": 3.923}, {"nom": "Gagnières", "cp": "30160", "dept": "30", "lat": 44.3157, "lon": 4.1175}, {"nom": "Gailhan", "cp": "30260", "dept": "30", "lat": 43.8467, "lon": 4.031}, {"nom": "Gajan", "cp": "30730", "dept": "30", "lat": 43.8976, "lon": 4.2239}, {"nom": "Gallargues-le-Montueux", "cp": "30660", "dept": "30", "lat": 43.7137, "lon": 4.1708}, {"nom": "Le Garn", "cp": "30760", "dept": "30", "lat": 44.3161, "lon": 4.4685}, {"nom": "Garons", "cp": "30128", "dept": "30", "lat": 43.7706, "lon": 4.4397}, {"nom": "Garrigues-Sainte-Eulalie", "cp": "30190", "dept": "30", "lat": 43.991, "lon": 4.303}, {"nom": "Gaujac", "cp": "30330", "dept": "30", "lat": 44.0755, "lon": 4.5744}, {"nom": "Générac", "cp": "30510", "dept": "30", "lat": 43.719, "lon": 4.3587}, {"nom": "Générargues", "cp": "30140", "dept": "30", "lat": 44.0797, "lon": 3.9941}, {"nom": "Génolhac", "cp": "30450", "dept": "30", "lat": 44.3391, "lon": 3.9481}, {"nom": "Goudargues", "cp": "30630", "dept": "30", "lat": 44.2099, "lon": 4.4366}, {"nom": "La Grand-Combe", "cp": "30110", "dept": "30", "lat": 44.2261, "lon": 4.0303}, {"nom": "Le Grau-du-Roi", "cp": "30240", "dept": "30", "lat": 43.5149, "lon": 4.1704}, {"nom": "Issirac", "cp": "30760", "dept": "30", "lat": 44.2704, "lon": 4.4747}, {"nom": "Jonquières-Saint-Vincent", "cp": "30300", "dept": "30", "lat": 43.8305, "lon": 4.559}, {"nom": "Junas", "cp": "30250", "dept": "30", "lat": 43.7589, "lon": 4.1204}, {"nom": "Lamelouze", "cp": "30110", "dept": "30", "lat": 44.1942, "lon": 3.9606}, {"nom": "Langlade", "cp": "30980", "dept": "30", "lat": 43.8021, "lon": 4.2559}, {"nom": "Lanuéjols", "cp": "30750", "dept": "30", "lat": 44.124, "lon": 3.3764}, {"nom": "Lasalle", "cp": "30460", "dept": "30", "lat": 44.0403, "lon": 3.85}, {"nom": "Laudun-l'Ardoise", "cp": "30290", "dept": "30", "lat": 44.1051, "lon": 4.6615}, {"nom": "Laval-Pradel", "cp": "30110", "dept": "30", "lat": 44.2145, "lon": 4.0648}, {"nom": "Laval-Saint-Roman", "cp": "30760", "dept": "30", "lat": 44.3015, "lon": 4.507}, {"nom": "Lecques", "cp": "30250", "dept": "30", "lat": 43.8423, "lon": 4.0561}, {"nom": "Lédenon", "cp": "30210", "dept": "30", "lat": 43.9104, "lon": 4.5194}, {"nom": "Lédignan", "cp": "30350", "dept": "30", "lat": 43.9884, "lon": 4.1112}, {"nom": "Lézan", "cp": "30350", "dept": "30", "lat": 44.0119, "lon": 4.0522}, {"nom": "Liouc", "cp": "30260", "dept": "30", "lat": 43.8896, "lon": 3.9833}, {"nom": "Lirac", "cp": "30126", "dept": "30", "lat": 44.0321, "lon": 4.6796}, {"nom": "Logrian-Florian", "cp": "30610", "dept": "30", "lat": 43.9483, "lon": 4.0221}, {"nom": "Lussan", "cp": "30580", "dept": "30", "lat": 44.1663, "lon": 4.3712}, {"nom": "Les Mages", "cp": "30960", "dept": "30", "lat": 44.2272, "lon": 4.1787}, {"nom": "Malons-et-Elze", "cp": "30450", "dept": "30", "lat": 44.4221, "lon": 4.0197}, {"nom": "Mandagout", "cp": "30120", "dept": "30", "lat": 44.0257, "lon": 3.6275}, {"nom": "Manduel", "cp": "30129", "dept": "30", "lat": 43.8084, "lon": 4.4962}, {"nom": "Marguerittes", "cp": "30320", "dept": "30", "lat": 43.8661, "lon": 4.4594}, {"nom": "Martignargues", "cp": "30360", "dept": "30", "lat": 44.041, "lon": 4.1807}, {"nom": "Le Martinet", "cp": "30960", "dept": "30", "lat": 44.2525, "lon": 4.0844}, {"nom": "Maruéjols-lès-Gardon", "cp": "30350", "dept": "30", "lat": 44.0064, "lon": 4.1346}, {"nom": "Massanes", "cp": "30350", "dept": "30", "lat": 44.023, "lon": 4.1103}, {"nom": "Massillargues-Attuech", "cp": "30140", "dept": "30", "lat": 44.0161, "lon": 4.0221}, {"nom": "Mauressargues", "cp": "30350", "dept": "30", "lat": 43.9547, "lon": 4.1625}, {"nom": "Méjannes-le-Clap", "cp": "30430", "dept": "30", "lat": 44.233, "lon": 4.3602}, {"nom": "Méjannes-lès-Alès", "cp": "30340", "dept": "30", "lat": 44.1015, "lon": 4.1519}, {"nom": "Meynes", "cp": "30840", "dept": "30", "lat": 43.8765, "lon": 4.5524}, {"nom": "Meyrannes", "cp": "30410", "dept": "30", "lat": 44.2766, "lon": 4.1611}, {"nom": "Mialet", "cp": "30140", "dept": "30", "lat": 44.1225, "lon": 3.9345}, {"nom": "Milhaud", "cp": "30540", "dept": "30", "lat": 43.7831, "lon": 4.3081}, {"nom": "Molières-Cavaillac", "cp": "30120", "dept": "30", "lat": 43.972, "lon": 3.5708}, {"nom": "Molières-sur-Cèze", "cp": "30410", "dept": "30", "lat": 44.2617, "lon": 4.1534}, {"nom": "Monoblet", "cp": "30170", "dept": "30", "lat": 43.9971, "lon": 3.8814}, {"nom": "Mons", "cp": "30340", "dept": "30", "lat": 44.122, "lon": 4.178}, {"nom": "Montaren-et-Saint-Médiers", "cp": "30700", "dept": "30", "lat": 44.0449, "lon": 4.383}, {"nom": "Montclus", "cp": "30630", "dept": "30", "lat": 44.2664, "lon": 4.4189}, {"nom": "Montdardier", "cp": "30120", "dept": "30", "lat": 43.9292, "lon": 3.5791}, {"nom": "Monteils", "cp": "30360", "dept": "30", "lat": 44.0877, "lon": 4.1823}, {"nom": "Montfaucon", "cp": "30150", "dept": "30", "lat": 44.0765, "lon": 4.7348}, {"nom": "Montfrin", "cp": "30490", "dept": "30", "lat": 43.8769, "lon": 4.5869}, {"nom": "Montignargues", "cp": "30190", "dept": "30", "lat": 43.9322, "lon": 4.205}, {"nom": "Montmirat", "cp": "30260", "dept": "30", "lat": 43.9062, "lon": 4.121}, {"nom": "Montpezat", "cp": "30730", "dept": "30", "lat": 43.8575, "lon": 4.162}, {"nom": "Moulézan", "cp": "30350", "dept": "30", "lat": 43.9261, "lon": 4.1307}, {"nom": "Moussac", "cp": "30190", "dept": "30", "lat": 43.9789, "lon": 4.2342}, {"nom": "Mus", "cp": "30121", "dept": "30", "lat": 43.737, "lon": 4.203}, {"nom": "Nages-et-Solorgues", "cp": "30114", "dept": "30", "lat": 43.7857, "lon": 4.2347}, {"nom": "Navacelles", "cp": "30580", "dept": "30", "lat": 44.1645, "lon": 4.2338}, {"nom": "Ners", "cp": "30360", "dept": "30", "lat": 44.0245, "lon": 4.1591}, {"nom": "Nîmes", "cp": "30000", "dept": "30", "lat": 43.8322, "lon": 4.3429}, {"nom": "Orsan", "cp": "30200", "dept": "30", "lat": 44.1371, "lon": 4.6626}, {"nom": "Orthoux-Sérignac-Quilhan", "cp": "30260", "dept": "30", "lat": 43.8838, "lon": 4.0392}, {"nom": "Parignargues", "cp": "30730", "dept": "30", "lat": 43.8679, "lon": 4.2129}, {"nom": "Peyremale", "cp": "30160", "dept": "30", "lat": 44.2989, "lon": 4.0581}, {"nom": "Peyrolles", "cp": "30124", "dept": "30", "lat": 44.1065, "lon": 3.8279}, {"nom": "Le Pin", "cp": "30330", "dept": "30", "lat": 44.0901, "lon": 4.5353}, {"nom": "Les Plans", "cp": "30340", "dept": "30", "lat": 44.1416, "lon": 4.2103}, {"nom": "Les Plantiers", "cp": "30122", "dept": "30", "lat": 44.1055, "lon": 3.7063}, {"nom": "Pommiers", "cp": "30120", "dept": "30", "lat": 43.9492, "lon": 3.622}, {"nom": "Pompignan", "cp": "30170", "dept": "30", "lat": 43.8966, "lon": 3.8659}, {"nom": "Ponteils-et-Brésis", "cp": "30450", "dept": "30", "lat": 44.4026, "lon": 3.96}, {"nom": "Pont-Saint-Esprit", "cp": "30130", "dept": "30", "lat": 44.2518, "lon": 4.6422}, {"nom": "Portes", "cp": "30530", "dept": "30", "lat": 44.2629, "lon": 4.0328}, {"nom": "Potelières", "cp": "30500", "dept": "30", "lat": 44.2226, "lon": 4.2256}, {"nom": "Pougnadoresse", "cp": "30330", "dept": "30", "lat": 44.0912, "lon": 4.5098}, {"nom": "Poulx", "cp": "30320", "dept": "30", "lat": 43.9142, "lon": 4.422}, {"nom": "Pouzilhac", "cp": "30210", "dept": "30", "lat": 44.042, "lon": 4.5831}, {"nom": "Puechredon", "cp": "30610", "dept": "30", "lat": 43.9434, "lon": 4.055}, {"nom": "Pujaut", "cp": "30131", "dept": "30", "lat": 44.0002, "lon": 4.7645}, {"nom": "Quissac", "cp": "30260", "dept": "30", "lat": 43.9213, "lon": 3.9985}, {"nom": "Redessan", "cp": "30129", "dept": "30", "lat": 43.8298, "lon": 4.5113}, {"nom": "Remoulins", "cp": "30210", "dept": "30", "lat": 43.9384, "lon": 4.5629}, {"nom": "Revens", "cp": "30750", "dept": "30", "lat": 44.0914, "lon": 3.3068}, {"nom": "Ribaute-les-Tavernes", "cp": "30720", "dept": "30", "lat": 44.0434, "lon": 4.09}, {"nom": "Rivières", "cp": "30430", "dept": "30", "lat": 44.2167, "lon": 4.2859}, {"nom": "Robiac-Rochessadoule", "cp": "30160", "dept": "30", "lat": 44.2672, "lon": 4.0931}, {"nom": "Rochefort-du-Gard", "cp": "30650", "dept": "30", "lat": 43.9841, "lon": 4.682}, {"nom": "Rochegude", "cp": "30430", "dept": "30", "lat": 44.2388, "lon": 4.2837}, {"nom": "Rogues", "cp": "30120", "dept": "30", "lat": 43.8781, "lon": 3.5603}, {"nom": "Roquedur", "cp": "30440", "dept": "30", "lat": 43.976, "lon": 3.662}, {"nom": "Roquemaure", "cp": "30150", "dept": "30", "lat": 44.0443, "lon": 4.7598}, {"nom": "La Roque-sur-Cèze", "cp": "30200", "dept": "30", "lat": 44.1932, "lon": 4.5201}, {"nom": "Rousson", "cp": "30340", "dept": "30", "lat": 44.1956, "lon": 4.1526}, {"nom": "La Rouvière", "cp": "30190", "dept": "30", "lat": 43.9182, "lon": 4.2349}, {"nom": "Sabran", "cp": "30200", "dept": "30", "lat": 44.1531, "lon": 4.5467}, {"nom": "Saint-Alexandre", "cp": "30130", "dept": "30", "lat": 44.224, "lon": 4.6373}, {"nom": "Saint-Ambroix", "cp": "30500", "dept": "30", "lat": 44.2489, "lon": 4.1913}, {"nom": "Sainte-Anastasie", "cp": "30190", "dept": "30", "lat": 43.9312, "lon": 4.3477}, {"nom": "Saint-André-de-Majencoules", "cp": "30570", "dept": "30", "lat": 44.0245, "lon": 3.6846}, {"nom": "Saint-André-de-Roquepertuis", "cp": "30630", "dept": "30", "lat": 44.2382, "lon": 4.4448}, {"nom": "Saint-André-de-Valborgne", "cp": "30940", "dept": "30", "lat": 44.15, "lon": 3.6998}, {"nom": "Saint-André-d'Olérargues", "cp": "30330", "dept": "30", "lat": 44.1644, "lon": 4.4988}, {"nom": "Saint-Bauzély", "cp": "30730", "dept": "30", "lat": 43.9215, "lon": 4.1933}, {"nom": "Saint-Bénézet", "cp": "30350", "dept": "30", "lat": 43.9903, "lon": 4.1348}, {"nom": "Saint-Bonnet-du-Gard", "cp": "30210", "dept": "30", "lat": 43.9267, "lon": 4.5403}, {"nom": "Saint-Bonnet-de-Salendrinque", "cp": "30460", "dept": "30", "lat": 44.0364, "lon": 3.8735}, {"nom": "Saint-Brès", "cp": "30500", "dept": "30", "lat": 44.2829, "lon": 4.2}, {"nom": "Saint-Bresson", "cp": "30440", "dept": "30", "lat": 43.956, "lon": 3.6447}, {"nom": "Sainte-Cécile-d'Andorge", "cp": "30110", "dept": "30", "lat": 44.2574, "lon": 3.9763}, {"nom": "Saint-Césaire-de-Gauzignan", "cp": "30360", "dept": "30", "lat": 44.036, "lon": 4.2019}, {"nom": "Saint-Chaptes", "cp": "30190", "dept": "30", "lat": 43.9677, "lon": 4.2773}, {"nom": "Saint-Christol-de-Rodières", "cp": "30760", "dept": "30", "lat": 44.2605, "lon": 4.5172}, {"nom": "Saint-Christol-lez-Alès", "cp": "30380", "dept": "30", "lat": 44.083, "lon": 4.0682}, {"nom": "Saint-Clément", "cp": "30260", "dept": "30", "lat": 43.828, "lon": 4.0267}, {"nom": "Saint-Côme-et-Maruéjols", "cp": "30870", "dept": "30", "lat": 43.833, "lon": 4.1866}, {"nom": "Sainte-Croix-de-Caderle", "cp": "30460", "dept": "30", "lat": 44.0666, "lon": 3.8675}, {"nom": "Saint-Denis", "cp": "30500", "dept": "30", "lat": 44.2359, "lon": 4.2475}, {"nom": "Saint-Dézéry", "cp": "30190", "dept": "30", "lat": 43.9978, "lon": 4.2653}, {"nom": "Saint-Dionisy", "cp": "30980", "dept": "30", "lat": 43.8056, "lon": 4.2232}, {"nom": "Saint-Étienne-de-l'Olm", "cp": "30360", "dept": "30", "lat": 44.0619, "lon": 4.1829}, {"nom": "Saint-Étienne-des-Sorts", "cp": "30200", "dept": "30", "lat": 44.18, "lon": 4.6999}, {"nom": "Saint-Félix-de-Pallières", "cp": "30140", "dept": "30", "lat": 44.0253, "lon": 3.9238}, {"nom": "Saint-Florent-sur-Auzonnet", "cp": "30960", "dept": "30", "lat": 44.24, "lon": 4.1067}, {"nom": "Saint-Geniès-de-Comolas", "cp": "30150", "dept": "30", "lat": 44.0679, "lon": 4.7299}, {"nom": "Saint-Geniès-de-Malgoirès", "cp": "30190", "dept": "30", "lat": 43.9477, "lon": 4.214}, {"nom": "Saint-Gervais", "cp": "30200", "dept": "30", "lat": 44.1949, "lon": 4.5786}, {"nom": "Saint-Gervasy", "cp": "30320", "dept": "30", "lat": 43.8715, "lon": 4.4679}, {"nom": "Saint-Gilles", "cp": "30800", "dept": "30", "lat": 43.6606, "lon": 4.4128}, {"nom": "Saint-Hilaire-de-Brethmas", "cp": "30560", "dept": "30", "lat": 44.0941, "lon": 4.1229}, {"nom": "Saint-Hilaire-d'Ozilhan", "cp": "30210", "dept": "30", "lat": 43.9704, "lon": 4.603}, {"nom": "Saint-Hippolyte-de-Caton", "cp": "30360", "dept": "30", "lat": 44.0727, "lon": 4.1995}, {"nom": "Saint-Hippolyte-de-Montaigu", "cp": "30700", "dept": "30", "lat": 44.0334, "lon": 4.494}, {"nom": "Saint-Hippolyte-du-Fort", "cp": "30170", "dept": "30", "lat": 43.9514, "lon": 3.8544}, {"nom": "Saint-Jean-de-Ceyrargues", "cp": "30360", "dept": "30", "lat": 44.0547, "lon": 4.2272}, {"nom": "Saint-Jean-de-Crieulon", "cp": "30610", "dept": "30", "lat": 43.9672, "lon": 4.0013}, {"nom": "Saint-Jean-de-Maruéjols-et-Avéjan", "cp": "30430", "dept": "30", "lat": 44.2665, "lon": 4.2968}, {"nom": "Saint-Jean-de-Serres", "cp": "30350", "dept": "30", "lat": 43.9897, "lon": 4.0747}, {"nom": "Saint-Jean-de-Valériscle", "cp": "30960", "dept": "30", "lat": 44.2328, "lon": 4.1384}, {"nom": "Saint-Jean-du-Gard", "cp": "30270", "dept": "30", "lat": 44.1098, "lon": 3.8796}, {"nom": "Saint-Jean-du-Pin", "cp": "30140", "dept": "30", "lat": 44.1127, "lon": 4.0353}, {"nom": "Saint-Julien-de-Cassagnas", "cp": "30500", "dept": "30", "lat": 44.2115, "lon": 4.2029}, {"nom": "Saint-Julien-de-la-Nef", "cp": "30440", "dept": "30", "lat": 43.9631, "lon": 3.6837}, {"nom": "Saint-Julien-de-Peyrolas", "cp": "30760", "dept": "30", "lat": 44.2826, "lon": 4.5703}, {"nom": "Saint-Julien-les-Rosiers", "cp": "30340", "dept": "30", "lat": 44.1934, "lon": 4.0986}, {"nom": "Saint-Just-et-Vacquières", "cp": "30580", "dept": "30", "lat": 44.1009, "lon": 4.2363}, {"nom": "Saint-Laurent-d'Aigouze", "cp": "30220", "dept": "30", "lat": 43.5766, "lon": 4.237}, {"nom": "Saint-Laurent-de-Carnols", "cp": "30200", "dept": "30", "lat": 44.2238, "lon": 4.5338}, {"nom": "Saint-Laurent-des-Arbres", "cp": "30126", "dept": "30", "lat": 44.0522, "lon": 4.6885}, {"nom": "Saint-Laurent-la-Vernède", "cp": "30330", "dept": "30", "lat": 44.106, "lon": 4.4643}, {"nom": "Saint-Laurent-le-Minier", "cp": "30440", "dept": "30", "lat": 43.9214, "lon": 3.6531}, {"nom": "Saint-Mamert-du-Gard", "cp": "30730", "dept": "30", "lat": 43.8835, "lon": 4.1763}, {"nom": "Saint-Marcel-de-Careiret", "cp": "30330", "dept": "30", "lat": 44.1434, "lon": 4.4871}, {"nom": "Saint-Martial", "cp": "30440", "dept": "30", "lat": 44.0388, "lon": 3.7474}, {"nom": "Saint-Martin-de-Valgalgues", "cp": "30520", "dept": "30", "lat": 44.1648, "lon": 4.0797}, {"nom": "Saint-Maurice-de-Cazevieille", "cp": "30360", "dept": "30", "lat": 44.0388, "lon": 4.2425}, {"nom": "Saint-Maximin", "cp": "30700", "dept": "30", "lat": 43.9874, "lon": 4.4565}, {"nom": "Saint-Michel-d'Euzet", "cp": "30200", "dept": "30", "lat": 44.2103, "lon": 4.5567}, {"nom": "Saint-Nazaire", "cp": "30200", "dept": "30", "lat": 44.1997, "lon": 4.6196}, {"nom": "Saint-Nazaire-des-Gardies", "cp": "30610", "dept": "30", "lat": 43.9806, "lon": 4.0142}, {"nom": "Saint-Paulet-de-Caisson", "cp": "30130", "dept": "30", "lat": 44.265, "lon": 4.5827}, {"nom": "Saint-Paul-la-Coste", "cp": "30480", "dept": "30", "lat": 44.1536, "lon": 3.9683}, {"nom": "Saint-Pons-la-Calm", "cp": "30330", "dept": "30", "lat": 44.0952, "lon": 4.5564}, {"nom": "Saint-Privat-de-Champclos", "cp": "30430", "dept": "30", "lat": 44.2741, "lon": 4.3563}, {"nom": "Saint-Privat-des-Vieux", "cp": "30340", "dept": "30", "lat": 44.1411, "lon": 4.1297}, {"nom": "Saint-Quentin-la-Poterie", "cp": "30700", "dept": "30", "lat": 44.0582, "lon": 4.441}, {"nom": "Saint-Roman-de-Codières", "cp": "30440", "dept": "30", "lat": 44.0145, "lon": 3.7766}, {"nom": "Saint-Sauveur-Camprieu", "cp": "30750", "dept": "30", "lat": 44.1053, "lon": 3.485}, {"nom": "Saint-Sébastien-d'Aigrefeuille", "cp": "30140", "dept": "30", "lat": 44.1166, "lon": 3.9915}, {"nom": "Saint-Siffret", "cp": "30700", "dept": "30", "lat": 44.0148, "lon": 4.4677}, {"nom": "Saint-Théodorit", "cp": "30260", "dept": "30", "lat": 43.9432, "lon": 4.0846}, {"nom": "Saint-Victor-des-Oules", "cp": "30700", "dept": "30", "lat": 44.0433, "lon": 4.4832}, {"nom": "Saint-Victor-la-Coste", "cp": "30290", "dept": "30", "lat": 44.052, "lon": 4.6436}, {"nom": "Saint-Victor-de-Malcap", "cp": "30500", "dept": "30", "lat": 44.2544, "lon": 4.2307}, {"nom": "Salazac", "cp": "30760", "dept": "30", "lat": 44.2587, "lon": 4.5373}, {"nom": "Salindres", "cp": "30340", "dept": "30", "lat": 44.1617, "lon": 4.1617}, {"nom": "Salinelles", "cp": "30250", "dept": "30", "lat": 43.8095, "lon": 4.0634}, {"nom": "Les Salles-du-Gardon", "cp": "30110", "dept": "30", "lat": 44.1903, "lon": 4.0155}, {"nom": "Sanilhac-Sagriès", "cp": "30700", "dept": "30", "lat": 43.9583, "lon": 4.419}, {"nom": "Sardan", "cp": "30260", "dept": "30", "lat": 43.8657, "lon": 4.0335}, {"nom": "Saumane", "cp": "30125", "dept": "30", "lat": 44.1178, "lon": 3.7693}, {"nom": "Sauve", "cp": "30610", "dept": "30", "lat": 43.9354, "lon": 3.9626}, {"nom": "Sauveterre", "cp": "30150", "dept": "30", "lat": 44.0178, "lon": 4.8036}, {"nom": "Sauzet", "cp": "30190", "dept": "30", "lat": 43.9632, "lon": 4.2195}, {"nom": "Savignargues", "cp": "30350", "dept": "30", "lat": 43.967, "lon": 4.0807}, {"nom": "Saze", "cp": "30650", "dept": "30", "lat": 43.9464, "lon": 4.6962}, {"nom": "Sénéchas", "cp": "30450", "dept": "30", "lat": 44.3393, "lon": 4.0126}, {"nom": "Sernhac", "cp": "30210", "dept": "30", "lat": 43.9167, "lon": 4.5575}, {"nom": "Servas", "cp": "30340", "dept": "30", "lat": 44.1564, "lon": 4.1893}, {"nom": "Serviers-et-Labaume", "cp": "30700", "dept": "30", "lat": 44.0409, "lon": 4.3377}, {"nom": "Seynes", "cp": "30580", "dept": "30", "lat": 44.1134, "lon": 4.2894}, {"nom": "Sommières", "cp": "30250", "dept": "30", "lat": 43.7706, "lon": 4.0812}, {"nom": "Soudorgues", "cp": "30460", "dept": "30", "lat": 44.0698, "lon": 3.8043}, {"nom": "Soustelle", "cp": "30110", "dept": "30", "lat": 44.1689, "lon": 3.9961}, {"nom": "Souvignargues", "cp": "30250", "dept": "30", "lat": 43.8208, "lon": 4.131}, {"nom": "Sumène", "cp": "30440", "dept": "30", "lat": 43.9903, "lon": 3.7407}, {"nom": "Tavel", "cp": "30126", "dept": "30", "lat": 44.0086, "lon": 4.6872}, {"nom": "Tharaux", "cp": "30430", "dept": "30", "lat": 44.2406, "lon": 4.3221}, {"nom": "Théziers", "cp": "30390", "dept": "30", "lat": 43.9048, "lon": 4.6283}, {"nom": "Thoiras-Corbès", "cp": "30140", "dept": "30", "lat": 44.0646, "lon": 3.9248}, {"nom": "Tornac", "cp": "30140", "dept": "30", "lat": 44.016, "lon": 3.9808}, {"nom": "Tresques", "cp": "30330", "dept": "30", "lat": 44.1166, "lon": 4.5958}, {"nom": "Trèves", "cp": "30750", "dept": "30", "lat": 44.0622, "lon": 3.3869}, {"nom": "Uchaud", "cp": "30620", "dept": "30", "lat": 43.7596, "lon": 4.2675}, {"nom": "Uzès", "cp": "30700", "dept": "30", "lat": 44.0289, "lon": 4.416}, {"nom": "Vabres", "cp": "30460", "dept": "30", "lat": 44.0271, "lon": 3.8849}, {"nom": "Vallabrègues", "cp": "30300", "dept": "30", "lat": 43.8616, "lon": 4.6367}, {"nom": "Vallabrix", "cp": "30700", "dept": "30", "lat": 44.0647, "lon": 4.4851}, {"nom": "Vallérargues", "cp": "30580", "dept": "30", "lat": 44.1257, "lon": 4.3608}, {"nom": "Val-d'Aigoual", "cp": "30570", "dept": "30", "lat": 44.081, "lon": 3.6272}, {"nom": "Valliguières", "cp": "30210", "dept": "30", "lat": 44.0088, "lon": 4.5884}, {"nom": "Vauvert", "cp": "30600", "dept": "30", "lat": 43.626, "lon": 4.3103}, {"nom": "Vénéjan", "cp": "30200", "dept": "30", "lat": 44.1961, "lon": 4.6726}, {"nom": "Verfeuil", "cp": "30630", "dept": "30", "lat": 44.1635, "lon": 4.4568}, {"nom": "Vergèze", "cp": "30310", "dept": "30", "lat": 43.7341, "lon": 4.2332}, {"nom": "La Vernarède", "cp": "30530", "dept": "30", "lat": 44.284, "lon": 4.0077}, {"nom": "Vers-Pont-du-Gard", "cp": "30210", "dept": "30", "lat": 43.9697, "lon": 4.5175}, {"nom": "Vestric-et-Candiac", "cp": "30600", "dept": "30", "lat": 43.7419, "lon": 4.2641}, {"nom": "Vézénobres", "cp": "30360", "dept": "30", "lat": 44.052, "lon": 4.1368}, {"nom": "Vic-le-Fesq", "cp": "30260", "dept": "30", "lat": 43.8704, "lon": 4.0813}, {"nom": "Le Vigan", "cp": "30120", "dept": "30", "lat": 43.9822, "lon": 3.6336}, {"nom": "Villeneuve-lès-Avignon", "cp": "30400", "dept": "30", "lat": 43.9776, "lon": 4.792}, {"nom": "Villevieille", "cp": "30250", "dept": "30", "lat": 43.7947, "lon": 4.1064}, {"nom": "Vissec", "cp": "30770", "dept": "30", "lat": 43.898, "lon": 3.4582}, {"nom": "Montagnac", "cp": "30350", "dept": "30", "lat": 43.9366, "lon": 4.1503}, {"nom": "Saint-Paul-les-Fonts", "cp": "30330", "dept": "30", "lat": 44.0706, "lon": 4.6188}, {"nom": "Rodilhan", "cp": "30230", "dept": "30", "lat": 43.8253, "lon": 4.4333}]