[{"nom": "Abergement-la-Ronce", "cp": "39500", "dept": "39", "lat": 47.0653, "lon": 5.3778}, {"nom": "Abergement-le-Grand", "cp": "39600", "dept": "39", "lat": 46.9141, "lon": 5.6785}, {"nom": "Abergement-le-Petit", "cp": "39800", "dept": "39", "lat": 46.9064, "lon": 5.6973}, {"nom": "Abergement-lès-Thésy", "cp": "39110", "dept": "39", "lat": 46.9109, "lon": 5.9447}, {"nom": "Aiglepierre", "cp": "39110", "dept": "39", "lat": 46.955, "lon": 5.8096}, {"nom": "Alièze", "cp": "39270", "dept": "39", "lat": 46.588, "lon": 5.5851}, {"nom": "Amange", "cp": "39700", "dept": "39", "lat": 47.1691, "lon": 5.5659}, {"nom": "Andelot-en-Montagne", "cp": "39110", "dept": "39", "lat": 46.8604, "lon": 5.9277}, {"nom": "Andelot-Morval", "cp": "39320", "dept": "39", "lat": 46.4235, "lon": 5.4278}, {"nom": "Annoire", "cp": "39120", "dept": "39", "lat": 46.9585, "lon": 5.2796}, {"nom": "Arbois", "cp": "39600", "dept": "39", "lat": 46.8876, "lon": 5.773}, {"nom": "Archelange", "cp": "39290", "dept": "39", "lat": 47.1523, "lon": 5.5163}, {"nom": "Ardon", "cp": "39300", "dept": "39", "lat": 46.7719, "lon": 5.8773}, {"nom": "Arinthod", "cp": "39240", "dept": "39", "lat": 46.3917, "lon": 5.5882}, {"nom": "Arlay", "cp": "39140", "dept": "39", "lat": 46.767, "lon": 5.5383}, {"nom": "Aromas", "cp": "39240", "dept": "39", "lat": 46.3135, "lon": 5.4871}, {"nom": "Les Arsures", "cp": "39600", "dept": "39", "lat": 46.9536, "lon": 5.7833}, {"nom": "Arsure-Arsurette", "cp": "39250", "dept": "39", "lat": 46.7149, "lon": 6.0827}, {"nom": "La Chailleuse", "cp": "39270", "dept": "39", "lat": 46.5822, "lon": 5.5233}, {"nom": "Asnans-Beauvoisin", "cp": "39120", "dept": "39", "lat": 46.9385, "lon": 5.4001}, {"nom": "Audelange", "cp": "39700", "dept": "39", "lat": 47.1402, "lon": 5.5876}, {"nom": "Augea", "cp": "39190", "dept": "39", "lat": 46.5629, "lon": 5.3894}, {"nom": "Augerans", "cp": "39380", "dept": "39", "lat": 47.0268, "lon": 5.5867}, {"nom": "Augisey", "cp": "39270", "dept": "39", "lat": 46.556, "lon": 5.4947}, {"nom": "Aumont", "cp": "39800", "dept": "39", "lat": 46.9179, "lon": 5.636}, {"nom": "Aumur", "cp": "39410", "dept": "39", "lat": 47.0609, "lon": 5.333}, {"nom": "Authume", "cp": "39100", "dept": "39", "lat": 47.1242, "lon": 5.5075}, {"nom": "Auxange", "cp": "39700", "dept": "39", "lat": 47.1782, "lon": 5.6539}, {"nom": "Avignon-lès-Saint-Claude", "cp": "39200", "dept": "39", "lat": 46.4032, "lon": 5.8376}, {"nom": "Balaiseaux", "cp": "39120", "dept": "39", "lat": 46.9671, "lon": 5.4595}, {"nom": "Balanod", "cp": "39160", "dept": "39", "lat": 46.4558, "lon": 5.349}, {"nom": "Bans", "cp": "39380", "dept": "39", "lat": 46.9801, "lon": 5.5798}, {"nom": "Barésia-sur-l'Ain", "cp": "39130", "dept": "39", "lat": 46.5438, "lon": 5.7001}, {"nom": "La Barre", "cp": "39700", "dept": "39", "lat": 47.1576, "lon": 5.6911}, {"nom": "Barretaine", "cp": "39800", "dept": "39", "lat": 46.8079, "lon": 5.7207}, {"nom": "Baume-les-Messieurs", "cp": "39210", "dept": "39", "lat": 46.7059, "lon": 5.6586}, {"nom": "Baverans", "cp": "39100", "dept": "39", "lat": 47.1065, "lon": 5.5364}, {"nom": "Beaufort-Orbagna", "cp": "39190", "dept": "39", "lat": 46.5854, "lon": 5.4355}, {"nom": "Beffia", "cp": "39270", "dept": "39", "lat": 46.5306, "lon": 5.5487}, {"nom": "Bellecombe", "cp": "39310", "dept": "39", "lat": 46.3101, "lon": 5.911}, {"nom": "Bellefontaine", "cp": "39400", "dept": "39", "lat": 46.5584, "lon": 6.0791}, {"nom": "Belmont", "cp": "39380", "dept": "39", "lat": 47.0293, "lon": 5.606}, {"nom": "Bersaillin", "cp": "39800", "dept": "39", "lat": 46.8606, "lon": 5.595}, {"nom": "Besain", "cp": "39800", "dept": "39", "lat": 46.7857, "lon": 5.795}, {"nom": "Biarne", "cp": "39290", "dept": "39", "lat": 47.1452, "lon": 5.4528}, {"nom": "Bief-des-Maisons", "cp": "39150", "dept": "39", "lat": 46.7014, "lon": 6.049}, {"nom": "Bief-du-Fourg", "cp": "39250", "dept": "39", "lat": 46.8243, "lon": 6.1225}, {"nom": "Biefmorin", "cp": "39800", "dept": "39", "lat": 46.904, "lon": 5.5272}, {"nom": "Billecul", "cp": "39250", "dept": "39", "lat": 46.7457, "lon": 6.0575}, {"nom": "Bletterans", "cp": "39140", "dept": "39", "lat": 46.7299, "lon": 5.4322}, {"nom": "Blois-sur-Seille", "cp": "39210", "dept": "39", "lat": 46.7479, "lon": 5.6677}, {"nom": "Blye", "cp": "39130", "dept": "39", "lat": 46.6284, "lon": 5.6977}, {"nom": "Bois-d'Amont", "cp": "39220", "dept": "39", "lat": 46.5372, "lon": 6.1272}, {"nom": "Bois-de-Gand", "cp": "39230", "dept": "39", "lat": 46.8261, "lon": 5.5019}, {"nom": "Boissia", "cp": "39130", "dept": "39", "lat": 46.58, "lon": 5.7233}, {"nom": "La Boissière", "cp": "39240", "dept": "39", "lat": 46.4214, "lon": 5.5208}, {"nom": "Bonlieu", "cp": "39130", "dept": "39", "lat": 46.5949, "lon": 5.8461}, {"nom": "Bonnefontaine", "cp": "39800", "dept": "39", "lat": 46.7344, "lon": 5.7536}, {"nom": "Bornay", "cp": "39570", "dept": "39", "lat": 46.6128, "lon": 5.5545}, {"nom": "Les Bouchoux", "cp": "39370", "dept": "39", "lat": 46.2977, "lon": 5.7998}, {"nom": "Bourg-de-Sirod", "cp": "39300", "dept": "39", "lat": 46.7298, "lon": 5.9569}, {"nom": "Bracon", "cp": "39110", "dept": "39", "lat": 46.9263, "lon": 5.8672}, {"nom": "Brainans", "cp": "39800", "dept": "39", "lat": 46.8708, "lon": 5.6278}, {"nom": "Brans", "cp": "39290", "dept": "39", "lat": 47.2238, "lon": 5.574}, {"nom": "La Bretenière", "cp": "39700", "dept": "39", "lat": 47.1293, "lon": 5.6676}, {"nom": "Bretenières", "cp": "39120", "dept": "39", "lat": 46.9213, "lon": 5.5397}, {"nom": "Brevans", "cp": "39100", "dept": "39", "lat": 47.1023, "lon": 5.5246}, {"nom": "Briod", "cp": "39570", "dept": "39", "lat": 46.6622, "lon": 5.622}, {"nom": "Broissia", "cp": "39320", "dept": "39", "lat": 46.3562, "lon": 5.4335}, {"nom": "Buvilly", "cp": "39800", "dept": "39", "lat": 46.8698, "lon": 5.7266}, {"nom": "Censeau", "cp": "39250", "dept": "39", "lat": 46.8188, "lon": 6.0792}, {"nom": "Cernans", "cp": "39110", "dept": "39", "lat": 46.9344, "lon": 5.9404}, {"nom": "Cerniébaud", "cp": "39250", "dept": "39", "lat": 46.7378, "lon": 6.1252}, {"nom": "Cernon", "cp": "39240", "dept": "39", "lat": 46.4097, "lon": 5.6447}, {"nom": "Cesancey", "cp": "39570", "dept": "39", "lat": 46.6209, "lon": 5.4879}, {"nom": "Chaînée-des-Coupis", "cp": "39120", "dept": "39", "lat": 46.9213, "lon": 5.4341}, {"nom": "Les Chalesmes", "cp": "39150", "dept": "39", "lat": 46.6946, "lon": 6.0267}, {"nom": "Chambéria", "cp": "39270", "dept": "39", "lat": 46.4698, "lon": 5.5712}, {"nom": "Chamblay", "cp": "39380", "dept": "39", "lat": 46.9915, "lon": 5.7035}, {"nom": "Chamole", "cp": "39800", "dept": "39", "lat": 46.8453, "lon": 5.7382}, {"nom": "Champagne-sur-Loue", "cp": "39600", "dept": "39", "lat": 47.0329, "lon": 5.8051}, {"nom": "Champagney", "cp": "39290", "dept": "39", "lat": 47.2601, "lon": 5.5079}, {"nom": "Champagnole", "cp": "39300", "dept": "39", "lat": 46.7423, "lon": 5.8938}, {"nom": "Champdivers", "cp": "39500", "dept": "39", "lat": 47.0084, "lon": 5.3888}, {"nom": "Champrougier", "cp": "39230", "dept": "39", "lat": 46.8828, "lon": 5.5097}, {"nom": "Champvans", "cp": "39100", "dept": "39", "lat": 47.1017, "lon": 5.4167}, {"nom": "Chancia", "cp": "01590", "dept": "39", "lat": 46.3462, "lon": 5.6423}, {"nom": "La Chapelle-sur-Furieuse", "cp": "39110", "dept": "39", "lat": 46.9846, "lon": 5.8605}, {"nom": "Chapelle-Voland", "cp": "39140", "dept": "39", "lat": 46.801, "lon": 5.3792}, {"nom": "Chapois", "cp": "39300", "dept": "39", "lat": 46.8312, "lon": 5.9661}, {"nom": "Charchilla", "cp": "39260", "dept": "39", "lat": 46.4667, "lon": 5.7147}, {"nom": "Charcier", "cp": "39130", "dept": "39", "lat": 46.63, "lon": 5.7596}, {"nom": "Charency", "cp": "39250", "dept": "39", "lat": 46.7668, "lon": 5.9904}, {"nom": "Charézier", "cp": "39130", "dept": "39", "lat": 46.6142, "lon": 5.7361}, {"nom": "La Charme", "cp": "39230", "dept": "39", "lat": 46.8502, "lon": 5.5442}, {"nom": "Charnod", "cp": "39240", "dept": "39", "lat": 46.3386, "lon": 5.4939}, {"nom": "La Chassagne", "cp": "39230", "dept": "39", "lat": 46.8682, "lon": 5.4535}, {"nom": "Château-Chalon", "cp": "39210", "dept": "39", "lat": 46.7594, "lon": 5.6473}, {"nom": "La Châtelaine", "cp": "39600", "dept": "39", "lat": 46.8621, "lon": 5.8257}, {"nom": "Chatelay", "cp": "39380", "dept": "39", "lat": 47.0535, "lon": 5.6971}, {"nom": "Châtel-de-Joux", "cp": "39130", "dept": "39", "lat": 46.529, "lon": 5.8053}, {"nom": "Le Chateley", "cp": "39230", "dept": "39", "lat": 46.8797, "lon": 5.5439}, {"nom": "Châtelneuf", "cp": "39300", "dept": "39", "lat": 46.664, "lon": 5.9117}, {"nom": "Châtenois", "cp": "39700", "dept": "39", "lat": 47.1543, "lon": 5.5493}, {"nom": "Châtillon", "cp": "39130", "dept": "39", "lat": 46.6658, "lon": 5.7314}, {"nom": "Chaumergy", "cp": "39230", "dept": "39", "lat": 46.8427, "lon": 5.4767}, {"nom": "La Chaumusse", "cp": "39150", "dept": "39", "lat": 46.6012, "lon": 5.9428}, {"nom": "Chaussenans", "cp": "39800", "dept": "39", "lat": 46.823, "lon": 5.7442}, {"nom": "Chaussin", "cp": "39120", "dept": "39", "lat": 46.9743, "lon": 5.4046}, {"nom": "Chaux-des-Crotenay", "cp": "39150", "dept": "39", "lat": 46.6612, "lon": 5.9604}, {"nom": "Nanchez", "cp": "39150", "dept": "39", "lat": 46.505, "lon": 5.8689}, {"nom": "La Chaux-du-Dombief", "cp": "39150", "dept": "39", "lat": 46.6012, "lon": 5.9106}, {"nom": "La Chaux-en-Bresse", "cp": "39230", "dept": "39", "lat": 46.8262, "lon": 5.4764}, {"nom": "Chaux-Champagny", "cp": "39110", "dept": "39", "lat": 46.8814, "lon": 5.8805}, {"nom": "Chavéria", "cp": "39270", "dept": "39", "lat": 46.498, "lon": 5.5589}, {"nom": "Chemenot", "cp": "39230", "dept": "39", "lat": 46.861, "lon": 5.5274}, {"nom": "Saint-Hymetière-sur-Valouse", "cp": "39240", "dept": "39", "lat": 46.3442, "lon": 5.5665}, {"nom": "Chemin", "cp": "39120", "dept": "39", "lat": 46.9758, "lon": 5.3171}, {"nom": "Chêne-Bernard", "cp": "39120", "dept": "39", "lat": 46.9162, "lon": 5.4744}, {"nom": "Chêne-Sec", "cp": "39230", "dept": "39", "lat": 46.8533, "lon": 5.4444}, {"nom": "Chevigny", "cp": "39290", "dept": "39", "lat": 47.1779, "lon": 5.475}, {"nom": "Chevreaux", "cp": "39190", "dept": "39", "lat": 46.4993, "lon": 5.4218}, {"nom": "Chevrotaine", "cp": "39130", "dept": "39", "lat": 46.6522, "lon": 5.8606}, {"nom": "Chille", "cp": "39570", "dept": "39", "lat": 46.6938, "lon": 5.5718}, {"nom": "Chilly-le-Vignoble", "cp": "39570", "dept": "39", "lat": 46.6599, "lon": 5.4954}, {"nom": "Chilly-sur-Salins", "cp": "39110", "dept": "39", "lat": 46.8722, "lon": 5.8553}, {"nom": "Chissey-sur-Loue", "cp": "39380", "dept": "39", "lat": 47.0579, "lon": 5.7459}, {"nom": "Choisey", "cp": "39100", "dept": "39", "lat": 47.0585, "lon": 5.4522}, {"nom": "Choux", "cp": "39370", "dept": "39", "lat": 46.3029, "lon": 5.7715}, {"nom": "Cize", "cp": "39300", "dept": "39", "lat": 46.7209, "lon": 5.9212}, {"nom": "Clairvaux-les-Lacs", "cp": "39130", "dept": "39", "lat": 46.5629, "lon": 5.756}, {"nom": "Clucy", "cp": "39110", "dept": "39", "lat": 46.9468, "lon": 5.9122}, {"nom": "Cogna", "cp": "39130", "dept": "39", "lat": 46.5866, "lon": 5.7751}, {"nom": "Coiserette", "cp": "39200", "dept": "39", "lat": 46.3365, "lon": 5.8258}, {"nom": "Colonne", "cp": "39800", "dept": "39", "lat": 46.8783, "lon": 5.5732}, {"nom": "Commenailles", "cp": "39140", "dept": "39", "lat": 46.8034, "lon": 5.436}, {"nom": "Condamine", "cp": "39570", "dept": "39", "lat": 46.6491, "lon": 5.4335}, {"nom": "Condes", "cp": "39240", "dept": "39", "lat": 46.3335, "lon": 5.616}, {"nom": "Conliège", "cp": "39570", "dept": "39", "lat": 46.6513, "lon": 5.6148}, {"nom": "Conte", "cp": "39300", "dept": "39", "lat": 46.7488, "lon": 6.0093}, {"nom": "Cornod", "cp": "39240", "dept": "39", "lat": 46.3054, "lon": 5.5496}, {"nom": "Cosges", "cp": "39140", "dept": "39", "lat": 46.7504, "lon": 5.3911}, {"nom": "Courbette", "cp": "39570", "dept": "39", "lat": 46.5992, "lon": 5.5694}, {"nom": "Courbouzon", "cp": "39570", "dept": "39", "lat": 46.6523, "lon": 5.5296}, {"nom": "Courlans", "cp": "39570", "dept": "39", "lat": 46.6754, "lon": 5.4837}, {"nom": "Courlaoux", "cp": "39570", "dept": "39", "lat": 46.668, "lon": 5.4504}, {"nom": "Courtefontaine", "cp": "39700", "dept": "39", "lat": 47.1269, "lon": 5.7958}, {"nom": "Cousance", "cp": "39190", "dept": "39", "lat": 46.5365, "lon": 5.3795}, {"nom": "Coyrière", "cp": "39200", "dept": "39", "lat": 46.3398, "lon": 5.8454}, {"nom": "Coyron", "cp": "39260", "dept": "39", "lat": 46.5108, "lon": 5.697}, {"nom": "Cramans", "cp": "39600", "dept": "39", "lat": 47.0067, "lon": 5.7856}, {"nom": "Hauteroche", "cp": "39210", "dept": "39", "lat": 46.7008, "lon": 5.6997}, {"nom": "Crans", "cp": "39300", "dept": "39", "lat": 46.6957, "lon": 5.9829}, {"nom": "Crenans", "cp": "39260", "dept": "39", "lat": 46.4688, "lon": 5.739}, {"nom": "Cressia", "cp": "39270", "dept": "39", "lat": 46.5277, "lon": 5.4857}, {"nom": "Crissey", "cp": "39100", "dept": "39", "lat": 47.0511, "lon": 5.4766}, {"nom": "Crotenay", "cp": "39300", "dept": "39", "lat": 46.7571, "lon": 5.8127}, {"nom": "Les Crozets", "cp": "39260", "dept": "39", "lat": 46.4654, "lon": 5.8042}, {"nom": "Cuisia", "cp": "39190", "dept": "39", "lat": 46.549, "lon": 5.4061}, {"nom": "Cuvier", "cp": "39250", "dept": "39", "lat": 46.8407, "lon": 6.0661}, {"nom": "Dammartin-Marpain", "cp": "39290", "dept": "39", "lat": 47.2535, "lon": 5.5522}, {"nom": "Damparis", "cp": "39500", "dept": "39", "lat": 47.0674, "lon": 5.3994}, {"nom": "Dampierre", "cp": "39350", "dept": "39", "lat": 47.1767, "lon": 5.7453}, {"nom": "Darbonnay", "cp": "39230", "dept": "39", "lat": 46.8261, "lon": 5.6061}, {"nom": "Denezières", "cp": "39130", "dept": "39", "lat": 46.6255, "lon": 5.8008}, {"nom": "Le Deschaux", "cp": "39120", "dept": "39", "lat": 46.9525, "lon": 5.5016}, {"nom": "Desnes", "cp": "39140", "dept": "39", "lat": 46.7682, "lon": 5.4669}, {"nom": "Les Deux-Fays", "cp": "39230", "dept": "39", "lat": 46.8856, "lon": 5.4877}, {"nom": "Digna", "cp": "39190", "dept": "39", "lat": 46.5166, "lon": 5.3828}, {"nom": "Dole", "cp": "39100", "dept": "39", "lat": 47.0739, "lon": 5.5024}, {"nom": "Domblans", "cp": "39210", "dept": "39", "lat": 46.7682, "lon": 5.5898}, {"nom": "Dompierre-sur-Mont", "cp": "39270", "dept": "39", "lat": 46.5645, "lon": 5.6148}, {"nom": "Doucier", "cp": "39130", "dept": "39", "lat": 46.6462, "lon": 5.7758}, {"nom": "Dournon", "cp": "39110", "dept": "39", "lat": 46.9329, "lon": 5.9704}, {"nom": "Doye", "cp": "39250", "dept": "39", "lat": 46.77, "lon": 6.012}, {"nom": "Dramelay", "cp": "39240", "dept": "39", "lat": 46.4038, "lon": 5.5283}, {"nom": "Éclans-Nenon", "cp": "39700", "dept": "39", "lat": 47.1028, "lon": 5.6082}, {"nom": "Écleux", "cp": "39600", "dept": "39", "lat": 46.9953, "lon": 5.7368}, {"nom": "Écrille", "cp": "39270", "dept": "39", "lat": 46.4997, "lon": 5.6322}, {"nom": "Entre-deux-Monts", "cp": "39150", "dept": "39", "lat": 46.6407, "lon": 5.9651}, {"nom": "Val-d'Épy", "cp": "39160", "dept": "39", "lat": 46.3888, "lon": 5.3975}, {"nom": "Équevillon", "cp": "39300", "dept": "39", "lat": 46.7602, "lon": 5.9416}, {"nom": "Les Essards-Taignevaux", "cp": "39120", "dept": "39", "lat": 46.904, "lon": 5.414}, {"nom": "Esserval-Tartre", "cp": "39250", "dept": "39", "lat": 46.8296, "lon": 6.0305}, {"nom": "Étival", "cp": "39130", "dept": "39", "lat": 46.4912, "lon": 5.7981}, {"nom": "L'Étoile", "cp": "39570", "dept": "39", "lat": 46.7171, "lon": 5.5332}, {"nom": "Étrepigney", "cp": "39700", "dept": "39", "lat": 47.1126, "lon": 5.6814}, {"nom": "Évans", "cp": "39700", "dept": "39", "lat": 47.1794, "lon": 5.764}, {"nom": "Falletans", "cp": "39700", "dept": "39", "lat": 47.0839, "lon": 5.5683}, {"nom": "La Favière", "cp": "39250", "dept": "39", "lat": 46.7484, "lon": 6.037}, {"nom": "Fay-en-Montagne", "cp": "39800", "dept": "39", "lat": 46.7538, "lon": 5.7181}, {"nom": "La Ferté", "cp": "39600", "dept": "39", "lat": 46.945, "lon": 5.6471}, {"nom": "Le Fied", "cp": "39800", "dept": "39", "lat": 46.7761, "lon": 5.7092}, {"nom": "Foncine-le-Bas", "cp": "39520", "dept": "39", "lat": 46.6324, "lon": 6.0294}, {"nom": "Foncine-le-Haut", "cp": "39460", "dept": "39", "lat": 46.663, "lon": 6.0611}, {"nom": "Fontainebrux", "cp": "39140", "dept": "39", "lat": 46.6983, "lon": 5.4384}, {"nom": "Fontenu", "cp": "39130", "dept": "39", "lat": 46.6757, "lon": 5.807}, {"nom": "Fort-du-Plasne", "cp": "39150", "dept": "39", "lat": 46.6204, "lon": 5.9846}, {"nom": "Foucherans", "cp": "39100", "dept": "39", "lat": 47.086, "lon": 5.4386}, {"nom": "Foulenay", "cp": "39230", "dept": "39", "lat": 46.8619, "lon": 5.4869}, {"nom": "Fraisans", "cp": "39700", "dept": "39", "lat": 47.1287, "lon": 5.7583}, {"nom": "Francheville", "cp": "39230", "dept": "39", "lat": 46.8375, "lon": 5.5039}, {"nom": "Fraroz", "cp": "39250", "dept": "39", "lat": 46.7286, "lon": 6.0984}, {"nom": "Frasne-les-Meulières", "cp": "39290", "dept": "39", "lat": 47.1966, "lon": 5.5022}, {"nom": "La Frasnée", "cp": "39130", "dept": "39", "lat": 46.5604, "lon": 5.8002}, {"nom": "Le Frasnois", "cp": "39130", "dept": "39", "lat": 46.6347, "lon": 5.8931}, {"nom": "Frébuans", "cp": "39570", "dept": "39", "lat": 46.6485, "lon": 5.4807}, {"nom": "Frontenay", "cp": "39210", "dept": "39", "lat": 46.7913, "lon": 5.6395}, {"nom": "Gatey", "cp": "39120", "dept": "39", "lat": 46.9494, "lon": 5.4601}, {"nom": "Gendrey", "cp": "39350", "dept": "39", "lat": 47.1988, "lon": 5.6847}, {"nom": "Genod", "cp": "39240", "dept": "39", "lat": 46.3587, "lon": 5.5271}, {"nom": "Geraise", "cp": "39110", "dept": "39", "lat": 46.959, "lon": 5.9541}, {"nom": "Germigney", "cp": "39380", "dept": "39", "lat": 47.0456, "lon": 5.6862}, {"nom": "Geruge", "cp": "39570", "dept": "39", "lat": 46.6238, "lon": 5.5296}, {"nom": "Gevingey", "cp": "39570", "dept": "39", "lat": 46.6362, "lon": 5.5073}, {"nom": "Gevry", "cp": "39100", "dept": "39", "lat": 47.0361, "lon": 5.4451}, {"nom": "Gigny", "cp": "39320", "dept": "39", "lat": 46.4531, "lon": 5.473}, {"nom": "Gillois", "cp": "39250", "dept": "39", "lat": 46.7315, "lon": 6.0311}, {"nom": "Gizia", "cp": "39190", "dept": "39", "lat": 46.5305, "lon": 5.4279}, {"nom": "Grande-Rivière Château", "cp": "39150", "dept": "39", "lat": 46.5287, "lon": 5.9091}, {"nom": "Grange-de-Vaivre", "cp": "39600", "dept": "39", "lat": 46.9966, "lon": 5.8411}, {"nom": "Graye-et-Charnay", "cp": "39320", "dept": "39", "lat": 46.4725, "lon": 5.4532}, {"nom": "Gredisans", "cp": "39290", "dept": "39", "lat": 47.1635, "lon": 5.5168}, {"nom": "Grozon", "cp": "39800", "dept": "39", "lat": 46.8881, "lon": 5.6909}, {"nom": "Hautecour", "cp": "39130", "dept": "39", "lat": 46.5587, "lon": 5.7808}, {"nom": "Les Hays", "cp": "39120", "dept": "39", "lat": 46.9078, "lon": 5.3914}, {"nom": "Ivory", "cp": "39110", "dept": "39", "lat": 46.8922, "lon": 5.8506}, {"nom": "Ivrey", "cp": "39110", "dept": "39", "lat": 46.9954, "lon": 5.8959}, {"nom": "Jeurre", "cp": "39360", "dept": "39", "lat": 46.3755, "lon": 5.7037}, {"nom": "Jouhe", "cp": "39100", "dept": "39", "lat": 47.1373, "lon": 5.4826}, {"nom": "Lac-des-Rouges-Truites", "cp": "39150", "dept": "39", "lat": 46.5975, "lon": 6.0124}, {"nom": "Ladoye-sur-Seille", "cp": "39210", "dept": "39", "lat": 46.7672, "lon": 5.6821}, {"nom": "Montlainsia", "cp": "39320", "dept": "39", "lat": 46.3793, "lon": 5.4825}, {"nom": "Lajoux", "cp": "01410", "dept": "39", "lat": 46.3928, "lon": 6.0067}, {"nom": "Lamoura", "cp": "39310", "dept": "39", "lat": 46.4103, "lon": 5.9956}, {"nom": "Le Larderet", "cp": "39300", "dept": "39", "lat": 46.8185, "lon": 5.945}, {"nom": "Largillay-Marsonnay", "cp": "39130", "dept": "39", "lat": 46.5557, "lon": 5.6699}, {"nom": "Larnaud", "cp": "39140", "dept": "39", "lat": 46.7036, "lon": 5.4572}, {"nom": "Larrivoire", "cp": "39360", "dept": "39", "lat": 46.3381, "lon": 5.789}, {"nom": "Le Latet", "cp": "39300", "dept": "39", "lat": 46.8035, "lon": 5.9422}, {"nom": "La Latette", "cp": "39250", "dept": "39", "lat": 46.7507, "lon": 6.0962}, {"nom": "Lavancia-Epercy", "cp": "01590", "dept": "39", "lat": 46.3364, "lon": 5.6793}, {"nom": "Lavangeot", "cp": "39700", "dept": "39", "lat": 47.1516, "lon": 5.6071}, {"nom": "Lavans-lès-Dole", "cp": "39700", "dept": "39", "lat": 47.1548, "lon": 5.6399}, {"nom": "Lavans-lès-Saint-Claude", "cp": "39170", "dept": "39", "lat": 46.3899, "lon": 5.7776}, {"nom": "Lavigny", "cp": "39210", "dept": "39", "lat": 46.7175, "lon": 5.6054}, {"nom": "Lect", "cp": "39260", "dept": "39", "lat": 46.3917, "lon": 5.6687}, {"nom": "Valzin en Petite Montagne", "cp": "39240", "dept": "39", "lat": 46.4325, "lon": 5.5863}, {"nom": "Lemuy", "cp": "39110", "dept": "39", "lat": 46.892, "lon": 5.9861}, {"nom": "Lent", "cp": "39300", "dept": "39", "lat": 46.75, "lon": 5.977}, {"nom": "Leschères", "cp": "39170", "dept": "39", "lat": 46.4634, "lon": 5.8288}, {"nom": "Loisia", "cp": "39320", "dept": "39", "lat": 46.4945, "lon": 5.4595}, {"nom": "Lombard", "cp": "39230", "dept": "39", "lat": 46.7815, "lon": 5.509}, {"nom": "Longchaumois", "cp": "39400", "dept": "39", "lat": 46.4676, "lon": 5.9619}, {"nom": "Longcochon", "cp": "39250", "dept": "39", "lat": 46.7707, "lon": 6.0758}, {"nom": "Longwy-sur-le-Doubs", "cp": "39120", "dept": "39", "lat": 46.9619, "lon": 5.3529}, {"nom": "Lons-le-Saunier", "cp": "39000", "dept": "39", "lat": 46.6758, "lon": 5.5574}, {"nom": "Loulle", "cp": "39300", "dept": "39", "lat": 46.7052, "lon": 5.8845}, {"nom": "Louvatange", "cp": "39350", "dept": "39", "lat": 47.1903, "lon": 5.7221}, {"nom": "Le Louverot", "cp": "39210", "dept": "39", "lat": 46.7323, "lon": 5.5808}, {"nom": "La Loye", "cp": "39380", "dept": "39", "lat": 47.032, "lon": 5.5498}, {"nom": "Macornay", "cp": "39570", "dept": "39", "lat": 46.6416, "lon": 5.5435}, {"nom": "Maisod", "cp": "39260", "dept": "39", "lat": 46.4754, "lon": 5.6938}, {"nom": "Malange", "cp": "39700", "dept": "39", "lat": 47.1855, "lon": 5.6132}, {"nom": "Mantry", "cp": "39230", "dept": "39", "lat": 46.7918, "lon": 5.5501}, {"nom": "Marigna-sur-Valouse", "cp": "39240", "dept": "39", "lat": 46.4465, "lon": 5.5281}, {"nom": "Marigny", "cp": "39130", "dept": "39", "lat": 46.6765, "lon": 5.7797}, {"nom": "Marnézia", "cp": "39270", "dept": "39", "lat": 46.576, "lon": 5.635}, {"nom": "Marnoz", "cp": "39110", "dept": "39", "lat": 46.9551, "lon": 5.8383}, {"nom": "La Marre", "cp": "39210", "dept": "39", "lat": 46.737, "lon": 5.7066}, {"nom": "Martigna", "cp": "39260", "dept": "39", "lat": 46.3891, "lon": 5.6987}, {"nom": "Mathenay", "cp": "39600", "dept": "39", "lat": 46.9325, "lon": 5.681}, {"nom": "Maynal", "cp": "39190", "dept": "39", "lat": 46.5653, "lon": 5.4104}, {"nom": "Menétru-le-Vignoble", "cp": "39210", "dept": "39", "lat": 46.7728, "lon": 5.6398}, {"nom": "Menétrux-en-Joux", "cp": "39130", "dept": "39", "lat": 46.6248, "lon": 5.8373}, {"nom": "Menotey", "cp": "39290", "dept": "39", "lat": 47.1679, "lon": 5.5023}, {"nom": "Mérona", "cp": "39270", "dept": "39", "lat": 46.5561, "lon": 5.6351}, {"nom": "Mesnay", "cp": "39600", "dept": "39", "lat": 46.9007, "lon": 5.8169}, {"nom": "Mesnois", "cp": "39130", "dept": "39", "lat": 46.592, "lon": 5.6803}, {"nom": "Messia-sur-Sorne", "cp": "39570", "dept": "39", "lat": 46.6625, "lon": 5.5158}, {"nom": "Meussia", "cp": "39260", "dept": "39", "lat": 46.497, "lon": 5.7379}, {"nom": "Mièges", "cp": "39250", "dept": "39", "lat": 46.7933, "lon": 6.0523}, {"nom": "Miéry", "cp": "39800", "dept": "39", "lat": 46.8069, "lon": 5.6675}, {"nom": "Mignovillard", "cp": "39250", "dept": "39", "lat": 46.7741, "lon": 6.14}, {"nom": "Moirans-en-Montagne", "cp": "39260", "dept": "39", "lat": 46.4418, "lon": 5.7369}, {"nom": "Moiron", "cp": "39570", "dept": "39", "lat": 46.6347, "lon": 5.56}, {"nom": "Moissey", "cp": "39290", "dept": "39", "lat": 47.1871, "lon": 5.5326}, {"nom": "Molain", "cp": "39800", "dept": "39", "lat": 46.8256, "lon": 5.8206}, {"nom": "Molamboz", "cp": "39600", "dept": "39", "lat": 46.9521, "lon": 5.6806}, {"nom": "Molay", "cp": "39500", "dept": "39", "lat": 47.0155, "lon": 5.4228}, {"nom": "Chassal-Molinges", "cp": "39360", "dept": "39", "lat": 46.3568, "lon": 5.7812}, {"nom": "Monay", "cp": "39230", "dept": "39", "lat": 46.8383, "lon": 5.5955}, {"nom": "Monnetay", "cp": "39320", "dept": "39", "lat": 46.4581, "lon": 5.5102}, {"nom": "Monnet-la-Ville", "cp": "39300", "dept": "39", "lat": 46.7233, "lon": 5.8227}, {"nom": "Monnières", "cp": "39100", "dept": "39", "lat": 47.114, "lon": 5.4581}, {"nom": "Montagna-le-Reconduit", "cp": "39160", "dept": "39", "lat": 46.4551, "lon": 5.3906}, {"nom": "Montaigu", "cp": "39570", "dept": "39", "lat": 46.6539, "lon": 5.5736}, {"nom": "Montain", "cp": "39210", "dept": "39", "lat": 46.7212, "lon": 5.5783}, {"nom": "Montbarrey", "cp": "39380", "dept": "39", "lat": 47.0181, "lon": 5.638}, {"nom": "Montcusel", "cp": "39260", "dept": "39", "lat": 46.3532, "lon": 5.6648}, {"nom": "Monteplain", "cp": "39700", "dept": "39", "lat": 47.1605, "lon": 5.7128}, {"nom": "Montfleur", "cp": "39320", "dept": "39", "lat": 46.3331, "lon": 5.4444}, {"nom": "Montholier", "cp": "39800", "dept": "39", "lat": 46.8931, "lon": 5.635}, {"nom": "Montigny-lès-Arsures", "cp": "39600", "dept": "39", "lat": 46.938, "lon": 5.776}, {"nom": "Montigny-sur-l'Ain", "cp": "39300", "dept": "39", "lat": 46.7054, "lon": 5.7938}, {"nom": "Montmarlon", "cp": "39110", "dept": "39", "lat": 46.8731, "lon": 5.971}, {"nom": "Montmirey-la-Ville", "cp": "39290", "dept": "39", "lat": 47.2181, "lon": 5.5163}, {"nom": "Montmirey-le-Château", "cp": "39290", "dept": "39", "lat": 47.2267, "lon": 5.5299}, {"nom": "Montmorot", "cp": "39570", "dept": "39", "lat": 46.685, "lon": 5.5136}, {"nom": "Montrevel", "cp": "39320", "dept": "39", "lat": 46.4267, "lon": 5.4927}, {"nom": "Montrond", "cp": "39300", "dept": "39", "lat": 46.7858, "lon": 5.8429}, {"nom": "Mont-sous-Vaudrey", "cp": "39380", "dept": "39", "lat": 46.9691, "lon": 5.5919}, {"nom": "Mont-sur-Monnet", "cp": "39300", "dept": "39", "lat": 46.7056, "lon": 5.8415}, {"nom": "Morbier", "cp": "39400", "dept": "39", "lat": 46.5587, "lon": 6.0186}, {"nom": "Hauts de Bienne", "cp": "39400", "dept": "39", "lat": 46.5165, "lon": 6.0002}, {"nom": "Mouchard", "cp": "39330", "dept": "39", "lat": 46.9776, "lon": 5.7893}, {"nom": "Mournans-Charbonny", "cp": "39250", "dept": "39", "lat": 46.7732, "lon": 5.9899}, {"nom": "Les Moussières", "cp": "39310", "dept": "39", "lat": 46.329, "lon": 5.8766}, {"nom": "Moutonne", "cp": "39270", "dept": "39", "lat": 46.5313, "lon": 5.569}, {"nom": "Moutoux", "cp": "39300", "dept": "39", "lat": 46.7894, "lon": 5.9387}, {"nom": "Mutigney", "cp": "39290", "dept": "39", "lat": 47.2844, "lon": 5.5322}, {"nom": "Les Trois-Châteaux", "cp": "39160", "dept": "39", "lat": 46.4196, "lon": 5.3487}, {"nom": "Nance", "cp": "39140", "dept": "39", "lat": 46.7506, "lon": 5.4217}, {"nom": "Nancuise", "cp": "39270", "dept": "39", "lat": 46.4739, "lon": 5.5301}, {"nom": "Les Nans", "cp": "39300", "dept": "39", "lat": 46.7932, "lon": 5.9778}, {"nom": "Neublans-Abergement", "cp": "39120", "dept": "39", "lat": 46.9032, "lon": 5.3444}, {"nom": "Neuvilley", "cp": "39800", "dept": "39", "lat": 46.8922, "lon": 5.6003}, {"nom": "Nevy-lès-Dole", "cp": "39380", "dept": "39", "lat": 46.9991, "lon": 5.5151}, {"nom": "Nevy-sur-Seille", "cp": "39210", "dept": "39", "lat": 46.7385, "lon": 5.6478}, {"nom": "Ney", "cp": "39300", "dept": "39", "lat": 46.7322, "lon": 5.8825}, {"nom": "Nogna", "cp": "39570", "dept": "39", "lat": 46.6013, "lon": 5.6412}, {"nom": "Nozeroy", "cp": "39250", "dept": "39", "lat": 46.7683, "lon": 6.0371}, {"nom": "Offlanges", "cp": "39290", "dept": "39", "lat": 47.2013, "lon": 5.5635}, {"nom": "Onglières", "cp": "39250", "dept": "39", "lat": 46.8055, "lon": 6.0037}, {"nom": "Onoz", "cp": "39270", "dept": "39", "lat": 46.451, "lon": 5.6703}, {"nom": "Orchamps", "cp": "39700", "dept": "39", "lat": 47.1554, "lon": 5.6661}, {"nom": "Orgelet", "cp": "39270", "dept": "39", "lat": 46.5064, "lon": 5.6151}, {"nom": "Ougney", "cp": "39350", "dept": "39", "lat": 47.2416, "lon": 5.6607}, {"nom": "Ounans", "cp": "39380", "dept": "39", "lat": 46.9881, "lon": 5.6648}, {"nom": "Our", "cp": "39700", "dept": "39", "lat": 47.1077, "lon": 5.6489}, {"nom": "Oussières", "cp": "39800", "dept": "39", "lat": 46.9168, "lon": 5.5963}, {"nom": "Pagney", "cp": "39350", "dept": "39", "lat": 47.2519, "lon": 5.6994}, {"nom": "Pagnoz", "cp": "39330", "dept": "39", "lat": 46.9786, "lon": 5.8241}, {"nom": "Pannessières", "cp": "39570", "dept": "39", "lat": 46.6966, "lon": 5.5951}, {"nom": "Parcey", "cp": "39100", "dept": "39", "lat": 47.0221, "lon": 5.4768}, {"nom": "Le Pasquier", "cp": "39300", "dept": "39", "lat": 46.7991, "lon": 5.8986}, {"nom": "Passenans", "cp": "39230", "dept": "39", "lat": 46.805, "lon": 5.625}, {"nom": "Patornay", "cp": "39130", "dept": "39", "lat": 46.5879, "lon": 5.7093}, {"nom": "Peintre", "cp": "39290", "dept": "39", "lat": 47.1988, "lon": 5.4721}, {"nom": "Perrigny", "cp": "39570", "dept": "39", "lat": 46.6754, "lon": 5.5998}, {"nom": "Peseux", "cp": "39120", "dept": "39", "lat": 46.9922, "lon": 5.3644}, {"nom": "La Pesse", "cp": "39370", "dept": "39", "lat": 46.2896, "lon": 5.8565}, {"nom": "Petit-Noir", "cp": "39120", "dept": "39", "lat": 46.9292, "lon": 5.3377}, {"nom": "Picarreau", "cp": "39800", "dept": "39", "lat": 46.7552, "lon": 5.7593}, {"nom": "Pillemoine", "cp": "39300", "dept": "39", "lat": 46.7037, "lon": 5.9095}, {"nom": "Pimorin", "cp": "39270", "dept": "39", "lat": 46.4977, "lon": 5.4992}, {"nom": "Le Pin", "cp": "39210", "dept": "39", "lat": 46.7088, "lon": 5.5703}, {"nom": "Plainoiseau", "cp": "39210", "dept": "39", "lat": 46.7245, "lon": 5.556}, {"nom": "Plaisia", "cp": "39270", "dept": "39", "lat": 46.5201, "lon": 5.6367}, {"nom": "Les Planches-en-Montagne", "cp": "39150", "dept": "39", "lat": 46.663, "lon": 5.9994}, {"nom": "Les Planches-près-Arbois", "cp": "39600", "dept": "39", "lat": 46.8785, "lon": 5.8093}, {"nom": "Plasne", "cp": "39210", "dept": "39", "lat": 46.7967, "lon": 5.6868}, {"nom": "Plénise", "cp": "39250", "dept": "39", "lat": 46.814, "lon": 6.0193}, {"nom": "Plénisette", "cp": "39250", "dept": "39", "lat": 46.8036, "lon": 6.016}, {"nom": "Pleure", "cp": "39120", "dept": "39", "lat": 46.9157, "lon": 5.4633}, {"nom": "Plumont", "cp": "39700", "dept": "39", "lat": 47.1118, "lon": 5.7192}, {"nom": "Poids-de-Fiole", "cp": "39570", "dept": "39", "lat": 46.5982, "lon": 5.6234}, {"nom": "Pointre", "cp": "39290", "dept": "39", "lat": 47.2214, "lon": 5.493}, {"nom": "Poligny", "cp": "39800", "dept": "39", "lat": 46.8204, "lon": 5.7245}, {"nom": "Pont-de-Poitte", "cp": "39130", "dept": "39", "lat": 46.5724, "lon": 5.6874}, {"nom": "Pont-d'Héry", "cp": "39110", "dept": "39", "lat": 46.8794, "lon": 5.9019}, {"nom": "Pont-du-Navoy", "cp": "39300", "dept": "39", "lat": 46.7303, "lon": 5.7969}, {"nom": "Port-Lesney", "cp": "39330", "dept": "39", "lat": 47.0006, "lon": 5.8184}, {"nom": "Prémanon", "cp": "39220", "dept": "39", "lat": 46.4526, "lon": 6.0374}, {"nom": "Présilly", "cp": "39270", "dept": "39", "lat": 46.5544, "lon": 5.584}, {"nom": "Pretin", "cp": "39110", "dept": "39", "lat": 46.9292, "lon": 5.8366}, {"nom": "Publy", "cp": "39570", "dept": "39", "lat": 46.6251, "lon": 5.6502}, {"nom": "Pupillin", "cp": "39600", "dept": "39", "lat": 46.8749, "lon": 5.7508}, {"nom": "Quintigny", "cp": "39570", "dept": "39", "lat": 46.7343, "lon": 5.5232}, {"nom": "Rahon", "cp": "39120", "dept": "39", "lat": 46.9887, "lon": 5.4654}, {"nom": "Rainans", "cp": "39290", "dept": "39", "lat": 47.1574, "lon": 5.4718}, {"nom": "Ranchot", "cp": "39700", "dept": "39", "lat": 47.1601, "lon": 5.7209}, {"nom": "Rans", "cp": "39700", "dept": "39", "lat": 47.137, "lon": 5.7142}, {"nom": "Ravilloles", "cp": "39170", "dept": "39", "lat": 46.432, "lon": 5.8005}, {"nom": "Recanoz", "cp": "39230", "dept": "39", "lat": 46.808, "lon": 5.508}, {"nom": "Reithouse", "cp": "39270", "dept": "39", "lat": 46.5635, "lon": 5.5528}, {"nom": "Relans", "cp": "39140", "dept": "39", "lat": 46.7675, "lon": 5.4359}, {"nom": "Les Repôts", "cp": "39140", "dept": "39", "lat": 46.6857, "lon": 5.4139}, {"nom": "Revigny", "cp": "39570", "dept": "39", "lat": 46.6225, "lon": 5.6079}, {"nom": "La Rixouse", "cp": "39200", "dept": "39", "lat": 46.4682, "lon": 5.8711}, {"nom": "Rix", "cp": "39250", "dept": "39", "lat": 46.7597, "lon": 6.0536}, {"nom": "Rochefort-sur-Nenon", "cp": "39700", "dept": "39", "lat": 47.1226, "lon": 5.5554}, {"nom": "Rogna", "cp": "39360", "dept": "39", "lat": 46.3271, "lon": 5.7433}, {"nom": "Romain", "cp": "39350", "dept": "39", "lat": 47.2076, "lon": 5.7191}, {"nom": "Romange", "cp": "39700", "dept": "39", "lat": 47.1618, "lon": 5.5954}, {"nom": "Rosay", "cp": "39190", "dept": "39", "lat": 46.5358, "lon": 5.455}, {"nom": "Rotalier", "cp": "39190", "dept": "39", "lat": 46.5836, "lon": 5.4761}, {"nom": "Rothonay", "cp": "39270", "dept": "39", "lat": 46.5138, "lon": 5.5262}, {"nom": "Rouffange", "cp": "39350", "dept": "39", "lat": 47.2256, "lon": 5.7092}, {"nom": "Les Rousses", "cp": "39220", "dept": "39", "lat": 46.4911, "lon": 6.0731}, {"nom": "Ruffey-sur-Seille", "cp": "39140", "dept": "39", "lat": 46.7282, "lon": 5.503}, {"nom": "Rye", "cp": "39230", "dept": "39", "lat": 46.8797, "lon": 5.4265}, {"nom": "Saffloz", "cp": "39130", "dept": "39", "lat": 46.6684, "lon": 5.8613}, {"nom": "Saint-Amour", "cp": "39160", "dept": "39", "lat": 46.4365, "lon": 5.3373}, {"nom": "Saint-Aubin", "cp": "39410", "dept": "39", "lat": 47.031, "lon": 5.3354}, {"nom": "Saint-Baraing", "cp": "39120", "dept": "39", "lat": 46.9859, "lon": 5.437}, {"nom": "Saint-Claude", "cp": "39200", "dept": "39", "lat": 46.4098, "lon": 5.8802}, {"nom": "Saint-Cyr-Montmalin", "cp": "39600", "dept": "39", "lat": 46.9608, "lon": 5.7232}, {"nom": "Saint-Didier", "cp": "39570", "dept": "39", "lat": 46.7102, "lon": 5.5095}, {"nom": "Saint-Germain-en-Montagne", "cp": "39300", "dept": "39", "lat": 46.7797, "lon": 5.9358}, {"nom": "Val Suran", "cp": "39320", "dept": "39", "lat": 46.3868, "lon": 5.4415}, {"nom": "Saint-Lamain", "cp": "39230", "dept": "39", "lat": 46.8055, "lon": 5.6005}, {"nom": "Saint-Laurent-en-Grandvaux", "cp": "39150", "dept": "39", "lat": 46.5703, "lon": 5.9597}, {"nom": "Saint-Lothain", "cp": "39230", "dept": "39", "lat": 46.8281, "lon": 5.6412}, {"nom": "Saint-Loup", "cp": "39120", "dept": "39", "lat": 46.9954, "lon": 5.3122}, {"nom": "Coteaux du Lizon", "cp": "39170", "dept": "39", "lat": 46.4133, "lon": 5.7985}, {"nom": "Saint-Maur", "cp": "39570", "dept": "39", "lat": 46.6078, "lon": 5.5969}, {"nom": "Saint-Maurice-Crillat", "cp": "39130", "dept": "39", "lat": 46.5648, "lon": 5.8282}, {"nom": "Saint-Pierre", "cp": "39150", "dept": "39", "lat": 46.5703, "lon": 5.8968}, {"nom": "Saint-Thiébaud", "cp": "39110", "dept": "39", "lat": 46.9745, "lon": 5.8845}, {"nom": "Saizenay", "cp": "39110", "dept": "39", "lat": 46.9668, "lon": 5.9356}, {"nom": "Salans", "cp": "39700", "dept": "39", "lat": 47.1608, "lon": 5.7915}, {"nom": "Saligney", "cp": "39350", "dept": "39", "lat": 47.2224, "lon": 5.6362}, {"nom": "Salins-les-Bains", "cp": "39110", "dept": "39", "lat": 46.9503, "lon": 5.9054}, {"nom": "Sampans", "cp": "39100", "dept": "39", "lat": 47.1264, "lon": 5.442}, {"nom": "Santans", "cp": "39380", "dept": "39", "lat": 47.0438, "lon": 5.6687}, {"nom": "Sapois", "cp": "39300", "dept": "39", "lat": 46.7448, "lon": 5.9461}, {"nom": "Sarrogna", "cp": "39270", "dept": "39", "lat": 46.476, "lon": 5.6173}, {"nom": "Saugeot", "cp": "39130", "dept": "39", "lat": 46.6061, "lon": 5.8218}, {"nom": "Séligney", "cp": "39120", "dept": "39", "lat": 46.9452, "lon": 5.5403}, {"nom": "Sellières", "cp": "39230", "dept": "39", "lat": 46.8255, "lon": 5.5573}, {"nom": "Septmoncel les Molunes", "cp": "39310", "dept": "39", "lat": 46.3559, "lon": 5.9265}, {"nom": "Sergenaux", "cp": "39230", "dept": "39", "lat": 46.8873, "lon": 5.463}, {"nom": "Sergenon", "cp": "39120", "dept": "39", "lat": 46.9033, "lon": 5.4685}, {"nom": "Sermange", "cp": "39700", "dept": "39", "lat": 47.1985, "lon": 5.6458}, {"nom": "Serre-les-Moulières", "cp": "39700", "dept": "39", "lat": 47.205, "lon": 5.6148}, {"nom": "Sirod", "cp": "39300", "dept": "39", "lat": 46.7287, "lon": 5.9897}, {"nom": "Songeson", "cp": "39130", "dept": "39", "lat": 46.6477, "lon": 5.8331}, {"nom": "Soucia", "cp": "39130", "dept": "39", "lat": 46.5374, "lon": 5.7557}, {"nom": "Souvans", "cp": "39380", "dept": "39", "lat": 46.9761, "lon": 5.5514}, {"nom": "Supt", "cp": "39300", "dept": "39", "lat": 46.855, "lon": 5.9868}, {"nom": "Syam", "cp": "39300", "dept": "39", "lat": 46.6969, "lon": 5.9534}, {"nom": "Tassenières", "cp": "39120", "dept": "39", "lat": 46.925, "lon": 5.5104}, {"nom": "Tavaux", "cp": "39500", "dept": "39", "lat": 47.0396, "lon": 5.4026}, {"nom": "Taxenne", "cp": "39350", "dept": "39", "lat": 47.2212, "lon": 5.6857}, {"nom": "Thervay", "cp": "39290", "dept": "39", "lat": 47.2375, "lon": 5.6137}, {"nom": "Thésy", "cp": "39110", "dept": "39", "lat": 46.9032, "lon": 5.9267}, {"nom": "Thoirette-Coisia", "cp": "39240", "dept": "39", "lat": 46.2901, "lon": 5.554}, {"nom": "Thoiria", "cp": "39130", "dept": "39", "lat": 46.5195, "lon": 5.7466}, {"nom": "Thoissia", "cp": "39160", "dept": "39", "lat": 46.4276, "lon": 5.3931}, {"nom": "Toulouse-le-Château", "cp": "39230", "dept": "39", "lat": 46.8221, "lon": 5.5845}, {"nom": "La Tour-du-Meix", "cp": "39270", "dept": "39", "lat": 46.5219, "lon": 5.6695}, {"nom": "Tourmont", "cp": "39800", "dept": "39", "lat": 46.8655, "lon": 5.665}, {"nom": "Trenal", "cp": "39190", "dept": "39", "lat": 46.6358, "lon": 5.4628}, {"nom": "Uxelles", "cp": "39130", "dept": "39", "lat": 46.6027, "lon": 5.7938}, {"nom": "Vadans", "cp": "39600", "dept": "39", "lat": 46.9402, "lon": 5.7046}, {"nom": "Valempoulières", "cp": "39300", "dept": "39", "lat": 46.8267, "lon": 5.877}, {"nom": "Vannoz", "cp": "39300", "dept": "39", "lat": 46.7758, "lon": 5.911}, {"nom": "Le Vaudioux", "cp": "39300", "dept": "39", "lat": 46.6832, "lon": 5.9262}, {"nom": "Vaudrey", "cp": "39380", "dept": "39", "lat": 46.9662, "lon": 5.6291}, {"nom": "Vaux-lès-Saint-Claude", "cp": "39360", "dept": "39", "lat": 46.3546, "lon": 5.7309}, {"nom": "Verges", "cp": "39570", "dept": "39", "lat": 46.6578, "lon": 5.6873}, {"nom": "Véria", "cp": "39160", "dept": "39", "lat": 46.4595, "lon": 5.421}, {"nom": "Vernantois", "cp": "39570", "dept": "39", "lat": 46.623, "lon": 5.5812}, {"nom": "Le Vernois", "cp": "39210", "dept": "39", "lat": 46.7319, "lon": 5.5941}, {"nom": "Vers-en-Montagne", "cp": "39300", "dept": "39", "lat": 46.8222, "lon": 5.9111}, {"nom": "Vers-sous-Sellières", "cp": "39230", "dept": "39", "lat": 46.8227, "lon": 5.5266}, {"nom": "Vertamboz", "cp": "39130", "dept": "39", "lat": 46.6007, "lon": 5.7438}, {"nom": "Vescles", "cp": "39240", "dept": "39", "lat": 46.3547, "lon": 5.6105}, {"nom": "Vevy", "cp": "39570", "dept": "39", "lat": 46.667, "lon": 5.6688}, {"nom": "La Vieille-Loye", "cp": "39380", "dept": "39", "lat": 47.0557, "lon": 5.6303}, {"nom": "Villard-Saint-Sauveur", "cp": "39200", "dept": "39", "lat": 46.3631, "lon": 5.8627}, {"nom": "Villards-d'Héria", "cp": "39260", "dept": "39", "lat": 46.4046, "lon": 5.7394}, {"nom": "Villeneuve-d'Aval", "cp": "39600", "dept": "39", "lat": 46.9704, "lon": 5.7505}, {"nom": "Villeneuve-sous-Pymont", "cp": "39570", "dept": "39", "lat": 46.6945, "lon": 5.553}, {"nom": "Villerserine", "cp": "39800", "dept": "39", "lat": 46.855, "lon": 5.6399}, {"nom": "Villers-Farlay", "cp": "39600", "dept": "39", "lat": 46.9924, "lon": 5.7597}, {"nom": "Villers-les-Bois", "cp": "39120", "dept": "39", "lat": 46.9222, "lon": 5.5712}, {"nom": "Villers-Robert", "cp": "39120", "dept": "39", "lat": 46.9646, "lon": 5.5214}, {"nom": "Villette-lès-Arbois", "cp": "39600", "dept": "39", "lat": 46.9345, "lon": 5.7427}, {"nom": "Villette-lès-Dole", "cp": "39100", "dept": "39", "lat": 47.0462, "lon": 5.4918}, {"nom": "Villevieux", "cp": "39140", "dept": "39", "lat": 46.7276, "lon": 5.4449}, {"nom": "Le Villey", "cp": "39230", "dept": "39", "lat": 46.847, "lon": 5.506}, {"nom": "Val-Sonnette", "cp": "39190", "dept": "39", "lat": 46.6047, "lon": 5.4619}, {"nom": "Vincent-Froideville", "cp": "39230", "dept": "39", "lat": 46.7928, "lon": 5.4803}, {"nom": "Viry", "cp": "39360", "dept": "39", "lat": 46.3035, "lon": 5.7312}, {"nom": "Vitreux", "cp": "39350", "dept": "39", "lat": 47.2529, "lon": 5.6708}, {"nom": "Voiteur", "cp": "39210", "dept": "39", "lat": 46.7431, "lon": 5.6014}, {"nom": "Vosbles-Valfin", "cp": "39240", "dept": "39", "lat": 46.3465, "lon": 5.5225}, {"nom": "Vriange", "cp": "39700", "dept": "39", "lat": 47.1832, "lon": 5.5848}, {"nom": "Vulvoz", "cp": "39360", "dept": "39", "lat": 46.3209, "lon": 5.7858}, {"nom": "Aresches", "cp": "39110", "dept": "39", "lat": 46.8942, "lon": 5.9215}]