[{"nom": "Abelcourt", "cp": "70300", "dept": "70", "lat": 47.7947, "lon": 6.2789}, {"nom": "Aboncourt-Gesincourt", "cp": "70500", "dept": "70", "lat": 47.7677, "lon": 5.9743}, {"nom": "Achey", "cp": "70180", "dept": "70", "lat": 47.574, "lon": 5.6075}, {"nom": "Adelans-et-le-Val-de-Bithaine", "cp": "70200", "dept": "70", "lat": 47.7077, "lon": 6.3992}, {"nom": "Aillevans", "cp": "70110", "dept": "70", "lat": 47.5901, "lon": 6.4178}, {"nom": "Aillevillers-et-Lyaumont", "cp": "70320", "dept": "70", "lat": 47.9343, "lon": 6.3296}, {"nom": "Ailloncourt", "cp": "70300", "dept": "70", "lat": 47.758, "lon": 6.3949}, {"nom": "Ainvelle", "cp": "70800", "dept": "70", "lat": 47.848, "lon": 6.2438}, {"nom": "Aisey-et-Richecourt", "cp": "70500", "dept": "70", "lat": 47.8857, "lon": 5.9566}, {"nom": "Alaincourt", "cp": "70210", "dept": "70", "lat": 47.9452, "lon": 6.1032}, {"nom": "Amage", "cp": "70280", "dept": "70", "lat": 47.8443, "lon": 6.5019}, {"nom": "Amance", "cp": "70160", "dept": "70", "lat": 47.7902, "lon": 6.0502}, {"nom": "Ambiévillers", "cp": "70210", "dept": "70", "lat": 47.9911, "lon": 6.1379}, {"nom": "Amblans-et-Velotte", "cp": "70200", "dept": "70", "lat": 47.6817, "lon": 6.4198}, {"nom": "Amoncourt", "cp": "70170", "dept": "70", "lat": 47.7358, "lon": 6.0616}, {"nom": "Amont-et-Effreney", "cp": "70310", "dept": "70", "lat": 47.8672, "lon": 6.563}, {"nom": "Anchenoncourt-et-Chazel", "cp": "70210", "dept": "70", "lat": 47.8635, "lon": 6.116}, {"nom": "Ancier", "cp": "70100", "dept": "70", "lat": 47.4444, "lon": 5.6367}, {"nom": "Andelarre", "cp": "70000", "dept": "70", "lat": 47.5887, "lon": 6.0929}, {"nom": "Andelarrot", "cp": "70000", "dept": "70", "lat": 47.5808, "lon": 6.0942}, {"nom": "Andornay", "cp": "70200", "dept": "70", "lat": 47.6594, "lon": 6.5991}, {"nom": "Angirey", "cp": "70700", "dept": "70", "lat": 47.4524, "lon": 5.7773}, {"nom": "Anjeux", "cp": "70800", "dept": "70", "lat": 47.8814, "lon": 6.2099}, {"nom": "Apremont", "cp": "70100", "dept": "70", "lat": 47.3929, "lon": 5.5328}, {"nom": "Arbecey", "cp": "70120", "dept": "70", "lat": 47.7403, "lon": 5.9377}, {"nom": "Arc-lès-Gray", "cp": "70100", "dept": "70", "lat": 47.462, "lon": 5.5828}, {"nom": "Argillières", "cp": "70600", "dept": "70", "lat": 47.6628, "lon": 5.6251}, {"nom": "Aroz", "cp": "70360", "dept": "70", "lat": 47.6149, "lon": 6.0056}, {"nom": "Arpenans", "cp": "70200", "dept": "70", "lat": 47.6228, "lon": 6.4127}, {"nom": "Arsans", "cp": "70100", "dept": "70", "lat": 47.3672, "lon": 5.6312}, {"nom": "Athesans-Étroitefontaine", "cp": "70110", "dept": "70", "lat": 47.5924, "lon": 6.5178}, {"nom": "Attricourt", "cp": "70100", "dept": "70", "lat": 47.4876, "lon": 5.4117}, {"nom": "Augicourt", "cp": "70500", "dept": "70", "lat": 47.7692, "lon": 5.8913}, {"nom": "Aulx-lès-Cromary", "cp": "70190", "dept": "70", "lat": 47.3747, "lon": 6.099}, {"nom": "Autet", "cp": "70180", "dept": "70", "lat": 47.5438, "lon": 5.6959}, {"nom": "Authoison", "cp": "70190", "dept": "70", "lat": 47.4886, "lon": 6.1492}, {"nom": "Autoreille", "cp": "70700", "dept": "70", "lat": 47.3699, "lon": 5.8291}, {"nom": "Autrey-lès-Cerre", "cp": "70110", "dept": "70", "lat": 47.6121, "lon": 6.3468}, {"nom": "Autrey-lès-Gray", "cp": "70100", "dept": "70", "lat": 47.4609, "lon": 5.4808}, {"nom": "Autrey-le-Vay", "cp": "70110", "dept": "70", "lat": 47.5369, "lon": 6.3968}, {"nom": "Auvet-et-la-Chapelotte", "cp": "70100", "dept": "70", "lat": 47.5071, "lon": 5.5235}, {"nom": "Auxon", "cp": "70000", "dept": "70", "lat": 47.6968, "lon": 6.1558}, {"nom": "Avrigney-Virey", "cp": "70150", "dept": "70", "lat": 47.3385, "lon": 5.7738}, {"nom": "Les Aynans", "cp": "70200", "dept": "70", "lat": 47.617, "lon": 6.4525}, {"nom": "Baignes", "cp": "70000", "dept": "70", "lat": 47.5786, "lon": 6.0491}, {"nom": "Bard-lès-Pesmes", "cp": "70140", "dept": "70", "lat": 47.2785, "lon": 5.6256}, {"nom": "Barges", "cp": "70500", "dept": "70", "lat": 47.8742, "lon": 5.841}, {"nom": "La Barre", "cp": "70190", "dept": "70", "lat": 47.408, "lon": 6.172}, {"nom": "La Basse-Vaivre", "cp": "70210", "dept": "70", "lat": 47.9455, "lon": 6.0489}, {"nom": "Bassigney", "cp": "70800", "dept": "70", "lat": 47.8236, "lon": 6.1847}, {"nom": "Les Bâties", "cp": "70130", "dept": "70", "lat": 47.5055, "lon": 5.9013}, {"nom": "Battrans", "cp": "70100", "dept": "70", "lat": 47.4269, "lon": 5.6409}, {"nom": "Baudoncourt", "cp": "70300", "dept": "70", "lat": 47.7739, "lon": 6.3458}, {"nom": "Baulay", "cp": "70160", "dept": "70", "lat": 47.7855, "lon": 6.0184}, {"nom": "Bay", "cp": "70150", "dept": "70", "lat": 47.2932, "lon": 5.714}, {"nom": "Beaujeu-Saint-Vallier-Pierrejux-et-Quitteur", "cp": "70100", "dept": "70", "lat": 47.4973, "lon": 5.699}, {"nom": "Beaumotte-Aubertans", "cp": "70190", "dept": "70", "lat": 47.4342, "lon": 6.1654}, {"nom": "Beaumotte-lès-Pin", "cp": "70150", "dept": "70", "lat": 47.3178, "lon": 5.8278}, {"nom": "Belfahy", "cp": "70290", "dept": "70", "lat": 47.7866, "lon": 6.7316}, {"nom": "Belmont", "cp": "70270", "dept": "70", "lat": 47.7828, "lon": 6.4969}, {"nom": "Belonchamp", "cp": "70270", "dept": "70", "lat": 47.7724, "lon": 6.6153}, {"nom": "Belverne", "cp": "70400", "dept": "70", "lat": 47.6293, "lon": 6.6541}, {"nom": "Besnans", "cp": "70230", "dept": "70", "lat": 47.4495, "lon": 6.2503}, {"nom": "Betaucourt", "cp": "70500", "dept": "70", "lat": 47.8637, "lon": 5.9207}, {"nom": "Betoncourt-lès-Brotte", "cp": "70300", "dept": "70", "lat": 47.7385, "lon": 6.3439}, {"nom": "Betoncourt-Saint-Pancras", "cp": "70210", "dept": "70", "lat": 47.9224, "lon": 6.1826}, {"nom": "Betoncourt-sur-Mance", "cp": "70500", "dept": "70", "lat": 47.838, "lon": 5.7561}, {"nom": "Beulotte-Saint-Laurent", "cp": "70310", "dept": "70", "lat": 47.8679, "lon": 6.6689}, {"nom": "Beveuge", "cp": "70110", "dept": "70", "lat": 47.5579, "lon": 6.4902}, {"nom": "Blondefontaine", "cp": "70500", "dept": "70", "lat": 47.8815, "lon": 5.8741}, {"nom": "Bonboillon", "cp": "70150", "dept": "70", "lat": 47.3417, "lon": 5.6949}, {"nom": "Bonnevent-Velloreille", "cp": "70700", "dept": "70", "lat": 47.3929, "lon": 5.9296}, {"nom": "Borey", "cp": "70110", "dept": "70", "lat": 47.582, "lon": 6.3517}, {"nom": "Bougey", "cp": "70500", "dept": "70", "lat": 47.784, "lon": 5.8621}, {"nom": "Bougnon", "cp": "70170", "dept": "70", "lat": 47.6945, "lon": 6.1049}, {"nom": "Bouhans-et-Feurg", "cp": "70100", "dept": "70", "lat": 47.4713, "lon": 5.5104}, {"nom": "Bouhans-lès-Lure", "cp": "70200", "dept": "70", "lat": 47.6948, "lon": 6.4293}, {"nom": "Bouhans-lès-Montbozon", "cp": "70230", "dept": "70", "lat": 47.4858, "lon": 6.282}, {"nom": "Bouligney", "cp": "70800", "dept": "70", "lat": 47.9088, "lon": 6.2516}, {"nom": "Boulot", "cp": "70190", "dept": "70", "lat": 47.3581, "lon": 5.9626}, {"nom": "Boult", "cp": "70190", "dept": "70", "lat": 47.3829, "lon": 6.0012}, {"nom": "Bourbévelle", "cp": "70500", "dept": "70", "lat": 47.9142, "lon": 5.9445}, {"nom": "Bourguignon-lès-Conflans", "cp": "70800", "dept": "70", "lat": 47.8144, "lon": 6.1606}, {"nom": "Bourguignon-lès-la-Charité", "cp": "70190", "dept": "70", "lat": 47.5067, "lon": 5.9633}, {"nom": "Bourguignon-lès-Morey", "cp": "70120", "dept": "70", "lat": 47.7046, "lon": 5.708}, {"nom": "Boursières", "cp": "70000", "dept": "70", "lat": 47.6164, "lon": 6.0361}, {"nom": "Bousseraucourt", "cp": "70500", "dept": "70", "lat": 47.962, "lon": 5.9388}, {"nom": "Bresilley", "cp": "70140", "dept": "70", "lat": 47.2631, "lon": 5.6326}, {"nom": "Breuches", "cp": "70300", "dept": "70", "lat": 47.8046, "lon": 6.3283}, {"nom": "Breuchotte", "cp": "70280", "dept": "70", "lat": 47.8288, "lon": 6.4593}, {"nom": "Breurey-lès-Faverney", "cp": "70160", "dept": "70", "lat": 47.7447, "lon": 6.1484}, {"nom": "Brevilliers", "cp": "70400", "dept": "70", "lat": 47.5794, "lon": 6.7997}, {"nom": "Briaucourt", "cp": "70800", "dept": "70", "lat": 47.8196, "lon": 6.2479}, {"nom": "Brotte-lès-Luxeuil", "cp": "70300", "dept": "70", "lat": 47.7479, "lon": 6.3346}, {"nom": "Brotte-lès-Ray", "cp": "70180", "dept": "70", "lat": 47.6072, "lon": 5.7344}, {"nom": "Broye-les-Loups-et-Verfontaine", "cp": "70100", "dept": "70", "lat": 47.4517, "lon": 5.4303}, {"nom": "Broye-Aubigney-Montseugny", "cp": "70140", "dept": "70", "lat": 47.3324, "lon": 5.5168}, {"nom": "Brussey", "cp": "70150", "dept": "70", "lat": 47.3078, "lon": 5.8112}, {"nom": "La Bruyère", "cp": "70280", "dept": "70", "lat": 47.8123, "lon": 6.472}, {"nom": "Bucey-lès-Gy", "cp": "70700", "dept": "70", "lat": 47.4033, "lon": 5.8618}, {"nom": "Bucey-lès-Traves", "cp": "70360", "dept": "70", "lat": 47.6288, "lon": 5.9855}, {"nom": "Buffignécourt", "cp": "70500", "dept": "70", "lat": 47.813, "lon": 6.0231}, {"nom": "Bussières", "cp": "70190", "dept": "70", "lat": 47.345, "lon": 5.9839}, {"nom": "Buthiers", "cp": "70190", "dept": "70", "lat": 47.3551, "lon": 6.0324}, {"nom": "Calmoutier", "cp": "70240", "dept": "70", "lat": 47.6466, "lon": 6.2922}, {"nom": "Cemboing", "cp": "70500", "dept": "70", "lat": 47.8408, "lon": 5.853}, {"nom": "Cenans", "cp": "70230", "dept": "70", "lat": 47.4317, "lon": 6.1892}, {"nom": "Cendrecourt", "cp": "70500", "dept": "70", "lat": 47.8409, "lon": 5.9394}, {"nom": "Cerre-lès-Noroy", "cp": "70000", "dept": "70", "lat": 47.587, "lon": 6.3179}, {"nom": "Chagey", "cp": "70400", "dept": "70", "lat": 47.6211, "lon": 6.7356}, {"nom": "Châlonvillars", "cp": "70400", "dept": "70", "lat": 47.6378, "lon": 6.7766}, {"nom": "Chambornay-lès-Bellevaux", "cp": "70190", "dept": "70", "lat": 47.3948, "lon": 6.1005}, {"nom": "Chambornay-lès-Pin", "cp": "70150", "dept": "70", "lat": 47.3398, "lon": 5.9082}, {"nom": "Champagney", "cp": "70290", "dept": "70", "lat": 47.6991, "lon": 6.6856}, {"nom": "Champey", "cp": "70400", "dept": "70", "lat": 47.5923, "lon": 6.6805}, {"nom": "Champlitte", "cp": "70600", "dept": "70", "lat": 47.631, "lon": 5.4993}, {"nom": "Champtonnay", "cp": "70100", "dept": "70", "lat": 47.3775, "lon": 5.6625}, {"nom": "Champvans", "cp": "70100", "dept": "70", "lat": 47.3966, "lon": 5.5874}, {"nom": "Chancey", "cp": "70140", "dept": "70", "lat": 47.3252, "lon": 5.6758}, {"nom": "Chantes", "cp": "70360", "dept": "70", "lat": 47.6245, "lon": 5.9212}, {"nom": "La Chapelle-lès-Luxeuil", "cp": "70300", "dept": "70", "lat": 47.771, "lon": 6.3943}, {"nom": "La Chapelle-Saint-Quillain", "cp": "70700", "dept": "70", "lat": 47.4889, "lon": 5.8186}, {"nom": "Charcenne", "cp": "70700", "dept": "70", "lat": 47.3706, "lon": 5.7729}, {"nom": "Chargey-lès-Gray", "cp": "70100", "dept": "70", "lat": 47.4955, "lon": 5.5745}, {"nom": "Chargey-lès-Port", "cp": "70170", "dept": "70", "lat": 47.7258, "lon": 5.998}, {"nom": "Chariez", "cp": "70000", "dept": "70", "lat": 47.6173, "lon": 6.0775}, {"nom": "Charmes-Saint-Valbert", "cp": "70120", "dept": "70", "lat": 47.7317, "lon": 5.7077}, {"nom": "Charmoille", "cp": "70000", "dept": "70", "lat": 47.6727, "lon": 6.1123}, {"nom": "Chassey-lès-Montbozon", "cp": "70230", "dept": "70", "lat": 47.5241, "lon": 6.3243}, {"nom": "Chassey-lès-Scey", "cp": "70360", "dept": "70", "lat": 47.6441, "lon": 5.9853}, {"nom": "Châteney", "cp": "70240", "dept": "70", "lat": 47.6967, "lon": 6.323}, {"nom": "Châtenois", "cp": "70240", "dept": "70", "lat": 47.6844, "lon": 6.3208}, {"nom": "Chaumercenne", "cp": "70140", "dept": "70", "lat": 47.303, "lon": 5.6247}, {"nom": "Chauvirey-le-Châtel", "cp": "70500", "dept": "70", "lat": 47.7854, "lon": 5.7502}, {"nom": "Chauvirey-le-Vieil", "cp": "70500", "dept": "70", "lat": 47.7819, "lon": 5.7592}, {"nom": "Chaux-la-Lotière", "cp": "70190", "dept": "70", "lat": 47.3823, "lon": 5.9666}, {"nom": "Chaux-lès-Port", "cp": "70170", "dept": "70", "lat": 47.7165, "lon": 6.0452}, {"nom": "Chavanne", "cp": "70400", "dept": "70", "lat": 47.5591, "lon": 6.6584}, {"nom": "Chemilly", "cp": "70360", "dept": "70", "lat": 47.6413, "lon": 6.0184}, {"nom": "Chenebier", "cp": "70400", "dept": "70", "lat": 47.6465, "lon": 6.7048}, {"nom": "Chenevrey-et-Morogne", "cp": "70150", "dept": "70", "lat": 47.2827, "lon": 5.7322}, {"nom": "Chevigney", "cp": "70140", "dept": "70", "lat": 47.33, "lon": 5.5854}, {"nom": "Colombine", "cp": "70700", "dept": "70", "lat": 47.4001, "lon": 5.7549}, {"nom": "Cintrey", "cp": "70120", "dept": "70", "lat": 47.7532, "lon": 5.7498}, {"nom": "Cirey", "cp": "70190", "dept": "70", "lat": 47.4174, "lon": 6.1318}, {"nom": "Citers", "cp": "70300", "dept": "70", "lat": 47.754, "lon": 6.4193}, {"nom": "Citey", "cp": "70700", "dept": "70", "lat": 47.4419, "lon": 5.7867}, {"nom": "Clairegoutte", "cp": "70200", "dept": "70", "lat": 47.658, "lon": 6.6388}, {"nom": "Clans", "cp": "70000", "dept": "70", "lat": 47.5987, "lon": 6.0254}, {"nom": "Cognières", "cp": "70230", "dept": "70", "lat": 47.4981, "lon": 6.2858}, {"nom": "Coisevaux", "cp": "70400", "dept": "70", "lat": 47.5882, "lon": 6.7062}, {"nom": "Colombe-lès-Vesoul", "cp": "70000", "dept": "70", "lat": 47.612, "lon": 6.2204}, {"nom": "Colombier", "cp": "70000", "dept": "70", "lat": 47.6691, "lon": 6.2207}, {"nom": "Colombotte", "cp": "70240", "dept": "70", "lat": 47.6628, "lon": 6.2861}, {"nom": "Combeaufontaine", "cp": "70120", "dept": "70", "lat": 47.71, "lon": 5.8993}, {"nom": "Comberjon", "cp": "70000", "dept": "70", "lat": 47.6458, "lon": 6.2034}, {"nom": "Conflandey", "cp": "70170", "dept": "70", "lat": 47.7344, "lon": 6.0334}, {"nom": "Conflans-sur-Lanterne", "cp": "70800", "dept": "70", "lat": 47.8113, "lon": 6.2147}, {"nom": "Confracourt", "cp": "70120", "dept": "70", "lat": 47.6765, "lon": 5.8875}, {"nom": "Contréglise", "cp": "70160", "dept": "70", "lat": 47.8404, "lon": 6.0293}, {"nom": "Corbenay", "cp": "70320", "dept": "70", "lat": 47.8972, "lon": 6.3259}, {"nom": "La Corbière", "cp": "70300", "dept": "70", "lat": 47.7929, "lon": 6.4836}, {"nom": "Cordonnet", "cp": "70190", "dept": "70", "lat": 47.4146, "lon": 5.9625}, {"nom": "Cornot", "cp": "70120", "dept": "70", "lat": 47.6903, "lon": 5.84}, {"nom": "Corravillers", "cp": "70310", "dept": "70", "lat": 47.8881, "lon": 6.6483}, {"nom": "Corre", "cp": "70500", "dept": "70", "lat": 47.9185, "lon": 5.9944}, {"nom": "La Côte", "cp": "70200", "dept": "70", "lat": 47.6882, "lon": 6.5727}, {"nom": "Coulevon", "cp": "70000", "dept": "70", "lat": 47.6481, "lon": 6.1814}, {"nom": "Belles-Fontaines", "cp": "70110", "dept": "70", "lat": 47.5266, "lon": 6.5384}, {"nom": "Courcuire", "cp": "70150", "dept": "70", "lat": 47.3479, "lon": 5.8293}, {"nom": "Courmont", "cp": "70400", "dept": "70", "lat": 47.6117, "lon": 6.6451}, {"nom": "Courtesoult-et-Gatey", "cp": "70600", "dept": "70", "lat": 47.6095, "lon": 5.6106}, {"nom": "Couthenans", "cp": "70400", "dept": "70", "lat": 47.5917, "lon": 6.7272}, {"nom": "Cresancey", "cp": "70100", "dept": "70", "lat": 47.3994, "lon": 5.6472}, {"nom": "La Creuse", "cp": "70240", "dept": "70", "lat": 47.6822, "lon": 6.3498}, {"nom": "Crevans-et-la-Chapelle-lès-Granges", "cp": "70400", "dept": "70", "lat": 47.5486, "lon": 6.5935}, {"nom": "Creveney", "cp": "70240", "dept": "70", "lat": 47.6816, "lon": 6.2925}, {"nom": "Cromary", "cp": "70190", "dept": "70", "lat": 47.3641, "lon": 6.0644}, {"nom": "Cubry-lès-Faverney", "cp": "70160", "dept": "70", "lat": 47.816, "lon": 6.1309}, {"nom": "Cugney", "cp": "70700", "dept": "70", "lat": 47.367, "lon": 5.721}, {"nom": "Cult", "cp": "70150", "dept": "70", "lat": 47.3147, "lon": 5.7457}, {"nom": "Cuve", "cp": "70800", "dept": "70", "lat": 47.9109, "lon": 6.2174}, {"nom": "Dambenoît-lès-Colombe", "cp": "70200", "dept": "70", "lat": 47.7232, "lon": 6.3828}, {"nom": "Dampierre-lès-Conflans", "cp": "70800", "dept": "70", "lat": 47.8411, "lon": 6.179}, {"nom": "Dampierre-sur-Linotte", "cp": "70230", "dept": "70", "lat": 47.5352, "lon": 6.242}, {"nom": "Dampierre-sur-Salon", "cp": "70180", "dept": "70", "lat": 47.5765, "lon": 5.6792}, {"nom": "Dampvalley-lès-Colombe", "cp": "70000", "dept": "70", "lat": 47.6216, "lon": 6.2413}, {"nom": "Dampvalley-Saint-Pancras", "cp": "70210", "dept": "70", "lat": 47.9133, "lon": 6.1982}, {"nom": "Delain", "cp": "70180", "dept": "70", "lat": 47.5927, "lon": 5.6442}, {"nom": "Demangevelle", "cp": "70210", "dept": "70", "lat": 47.93, "lon": 6.0408}, {"nom": "La Demie", "cp": "70000", "dept": "70", "lat": 47.5814, "lon": 6.1709}, {"nom": "Denèvre", "cp": "70180", "dept": "70", "lat": 47.5576, "lon": 5.6469}, {"nom": "Échavanne", "cp": "70400", "dept": "70", "lat": 47.657, "lon": 6.7236}, {"nom": "Échenans-sous-Mont-Vaudois", "cp": "70400", "dept": "70", "lat": 47.6067, "lon": 6.7691}, {"nom": "Échenoz-la-Méline", "cp": "70000", "dept": "70", "lat": 47.5949, "lon": 6.1381}, {"nom": "Échenoz-le-Sec", "cp": "70000", "dept": "70", "lat": 47.5285, "lon": 6.1216}, {"nom": "Écromagny", "cp": "70270", "dept": "70", "lat": 47.793, "lon": 6.5671}, {"nom": "Écuelle", "cp": "70600", "dept": "70", "lat": 47.5527, "lon": 5.5474}, {"nom": "Éhuns", "cp": "70300", "dept": "70", "lat": 47.7654, "lon": 6.2988}, {"nom": "Équevilley", "cp": "70160", "dept": "70", "lat": 47.7776, "lon": 6.182}, {"nom": "Errevet", "cp": "70400", "dept": "70", "lat": 47.6889, "lon": 6.7675}, {"nom": "Esboz-Brest", "cp": "70300", "dept": "70", "lat": 47.8048, "lon": 6.4359}, {"nom": "Esmoulières", "cp": "70310", "dept": "70", "lat": 47.8501, "lon": 6.6163}, {"nom": "Esmoulins", "cp": "70100", "dept": "70", "lat": 47.4108, "lon": 5.5572}, {"nom": "Esprels", "cp": "70110", "dept": "70", "lat": 47.5447, "lon": 6.3594}, {"nom": "Essertenne-et-Cecey", "cp": "70100", "dept": "70", "lat": 47.402, "lon": 5.4661}, {"nom": "Étobon", "cp": "70400", "dept": "70", "lat": 47.6426, "lon": 6.675}, {"nom": "Étrelles-et-la-Montbleuse", "cp": "70700", "dept": "70", "lat": 47.478, "lon": 5.8543}, {"nom": "Étuz", "cp": "70150", "dept": "70", "lat": 47.3618, "lon": 5.9336}, {"nom": "Fahy-lès-Autrey", "cp": "70100", "dept": "70", "lat": 47.5138, "lon": 5.4806}, {"nom": "Fallon", "cp": "70110", "dept": "70", "lat": 47.5052, "lon": 6.4812}, {"nom": "Faucogney-et-la-Mer", "cp": "70310", "dept": "70", "lat": 47.8303, "lon": 6.5891}, {"nom": "Faverney", "cp": "70160", "dept": "70", "lat": 47.7691, "lon": 6.0663}, {"nom": "Faymont", "cp": "70200", "dept": "70", "lat": 47.6058, "lon": 6.5983}, {"nom": "Fédry", "cp": "70120", "dept": "70", "lat": 47.6077, "lon": 5.8864}, {"nom": "Ferrières-lès-Ray", "cp": "70130", "dept": "70", "lat": 47.5794, "lon": 5.7937}, {"nom": "Ferrières-lès-Scey", "cp": "70360", "dept": "70", "lat": 47.6659, "lon": 6.0029}, {"nom": "Les Fessey", "cp": "70310", "dept": "70", "lat": 47.8114, "lon": 6.5169}, {"nom": "Filain", "cp": "70230", "dept": "70", "lat": 47.5222, "lon": 6.1744}, {"nom": "Flagy", "cp": "70000", "dept": "70", "lat": 47.6994, "lon": 6.186}, {"nom": "Fleurey-lès-Faverney", "cp": "70160", "dept": "70", "lat": 47.7406, "lon": 6.0861}, {"nom": "Fleurey-lès-Lavoncourt", "cp": "70120", "dept": "70", "lat": 47.6616, "lon": 5.7818}, {"nom": "Fleurey-lès-Saint-Loup", "cp": "70800", "dept": "70", "lat": 47.9234, "lon": 6.2922}, {"nom": "Fondremand", "cp": "70190", "dept": "70", "lat": 47.4644, "lon": 6.0272}, {"nom": "Fontaine-lès-Luxeuil", "cp": "70800", "dept": "70", "lat": 47.8581, "lon": 6.3337}, {"nom": "Fontenois-la-Ville", "cp": "70210", "dept": "70", "lat": 47.938, "lon": 6.1782}, {"nom": "Fontenois-lès-Montbozon", "cp": "70230", "dept": "70", "lat": 47.486, "lon": 6.2329}, {"nom": "Fouchécourt", "cp": "70160", "dept": "70", "lat": 47.7914, "lon": 5.988}, {"nom": "Fougerolles-Saint-Valbert", "cp": "70220", "dept": "70", "lat": 47.8925, "lon": 6.4203}, {"nom": "Fouvent-Saint-Andoche", "cp": "70600", "dept": "70", "lat": 47.6502, "lon": 5.6637}, {"nom": "Frahier-et-Chatebier", "cp": "70400", "dept": "70", "lat": 47.6555, "lon": 6.7509}, {"nom": "Francalmont", "cp": "70800", "dept": "70", "lat": 47.8335, "lon": 6.2709}, {"nom": "Franchevelle", "cp": "70200", "dept": "70", "lat": 47.7433, "lon": 6.4606}, {"nom": "Francourt", "cp": "70180", "dept": "70", "lat": 47.6526, "lon": 5.7321}, {"nom": "Framont", "cp": "70600", "dept": "70", "lat": 47.5722, "lon": 5.5778}, {"nom": "Frasne-le-Château", "cp": "70700", "dept": "70", "lat": 47.4694, "lon": 5.8946}, {"nom": "Frédéric-Fontaine", "cp": "70200", "dept": "70", "lat": 47.65, "lon": 6.6326}, {"nom": "Fresne-Saint-Mamès", "cp": "70130", "dept": "70", "lat": 47.5498, "lon": 5.8622}, {"nom": "Fresse", "cp": "70270", "dept": "70", "lat": 47.7615, "lon": 6.6731}, {"nom": "Fretigney-et-Velloreille", "cp": "70130", "dept": "70", "lat": 47.4893, "lon": 5.9387}, {"nom": "Froideconche", "cp": "70300", "dept": "70", "lat": 47.8366, "lon": 6.4187}, {"nom": "Froideterre", "cp": "70200", "dept": "70", "lat": 47.6981, "lon": 6.5243}, {"nom": "Frotey-lès-Lure", "cp": "70200", "dept": "70", "lat": 47.6581, "lon": 6.546}, {"nom": "Frotey-lès-Vesoul", "cp": "70000", "dept": "70", "lat": 47.6283, "lon": 6.1974}, {"nom": "Genevreuille", "cp": "70240", "dept": "70", "lat": 47.677, "lon": 6.3786}, {"nom": "Genevrey", "cp": "70240", "dept": "70", "lat": 47.7235, "lon": 6.3279}, {"nom": "Germigney", "cp": "70100", "dept": "70", "lat": 47.3714, "lon": 5.5313}, {"nom": "Gevigney-et-Mercey", "cp": "70500", "dept": "70", "lat": 47.7954, "lon": 5.9377}, {"nom": "Gézier-et-Fontenelay", "cp": "70700", "dept": "70", "lat": 47.3631, "lon": 5.8935}, {"nom": "Girefontaine", "cp": "70210", "dept": "70", "lat": 47.8946, "lon": 6.1688}, {"nom": "Gouhenans", "cp": "70110", "dept": "70", "lat": 47.6132, "lon": 6.4847}, {"nom": "Gourgeon", "cp": "70120", "dept": "70", "lat": 47.7192, "lon": 5.8483}, {"nom": "Grammont", "cp": "70110", "dept": "70", "lat": 47.5161, "lon": 6.5141}, {"nom": "Grandecourt", "cp": "70120", "dept": "70", "lat": 47.6359, "lon": 5.8605}, {"nom": "Grandvelle-et-le-Perrenot", "cp": "70190", "dept": "70", "lat": 47.5195, "lon": 6.0063}, {"nom": "Granges-la-Ville", "cp": "70400", "dept": "70", "lat": 47.5691, "lon": 6.5659}, {"nom": "Granges-le-Bourg", "cp": "70400", "dept": "70", "lat": 47.5775, "lon": 6.5896}, {"nom": "Grattery", "cp": "70170", "dept": "70", "lat": 47.6726, "lon": 6.0805}, {"nom": "Gray", "cp": "70100", "dept": "70", "lat": 47.431, "lon": 5.6153}, {"nom": "Gray-la-Ville", "cp": "70100", "dept": "70", "lat": 47.4391, "lon": 5.5705}, {"nom": "Gy", "cp": "70700", "dept": "70", "lat": 47.4021, "lon": 5.8197}, {"nom": "Haut-du-Them-Château-Lambert", "cp": "70440", "dept": "70", "lat": 47.8398, "lon": 6.7443}, {"nom": "Hautevelle", "cp": "70800", "dept": "70", "lat": 47.8415, "lon": 6.2984}, {"nom": "Héricourt", "cp": "70400", "dept": "70", "lat": 47.5666, "lon": 6.7594}, {"nom": "Hugier", "cp": "70150", "dept": "70", "lat": 47.3096, "lon": 5.7063}, {"nom": "Hurecourt", "cp": "70210", "dept": "70", "lat": 47.9063, "lon": 6.0605}, {"nom": "Hyet", "cp": "70190", "dept": "70", "lat": 47.4803, "lon": 6.0752}, {"nom": "Igny", "cp": "70700", "dept": "70", "lat": 47.4813, "lon": 5.7552}, {"nom": "Jasney", "cp": "70800", "dept": "70", "lat": 47.872, "lon": 6.18}, {"nom": "Jonvelle", "cp": "70500", "dept": "70", "lat": 47.9289, "lon": 5.9158}, {"nom": "Jussey", "cp": "70500", "dept": "70", "lat": 47.822, "lon": 5.8921}, {"nom": "Lambrey", "cp": "70500", "dept": "70", "lat": 47.7654, "lon": 5.9293}, {"nom": "Lantenot", "cp": "70200", "dept": "70", "lat": 47.7546, "lon": 6.5021}, {"nom": "La Lanterne-et-les-Armonts", "cp": "70270", "dept": "70", "lat": 47.7871, "lon": 6.5284}, {"nom": "Larians-et-Munans", "cp": "70230", "dept": "70", "lat": 47.4227, "lon": 6.2279}, {"nom": "Larret", "cp": "70600", "dept": "70", "lat": 47.6256, "lon": 5.6342}, {"nom": "Lavigney", "cp": "70120", "dept": "70", "lat": 47.7139, "lon": 5.8043}, {"nom": "Lavoncourt", "cp": "70120", "dept": "70", "lat": 47.6232, "lon": 5.7779}, {"nom": "Lieffrans", "cp": "70190", "dept": "70", "lat": 47.5221, "lon": 5.9667}, {"nom": "Lieucourt", "cp": "70140", "dept": "70", "lat": 47.3593, "lon": 5.618}, {"nom": "Liévans", "cp": "70240", "dept": "70", "lat": 47.6364, "lon": 6.3492}, {"nom": "Linexert", "cp": "70200", "dept": "70", "lat": 47.7426, "lon": 6.4893}, {"nom": "Lœuilley", "cp": "70100", "dept": "70", "lat": 47.464, "lon": 5.3971}, {"nom": "Lomont", "cp": "70200", "dept": "70", "lat": 47.6228, "lon": 6.6009}, {"nom": "Longevelle", "cp": "70110", "dept": "70", "lat": 47.5926, "lon": 6.4491}, {"nom": "La Longine", "cp": "70310", "dept": "70", "lat": 47.8986, "lon": 6.5767}, {"nom": "Loulans-Verchamp", "cp": "70230", "dept": "70", "lat": 47.4445, "lon": 6.2052}, {"nom": "Lure", "cp": "70200", "dept": "70", "lat": 47.6817, "lon": 6.4933}, {"nom": "Luxeuil-les-Bains", "cp": "70300", "dept": "70", "lat": 47.8252, "lon": 6.3578}, {"nom": "Luze", "cp": "70400", "dept": "70", "lat": 47.6055, "lon": 6.7173}, {"nom": "Lyoffans", "cp": "70200", "dept": "70", "lat": 47.6454, "lon": 6.5922}, {"nom": "Magnivray", "cp": "70300", "dept": "70", "lat": 47.7825, "lon": 6.4635}, {"nom": "Magnoncourt", "cp": "70800", "dept": "70", "lat": 47.9064, "lon": 6.2917}, {"nom": "Le Magnoray", "cp": "70000", "dept": "70", "lat": 47.5238, "lon": 6.0929}, {"nom": "Les Magny", "cp": "70110", "dept": "70", "lat": 47.5263, "lon": 6.4395}, {"nom": "Magny-Danigon", "cp": "70200", "dept": "70", "lat": 47.6806, "lon": 6.6147}, {"nom": "Magny-Jobert", "cp": "70200", "dept": "70", "lat": 47.6463, "lon": 6.6113}, {"nom": "Magny-lès-Jussey", "cp": "70500", "dept": "70", "lat": 47.8562, "lon": 5.9772}, {"nom": "Magny-Vernois", "cp": "70200", "dept": "70", "lat": 47.668, "lon": 6.4695}, {"nom": "Mailleroncourt-Charette", "cp": "70240", "dept": "70", "lat": 47.7274, "lon": 6.2631}, {"nom": "Mailleroncourt-Saint-Pancras", "cp": "70210", "dept": "70", "lat": 47.9347, "lon": 6.1358}, {"nom": "Mailley-et-Chazelot", "cp": "70000", "dept": "70", "lat": 47.5326, "lon": 6.0402}, {"nom": "Maizières", "cp": "70190", "dept": "70", "lat": 47.4952, "lon": 6.012}, {"nom": "La Malachère", "cp": "70190", "dept": "70", "lat": 47.4546, "lon": 6.0705}, {"nom": "Malans", "cp": "70140", "dept": "70", "lat": 47.2686, "lon": 5.5957}, {"nom": "Malbouhans", "cp": "70200", "dept": "70", "lat": 47.7111, "lon": 6.5786}, {"nom": "Malvillers", "cp": "70120", "dept": "70", "lat": 47.7358, "lon": 5.7877}, {"nom": "Mandrevillars", "cp": "70400", "dept": "70", "lat": 47.6172, "lon": 6.7715}, {"nom": "Mantoche", "cp": "70100", "dept": "70", "lat": 47.4288, "lon": 5.5213}, {"nom": "Marast", "cp": "70110", "dept": "70", "lat": 47.5589, "lon": 6.382}, {"nom": "Marnay", "cp": "70150", "dept": "70", "lat": 47.2945, "lon": 5.7713}, {"nom": "Maussans", "cp": "70230", "dept": "70", "lat": 47.4374, "lon": 6.2464}, {"nom": "Mélecey", "cp": "70110", "dept": "70", "lat": 47.5241, "lon": 6.4897}, {"nom": "Melin", "cp": "70120", "dept": "70", "lat": 47.7431, "lon": 5.8238}, {"nom": "Melincourt", "cp": "70210", "dept": "70", "lat": 47.8766, "lon": 6.1244}, {"nom": "Mélisey", "cp": "70270", "dept": "70", "lat": 47.7597, "lon": 6.5607}, {"nom": "Membrey", "cp": "70180", "dept": "70", "lat": 47.5849, "lon": 5.7507}, {"nom": "Menoux", "cp": "70160", "dept": "70", "lat": 47.8126, "lon": 6.0978}, {"nom": "Mercey-sur-Saône", "cp": "70130", "dept": "70", "lat": 47.5213, "lon": 5.7308}, {"nom": "Mersuay", "cp": "70160", "dept": "70", "lat": 47.7866, "lon": 6.1436}, {"nom": "Meurcourt", "cp": "70300", "dept": "70", "lat": 47.7685, "lon": 6.2357}, {"nom": "Mignavillers", "cp": "70400", "dept": "70", "lat": 47.5861, "lon": 6.5533}, {"nom": "Moffans-et-Vacheresse", "cp": "70200", "dept": "70", "lat": 47.6262, "lon": 6.5476}, {"nom": "Moimay", "cp": "70110", "dept": "70", "lat": 47.5595, "lon": 6.3978}, {"nom": "Molay", "cp": "70120", "dept": "70", "lat": 47.7356, "lon": 5.742}, {"nom": "Mollans", "cp": "70240", "dept": "70", "lat": 47.651, "lon": 6.3859}, {"nom": "La Montagne", "cp": "70310", "dept": "70", "lat": 47.9244, "lon": 6.5881}, {"nom": "Montagney", "cp": "70140", "dept": "70", "lat": 47.2883, "lon": 5.6584}, {"nom": "Montarlot-lès-Rioz", "cp": "70190", "dept": "70", "lat": 47.417, "lon": 6.002}, {"nom": "Montboillon", "cp": "70700", "dept": "70", "lat": 47.3788, "lon": 5.9149}, {"nom": "Montbozon", "cp": "70230", "dept": "70", "lat": 47.4617, "lon": 6.2569}, {"nom": "Montcey", "cp": "70000", "dept": "70", "lat": 47.6517, "lon": 6.2381}, {"nom": "Montcourt", "cp": "70500", "dept": "70", "lat": 47.929, "lon": 5.961}, {"nom": "Montdoré", "cp": "70210", "dept": "70", "lat": 47.9277, "lon": 6.0763}, {"nom": "Montessaux", "cp": "70270", "dept": "70", "lat": 47.7378, "lon": 6.5642}, {"nom": "Montigny-lès-Cherlieu", "cp": "70500", "dept": "70", "lat": 47.7842, "lon": 5.8168}, {"nom": "Montigny-lès-Vesoul", "cp": "70000", "dept": "70", "lat": 47.6456, "lon": 6.0692}, {"nom": "Montjustin-et-Velotte", "cp": "70110", "dept": "70", "lat": 47.6197, "lon": 6.3742}, {"nom": "Villers-Chemin-et-Mont-lès-Étrelles", "cp": "70700", "dept": "70", "lat": 47.4397, "lon": 5.872}, {"nom": "Mont-le-Vernois", "cp": "70000", "dept": "70", "lat": 47.5986, "lon": 6.065}, {"nom": "Montot", "cp": "70180", "dept": "70", "lat": 47.5534, "lon": 5.6106}, {"nom": "Mont-Saint-Léger", "cp": "70120", "dept": "70", "lat": 47.6371, "lon": 5.802}, {"nom": "Montureux-et-Prantigny", "cp": "70100", "dept": "70", "lat": 47.5046, "lon": 5.6336}, {"nom": "Montureux-lès-Baulay", "cp": "70500", "dept": "70", "lat": 47.8204, "lon": 5.9796}, {"nom": "La Roche-Morey", "cp": "70120", "dept": "70", "lat": 47.6953, "lon": 5.7552}, {"nom": "Motey-Besuche", "cp": "70140", "dept": "70", "lat": 47.305, "lon": 5.6651}, {"nom": "Nantilly", "cp": "70100", "dept": "70", "lat": 47.4579, "lon": 5.5277}, {"nom": "Navenne", "cp": "70000", "dept": "70", "lat": 47.6036, "lon": 6.1638}, {"nom": "Neurey-en-Vaux", "cp": "70160", "dept": "70", "lat": 47.7376, "lon": 6.2067}, {"nom": "Neurey-lès-la-Demie", "cp": "70000", "dept": "70", "lat": 47.5668, "lon": 6.2046}, {"nom": "Neuvelle-lès-Cromary", "cp": "70190", "dept": "70", "lat": 47.4068, "lon": 6.0601}, {"nom": "Neuvelle-lès-la-Charité", "cp": "70130", "dept": "70", "lat": 47.5351, "lon": 5.9622}, {"nom": "La Neuvelle-lès-Lure", "cp": "70200", "dept": "70", "lat": 47.7108, "lon": 6.5528}, {"nom": "La Neuvelle-lès-Scey", "cp": "70360", "dept": "70", "lat": 47.698, "lon": 5.9405}, {"nom": "Noidans-le-Ferroux", "cp": "70130", "dept": "70", "lat": 47.5689, "lon": 5.9503}, {"nom": "Noidans-lès-Vesoul", "cp": "70000", "dept": "70", "lat": 47.6102, "lon": 6.119}, {"nom": "Noiron", "cp": "70100", "dept": "70", "lat": 47.3847, "lon": 5.6279}, {"nom": "Noroy-le-Bourg", "cp": "70000", "dept": "70", "lat": 47.5994, "lon": 6.2916}, {"nom": "Oigney", "cp": "70120", "dept": "70", "lat": 47.7557, "lon": 5.8494}, {"nom": "Oiselay-et-Grachaux", "cp": "70700", "dept": "70", "lat": 47.4293, "lon": 5.9256}, {"nom": "Onay", "cp": "70100", "dept": "70", "lat": 47.3915, "lon": 5.6877}, {"nom": "Oppenans", "cp": "70110", "dept": "70", "lat": 47.5868, "lon": 6.3852}, {"nom": "Oricourt", "cp": "70110", "dept": "70", "lat": 47.5971, "lon": 6.3951}, {"nom": "Ormenans", "cp": "70230", "dept": "70", "lat": 47.4583, "lon": 6.2121}, {"nom": "Ormoiche", "cp": "70300", "dept": "70", "lat": 47.8145, "lon": 6.3022}, {"nom": "Ormoy", "cp": "70500", "dept": "70", "lat": 47.8841, "lon": 5.9896}, {"nom": "Ouge", "cp": "70500", "dept": "70", "lat": 47.7991, "lon": 5.7022}, {"nom": "Ovanches", "cp": "70360", "dept": "70", "lat": 47.6307, "lon": 5.9556}, {"nom": "Oyrières", "cp": "70600", "dept": "70", "lat": 47.5285, "lon": 5.5736}, {"nom": "Palante", "cp": "70200", "dept": "70", "lat": 47.6644, "lon": 6.5818}, {"nom": "Passavant-la-Rochère", "cp": "70210", "dept": "70", "lat": 47.9833, "lon": 6.0583}, {"nom": "Pennesières", "cp": "70190", "dept": "70", "lat": 47.495, "lon": 6.095}, {"nom": "Percey-le-Grand", "cp": "70600", "dept": "70", "lat": 47.6213, "lon": 5.3985}, {"nom": "Perrouse", "cp": "70190", "dept": "70", "lat": 47.3669, "lon": 6.0452}, {"nom": "Pesmes", "cp": "70140", "dept": "70", "lat": 47.2911, "lon": 5.5714}, {"nom": "Pierrecourt", "cp": "70600", "dept": "70", "lat": 47.6408, "lon": 5.5836}, {"nom": "Pin", "cp": "70150", "dept": "70", "lat": 47.3393, "lon": 5.8598}, {"nom": "La Pisseure", "cp": "70800", "dept": "70", "lat": 47.8622, "lon": 6.2275}, {"nom": "Plainemont", "cp": "70800", "dept": "70", "lat": 47.8469, "lon": 6.2176}, {"nom": "Plancher-Bas", "cp": "70290", "dept": "70", "lat": 47.7226, "lon": 6.7297}, {"nom": "Plancher-les-Mines", "cp": "70290", "dept": "70", "lat": 47.7884, "lon": 6.7759}, {"nom": "Polaincourt-et-Clairefontaine", "cp": "70210", "dept": "70", "lat": 47.869, "lon": 6.0673}, {"nom": "Pomoy", "cp": "70240", "dept": "70", "lat": 47.6587, "lon": 6.349}, {"nom": "Pontcey", "cp": "70360", "dept": "70", "lat": 47.6279, "lon": 6.0315}, {"nom": "La Romaine", "cp": "70130", "dept": "70", "lat": 47.5381, "lon": 5.8911}, {"nom": "Pont-du-Bois", "cp": "70210", "dept": "70", "lat": 47.9828, "lon": 6.1305}, {"nom": "Pont-sur-l'Ognon", "cp": "70110", "dept": "70", "lat": 47.5174, "lon": 6.3925}, {"nom": "Port-sur-Saône", "cp": "70170", "dept": "70", "lat": 47.6893, "lon": 6.034}, {"nom": "Poyans", "cp": "70100", "dept": "70", "lat": 47.4431, "lon": 5.4714}, {"nom": "Preigney", "cp": "70120", "dept": "70", "lat": 47.7627, "lon": 5.7805}, {"nom": "La Proiselière-et-Langle", "cp": "70310", "dept": "70", "lat": 47.8117, "lon": 6.492}, {"nom": "Provenchère", "cp": "70170", "dept": "70", "lat": 47.7245, "lon": 6.1232}, {"nom": "Purgerot", "cp": "70160", "dept": "70", "lat": 47.7488, "lon": 5.9915}, {"nom": "Pusey", "cp": "70000", "dept": "70", "lat": 47.6517, "lon": 6.1197}, {"nom": "Pusy-et-Épenoux", "cp": "70000", "dept": "70", "lat": 47.6684, "lon": 6.1523}, {"nom": "La Quarte", "cp": "70120", "dept": "70", "lat": 47.7717, "lon": 5.6997}, {"nom": "Quenoche", "cp": "70190", "dept": "70", "lat": 47.4668, "lon": 6.1061}, {"nom": "Quers", "cp": "70200", "dept": "70", "lat": 47.7273, "lon": 6.4424}, {"nom": "Quincey", "cp": "70000", "dept": "70", "lat": 47.5904, "lon": 6.1996}, {"nom": "Raddon-et-Chapendu", "cp": "70280", "dept": "70", "lat": 47.856, "lon": 6.452}, {"nom": "Raincourt", "cp": "70500", "dept": "70", "lat": 47.8587, "lon": 5.8852}, {"nom": "Ranzevelle", "cp": "70500", "dept": "70", "lat": 47.9077, "lon": 5.9848}, {"nom": "Ray-sur-Saône", "cp": "70130", "dept": "70", "lat": 47.5935, "lon": 5.8117}, {"nom": "Raze", "cp": "70000", "dept": "70", "lat": 47.58, "lon": 6.0089}, {"nom": "Recologne", "cp": "70130", "dept": "70", "lat": 47.5831, "lon": 5.7771}, {"nom": "Recologne-lès-Rioz", "cp": "70190", "dept": "70", "lat": 47.4672, "lon": 5.9804}, {"nom": "Renaucourt", "cp": "70120", "dept": "70", "lat": 47.6412, "lon": 5.7648}, {"nom": "La Grande-Résie", "cp": "70140", "dept": "70", "lat": 47.3374, "lon": 5.5618}, {"nom": "La Résie-Saint-Martin", "cp": "70140", "dept": "70", "lat": 47.3095, "lon": 5.6106}, {"nom": "Rignovelle", "cp": "70200", "dept": "70", "lat": 47.7649, "lon": 6.478}, {"nom": "Rigny", "cp": "70100", "dept": "70", "lat": 47.4789, "lon": 5.6351}, {"nom": "Rioz", "cp": "70190", "dept": "70", "lat": 47.4436, "lon": 6.0828}, {"nom": "Roche-et-Raucourt", "cp": "70180", "dept": "70", "lat": 47.621, "lon": 5.7075}, {"nom": "Roche-sur-Linotte-et-Sorans-les-Cordiers", "cp": "70230", "dept": "70", "lat": 47.4754, "lon": 6.1987}, {"nom": "La Rochelle", "cp": "70120", "dept": "70", "lat": 47.7515, "lon": 5.7258}, {"nom": "Ronchamp", "cp": "70250", "dept": "70", "lat": 47.7161, "lon": 6.6375}, {"nom": "Rosey", "cp": "70000", "dept": "70", "lat": 47.5585, "lon": 6.0216}, {"nom": "La Rosière", "cp": "70310", "dept": "70", "lat": 47.9108, "lon": 6.6214}, {"nom": "Rosières-sur-Mance", "cp": "70500", "dept": "70", "lat": 47.8359, "lon": 5.8043}, {"nom": "Roye", "cp": "70200", "dept": "70", "lat": 47.6799, "lon": 6.5467}, {"nom": "Ruhans", "cp": "70190", "dept": "70", "lat": 47.4613, "lon": 6.1365}, {"nom": "Rupt-sur-Saône", "cp": "70360", "dept": "70", "lat": 47.6531, "lon": 5.9332}, {"nom": "Saint-Barthélemy", "cp": "70270", "dept": "70", "lat": 47.7404, "lon": 6.6052}, {"nom": "Saint-Bresson", "cp": "70280", "dept": "70", "lat": 47.8774, "lon": 6.4983}, {"nom": "Saint-Broing", "cp": "70100", "dept": "70", "lat": 47.4577, "lon": 5.6792}, {"nom": "Saint-Ferjeux", "cp": "70110", "dept": "70", "lat": 47.5462, "lon": 6.5059}, {"nom": "Saint-Gand", "cp": "70130", "dept": "70", "lat": 47.5042, "lon": 5.8315}, {"nom": "Saint-Germain", "cp": "70200", "dept": "70", "lat": 47.7213, "lon": 6.5164}, {"nom": "Saint-Loup-Nantouard", "cp": "70100", "dept": "70", "lat": 47.4284, "lon": 5.7292}, {"nom": "Saint-Loup-sur-Semouse", "cp": "70800", "dept": "70", "lat": 47.891, "lon": 6.2644}, {"nom": "Saint-Marcel", "cp": "70500", "dept": "70", "lat": 47.8262, "lon": 5.8195}, {"nom": "Sainte-Marie-en-Chanois", "cp": "70310", "dept": "70", "lat": 47.841, "lon": 6.5182}, {"nom": "Sainte-Marie-en-Chaux", "cp": "70300", "dept": "70", "lat": 47.798, "lon": 6.3005}, {"nom": "Sainte-Reine", "cp": "70700", "dept": "70", "lat": 47.4999, "lon": 5.7728}, {"nom": "Saint-Rémy-en-Comté", "cp": "70160", "dept": "70", "lat": 47.8373, "lon": 6.1095}, {"nom": "Saint-Sauveur", "cp": "70300", "dept": "70", "lat": 47.7955, "lon": 6.3955}, {"nom": "Saint-Sulpice", "cp": "70110", "dept": "70", "lat": 47.5697, "lon": 6.4511}, {"nom": "Saponcourt", "cp": "70210", "dept": "70", "lat": 47.8682, "lon": 6.0177}, {"nom": "Saulnot", "cp": "70400", "dept": "70", "lat": 47.5673, "lon": 6.6339}, {"nom": "Saulx", "cp": "70240", "dept": "70", "lat": 47.6945, "lon": 6.2785}, {"nom": "Sauvigney-lès-Gray", "cp": "70100", "dept": "70", "lat": 47.4572, "lon": 5.7307}, {"nom": "Sauvigney-lès-Pesmes", "cp": "70140", "dept": "70", "lat": 47.3078, "lon": 5.5693}, {"nom": "Savoyeux", "cp": "70130", "dept": "70", "lat": 47.5483, "lon": 5.7344}, {"nom": "Scey-sur-Saône-et-Saint-Albin", "cp": "70360", "dept": "70", "lat": 47.6773, "lon": 5.9606}, {"nom": "Scye", "cp": "70170", "dept": "70", "lat": 47.6593, "lon": 6.0588}, {"nom": "Secenans", "cp": "70400", "dept": "70", "lat": 47.5479, "lon": 6.5665}, {"nom": "Selles", "cp": "70210", "dept": "70", "lat": 47.9773, "lon": 6.0914}, {"nom": "Semmadon", "cp": "70120", "dept": "70", "lat": 47.7409, "lon": 5.8773}, {"nom": "Senargent-Mignafans", "cp": "70110", "dept": "70", "lat": 47.5654, "lon": 6.5297}, {"nom": "Senoncourt", "cp": "70160", "dept": "70", "lat": 47.8364, "lon": 6.0594}, {"nom": "Servance-Miellin", "cp": "70440", "dept": "70", "lat": 47.8226, "lon": 6.7107}, {"nom": "Servigney", "cp": "70240", "dept": "70", "lat": 47.7296, "lon": 6.2962}, {"nom": "Seveux-Motey", "cp": "70130", "dept": "70", "lat": 47.5339, "lon": 5.7668}, {"nom": "Soing-Cubry-Charentenay", "cp": "70130", "dept": "70", "lat": 47.5872, "lon": 5.8833}, {"nom": "Sorans-lès-Breurey", "cp": "70190", "dept": "70", "lat": 47.3995, "lon": 6.0482}, {"nom": "Sornay", "cp": "70150", "dept": "70", "lat": 47.2811, "lon": 5.6958}, {"nom": "Tartécourt", "cp": "70500", "dept": "70", "lat": 47.8409, "lon": 5.976}, {"nom": "Ternuay-Melay-et-Saint-Hilaire", "cp": "70270", "dept": "70", "lat": 47.7996, "lon": 6.6361}, {"nom": "Theuley", "cp": "70120", "dept": "70", "lat": 47.6201, "lon": 5.8233}, {"nom": "Thieffrans", "cp": "70230", "dept": "70", "lat": 47.5054, "lon": 6.3035}, {"nom": "Thiénans", "cp": "70230", "dept": "70", "lat": 47.4682, "lon": 6.2782}, {"nom": "Tincey-et-Pontrebeau", "cp": "70120", "dept": "70", "lat": 47.6016, "lon": 5.7893}, {"nom": "Traitiéfontaine", "cp": "70190", "dept": "70", "lat": 47.4216, "lon": 6.0966}, {"nom": "Traves", "cp": "70360", "dept": "70", "lat": 47.6093, "lon": 5.9614}, {"nom": "Le Tremblois", "cp": "70100", "dept": "70", "lat": 47.3784, "lon": 5.5871}, {"nom": "Trémoins", "cp": "70400", "dept": "70", "lat": 47.5645, "lon": 6.704}, {"nom": "Trésilley", "cp": "70190", "dept": "70", "lat": 47.4528, "lon": 6.0258}, {"nom": "Tromarey", "cp": "70150", "dept": "70", "lat": 47.3363, "lon": 5.724}, {"nom": "Vadans", "cp": "70140", "dept": "70", "lat": 47.3507, "lon": 5.5761}, {"nom": "Vaite", "cp": "70180", "dept": "70", "lat": 47.583, "lon": 5.7113}, {"nom": "La Vaivre", "cp": "70320", "dept": "70", "lat": 47.912, "lon": 6.3667}, {"nom": "Vaivre-et-Montoille", "cp": "70000", "dept": "70", "lat": 47.6375, "lon": 6.1091}, {"nom": "Valay", "cp": "70140", "dept": "70", "lat": 47.3385, "lon": 5.6296}, {"nom": "Le Val-de-Gouhenans", "cp": "70200", "dept": "70", "lat": 47.6217, "lon": 6.4862}, {"nom": "Vallerois-le-Bois", "cp": "70000", "dept": "70", "lat": 47.5523, "lon": 6.2968}, {"nom": "Vallerois-Lorioz", "cp": "70000", "dept": "70", "lat": 47.5606, "lon": 6.1475}, {"nom": "Le Val-Saint-Éloi", "cp": "70160", "dept": "70", "lat": 47.7433, "lon": 6.1772}, {"nom": "Vandelans", "cp": "70190", "dept": "70", "lat": 47.4005, "lon": 6.1608}, {"nom": "Vanne", "cp": "70130", "dept": "70", "lat": 47.6008, "lon": 5.8456}, {"nom": "Vantoux-et-Longevelle", "cp": "70700", "dept": "70", "lat": 47.4494, "lon": 5.8375}, {"nom": "Varogne", "cp": "70240", "dept": "70", "lat": 47.7206, "lon": 6.2131}, {"nom": "Vars", "cp": "70600", "dept": "70", "lat": 47.538, "lon": 5.5223}, {"nom": "Vauchoux", "cp": "70170", "dept": "70", "lat": 47.6553, "lon": 6.0314}, {"nom": "Vauconcourt-Nervezain", "cp": "70120", "dept": "70", "lat": 47.656, "lon": 5.8334}, {"nom": "Vauvillers", "cp": "70210", "dept": "70", "lat": 47.9293, "lon": 6.1094}, {"nom": "Vaux-le-Moncelot", "cp": "70700", "dept": "70", "lat": 47.4795, "lon": 5.904}, {"nom": "Velesmes-Échevanne", "cp": "70100", "dept": "70", "lat": 47.4182, "lon": 5.6882}, {"nom": "Velet", "cp": "70100", "dept": "70", "lat": 47.4281, "lon": 5.5657}, {"nom": "Velleclaire", "cp": "70700", "dept": "70", "lat": 47.4248, "lon": 5.8725}, {"nom": "Vellefaux", "cp": "70000", "dept": "70", "lat": 47.5522, "lon": 6.1406}, {"nom": "Vellefrey-et-Vellefrange", "cp": "70700", "dept": "70", "lat": 47.4426, "lon": 5.8156}, {"nom": "Vellefrie", "cp": "70240", "dept": "70", "lat": 47.7011, "lon": 6.2229}, {"nom": "Velleguindry-et-Levrecey", "cp": "70000", "dept": "70", "lat": 47.5531, "lon": 6.0895}, {"nom": "Velle-le-Châtel", "cp": "70000", "dept": "70", "lat": 47.5936, "lon": 6.0569}, {"nom": "Velleminfroy", "cp": "70240", "dept": "70", "lat": 47.6614, "lon": 6.3173}, {"nom": "Vellemoz", "cp": "70700", "dept": "70", "lat": 47.4781, "lon": 5.7927}, {"nom": "Vellexon-Queutrey-et-Vaudey", "cp": "70130", "dept": "70", "lat": 47.549, "lon": 5.8065}, {"nom": "Velloreille-lès-Choye", "cp": "70700", "dept": "70", "lat": 47.3908, "lon": 5.721}, {"nom": "Velorcey", "cp": "70300", "dept": "70", "lat": 47.7856, "lon": 6.252}, {"nom": "Venère", "cp": "70100", "dept": "70", "lat": 47.3589, "lon": 5.6759}, {"nom": "La Vergenne", "cp": "70200", "dept": "70", "lat": 47.6158, "lon": 6.5188}, {"nom": "Venisey", "cp": "70500", "dept": "70", "lat": 47.8366, "lon": 5.9989}, {"nom": "Vereux", "cp": "70180", "dept": "70", "lat": 47.5241, "lon": 5.6319}, {"nom": "Verlans", "cp": "70400", "dept": "70", "lat": 47.5703, "lon": 6.7183}, {"nom": "Vernois-sur-Mance", "cp": "70500", "dept": "70", "lat": 47.8381, "lon": 5.7795}, {"nom": "La Vernotte", "cp": "70130", "dept": "70", "lat": 47.5099, "lon": 5.8692}, {"nom": "Vesoul", "cp": "70000", "dept": "70", "lat": 47.6323, "lon": 6.1523}, {"nom": "Villafans", "cp": "70110", "dept": "70", "lat": 47.5831, "lon": 6.4764}, {"nom": "Villargent", "cp": "70110", "dept": "70", "lat": 47.5419, "lon": 6.4865}, {"nom": "Villars-le-Pautel", "cp": "70500", "dept": "70", "lat": 47.8965, "lon": 5.9171}, {"nom": "La Villedieu-en-Fontenette", "cp": "70160", "dept": "70", "lat": 47.7748, "lon": 6.2018}, {"nom": "La Villeneuve-Bellenoye-et-la-Maize", "cp": "70240", "dept": "70", "lat": 47.7143, "lon": 6.2412}, {"nom": "Villeparois", "cp": "70000", "dept": "70", "lat": 47.6657, "lon": 6.1806}, {"nom": "Villers-Bouton", "cp": "70190", "dept": "70", "lat": 47.4485, "lon": 5.9713}, {"nom": "Villersexel", "cp": "70110", "dept": "70", "lat": 47.5603, "lon": 6.4264}, {"nom": "Villers-la-Ville", "cp": "70110", "dept": "70", "lat": 47.5496, "lon": 6.4662}, {"nom": "Villers-le-Sec", "cp": "70000", "dept": "70", "lat": 47.5829, "lon": 6.2348}, {"nom": "Villers-lès-Luxeuil", "cp": "70300", "dept": "70", "lat": 47.767, "lon": 6.2843}, {"nom": "Villers-Pater", "cp": "70190", "dept": "70", "lat": 47.4777, "lon": 6.1724}, {"nom": "Villers-sur-Port", "cp": "70170", "dept": "70", "lat": 47.7118, "lon": 6.0829}, {"nom": "Villers-sur-Saulnot", "cp": "70400", "dept": "70", "lat": 47.5483, "lon": 6.6475}, {"nom": "Villers-Vaudey", "cp": "70120", "dept": "70", "lat": 47.6754, "lon": 5.7557}, {"nom": "Vilory", "cp": "70240", "dept": "70", "lat": 47.732, "lon": 6.2236}, {"nom": "Visoncourt", "cp": "70300", "dept": "70", "lat": 47.7543, "lon": 6.2979}, {"nom": "Vitrey-sur-Mance", "cp": "70500", "dept": "70", "lat": 47.8137, "lon": 5.7561}, {"nom": "La Voivre", "cp": "70310", "dept": "70", "lat": 47.8228, "lon": 6.5609}, {"nom": "Volon", "cp": "70180", "dept": "70", "lat": 47.6261, "lon": 5.7389}, {"nom": "Voray-sur-l'Ognon", "cp": "70190", "dept": "70", "lat": 47.3583, "lon": 6.0126}, {"nom": "Vougécourt", "cp": "70500", "dept": "70", "lat": 47.9405, "lon": 5.996}, {"nom": "Vouhenans", "cp": "70200", "dept": "70", "lat": 47.6419, "lon": 6.4982}, {"nom": "Vregille", "cp": "70150", "dept": "70", "lat": 47.3301, "lon": 5.8868}, {"nom": "Vyans-le-Val", "cp": "70400", "dept": "70", "lat": 47.5495, "lon": 6.761}, {"nom": "Vy-le-Ferroux", "cp": "70130", "dept": "70", "lat": 47.5868, "lon": 5.9634}, {"nom": "Vy-lès-Lure", "cp": "70200", "dept": "70", "lat": 47.6518, "lon": 6.4452}, {"nom": "Vy-lès-Rupt", "cp": "70120", "dept": "70", "lat": 47.64, "lon": 5.8911}, {"nom": "Vy-lès-Filain", "cp": "70230", "dept": "70", "lat": 47.5092, "lon": 6.1925}]