[{"nom": "Ailleville", "cp": "10200", "dept": "10", "lat": 48.2562, "lon": 4.6911}, {"nom": "Aix-Villemaur-Pâlis", "cp": "10160", "dept": "10", "lat": 48.2266, "lon": 3.7218}, {"nom": "Allibaudières", "cp": "10700", "dept": "10", "lat": 48.5849, "lon": 4.1246}, {"nom": "Amance", "cp": "10140", "dept": "10", "lat": 48.2939, "lon": 4.4822}, {"nom": "Arcis-sur-Aube", "cp": "10700", "dept": "10", "lat": 48.5275, "lon": 4.1403}, {"nom": "Arconville", "cp": "10200", "dept": "10", "lat": 48.1573, "lon": 4.7321}, {"nom": "Argançon", "cp": "10140", "dept": "10", "lat": 48.2508, "lon": 4.5972}, {"nom": "Arrelles", "cp": "10340", "dept": "10", "lat": 48.0458, "lon": 4.2835}, {"nom": "Arrembécourt", "cp": "10330", "dept": "10", "lat": 48.5411, "lon": 4.6117}, {"nom": "Arrentières", "cp": "10200", "dept": "10", "lat": 48.2684, "lon": 4.7396}, {"nom": "Arsonval", "cp": "10200", "dept": "10", "lat": 48.2774, "lon": 4.6453}, {"nom": "Assenay", "cp": "10320", "dept": "10", "lat": 48.1785, "lon": 4.0648}, {"nom": "Assencières", "cp": "10220", "dept": "10", "lat": 48.3566, "lon": 4.2014}, {"nom": "Aubeterre", "cp": "10150", "dept": "10", "lat": 48.4215, "lon": 4.1078}, {"nom": "Aulnay", "cp": "10240", "dept": "10", "lat": 48.4764, "lon": 4.4149}, {"nom": "Auxon", "cp": "10130", "dept": "10", "lat": 48.1031, "lon": 3.9262}, {"nom": "Val-d'Auzon", "cp": "10220", "dept": "10", "lat": 48.3973, "lon": 4.3604}, {"nom": "Avant-lès-Marcilly", "cp": "10400", "dept": "10", "lat": 48.4303, "lon": 3.558}, {"nom": "Avant-lès-Ramerupt", "cp": "10240", "dept": "10", "lat": 48.4501, "lon": 4.2612}, {"nom": "Avirey-Lingey", "cp": "10340", "dept": "10", "lat": 48.0341, "lon": 4.2912}, {"nom": "Avon-la-Pèze", "cp": "10290", "dept": "10", "lat": 48.3846, "lon": 3.6552}, {"nom": "Avreuil", "cp": "10130", "dept": "10", "lat": 48.054, "lon": 3.9986}, {"nom": "Bagneux-la-Fosse", "cp": "10340", "dept": "10", "lat": 47.9984, "lon": 4.2954}, {"nom": "Bailly-le-Franc", "cp": "10330", "dept": "10", "lat": 48.522, "lon": 4.6601}, {"nom": "Balignicourt", "cp": "10330", "dept": "10", "lat": 48.529, "lon": 4.456}, {"nom": "Balnot-la-Grange", "cp": "10210", "dept": "10", "lat": 47.9879, "lon": 4.1994}, {"nom": "Balnot-sur-Laignes", "cp": "10110", "dept": "10", "lat": 48.0367, "lon": 4.3487}, {"nom": "Barberey-Saint-Sulpice", "cp": "10600", "dept": "10", "lat": 48.3273, "lon": 4.0135}, {"nom": "Barbuise", "cp": "10400", "dept": "10", "lat": 48.5507, "lon": 3.5609}, {"nom": "Baroville", "cp": "10200", "dept": "10", "lat": 48.1821, "lon": 4.7455}, {"nom": "Bar-sur-Aube", "cp": "10200", "dept": "10", "lat": 48.233, "lon": 4.7166}, {"nom": "Bar-sur-Seine", "cp": "10110", "dept": "10", "lat": 48.1144, "lon": 4.3787}, {"nom": "Bayel", "cp": "10310", "dept": "10", "lat": 48.195, "lon": 4.7947}, {"nom": "Bercenay-en-Othe", "cp": "10190", "dept": "10", "lat": 48.1959, "lon": 3.8984}, {"nom": "Bercenay-le-Hayer", "cp": "10290", "dept": "10", "lat": 48.3308, "lon": 3.5876}, {"nom": "Bergères", "cp": "10200", "dept": "10", "lat": 48.1852, "lon": 4.6734}, {"nom": "Bernon", "cp": "10130", "dept": "10", "lat": 47.9862, "lon": 3.9902}, {"nom": "Bertignolles", "cp": "10110", "dept": "10", "lat": 48.1348, "lon": 4.512}, {"nom": "Bérulle", "cp": "10160", "dept": "10", "lat": 48.1681, "lon": 3.6698}, {"nom": "Bessy", "cp": "10170", "dept": "10", "lat": 48.5399, "lon": 4.0237}, {"nom": "Bétignicourt", "cp": "10500", "dept": "10", "lat": 48.4492, "lon": 4.4557}, {"nom": "Beurey", "cp": "10140", "dept": "10", "lat": 48.1751, "lon": 4.4734}, {"nom": "Blaincourt-sur-Aube", "cp": "10500", "dept": "10", "lat": 48.383, "lon": 4.4544}, {"nom": "Blignicourt", "cp": "10500", "dept": "10", "lat": 48.4542, "lon": 4.5408}, {"nom": "Bligny", "cp": "10200", "dept": "10", "lat": 48.1696, "lon": 4.5963}, {"nom": "Les Bordes-Aumont", "cp": "10800", "dept": "10", "lat": 48.1909, "lon": 4.1172}, {"nom": "Bossancourt", "cp": "10140", "dept": "10", "lat": 48.2827, "lon": 4.609}, {"nom": "Bouilly", "cp": "10320", "dept": "10", "lat": 48.1875, "lon": 3.99}, {"nom": "Boulages", "cp": "10380", "dept": "10", "lat": 48.5871, "lon": 3.916}, {"nom": "Bouranton", "cp": "10270", "dept": "10", "lat": 48.3157, "lon": 4.1808}, {"nom": "Bourdenay", "cp": "10290", "dept": "10", "lat": 48.3544, "lon": 3.5904}, {"nom": "Bourguignons", "cp": "10110", "dept": "10", "lat": 48.1405, "lon": 4.3691}, {"nom": "Bouy-Luxembourg", "cp": "10220", "dept": "10", "lat": 48.3775, "lon": 4.2432}, {"nom": "Bouy-sur-Orvin", "cp": "10400", "dept": "10", "lat": 48.4241, "lon": 3.4956}, {"nom": "Bragelogne-Beauvoir", "cp": "10340", "dept": "10", "lat": 47.9703, "lon": 4.2673}, {"nom": "Braux", "cp": "10500", "dept": "10", "lat": 48.4814, "lon": 4.4595}, {"nom": "Bréviandes", "cp": "10450", "dept": "10", "lat": 48.2568, "lon": 4.1049}, {"nom": "Brévonnes", "cp": "10220", "dept": "10", "lat": 48.3478, "lon": 4.4067}, {"nom": "Briel-sur-Barse", "cp": "10140", "dept": "10", "lat": 48.2113, "lon": 4.3524}, {"nom": "Brienne-la-Vieille", "cp": "10500", "dept": "10", "lat": 48.372, "lon": 4.5402}, {"nom": "Brienne-le-Château", "cp": "10500", "dept": "10", "lat": 48.3988, "lon": 4.5278}, {"nom": "Brillecourt", "cp": "10240", "dept": "10", "lat": 48.4778, "lon": 4.3706}, {"nom": "Bucey-en-Othe", "cp": "10190", "dept": "10", "lat": 48.2592, "lon": 3.8721}, {"nom": "Buchères", "cp": "10800", "dept": "10", "lat": 48.2366, "lon": 4.1137}, {"nom": "Buxeuil", "cp": "10110", "dept": "10", "lat": 48.0521, "lon": 4.4092}, {"nom": "Buxières-sur-Arce", "cp": "10110", "dept": "10", "lat": 48.1359, "lon": 4.4521}, {"nom": "Celles-sur-Ource", "cp": "10110", "dept": "10", "lat": 48.0703, "lon": 4.4207}, {"nom": "Chacenay", "cp": "10110", "dept": "10", "lat": 48.1055, "lon": 4.5323}, {"nom": "La Chaise", "cp": "10500", "dept": "10", "lat": 48.354, "lon": 4.6655}, {"nom": "Chalette-sur-Voire", "cp": "10500", "dept": "10", "lat": 48.4521, "lon": 4.4226}, {"nom": "Chamoy", "cp": "10130", "dept": "10", "lat": 48.1123, "lon": 3.9645}, {"nom": "Champfleury", "cp": "10700", "dept": "10", "lat": 48.61, "lon": 4.0321}, {"nom": "Champignol-lez-Mondeville", "cp": "10200", "dept": "10", "lat": 48.1224, "lon": 4.679}, {"nom": "Champigny-sur-Aube", "cp": "10700", "dept": "10", "lat": 48.57, "lon": 4.0708}, {"nom": "Champ-sur-Barse", "cp": "10140", "dept": "10", "lat": 48.2428, "lon": 4.4097}, {"nom": "Channes", "cp": "10340", "dept": "10", "lat": 47.94, "lon": 4.2634}, {"nom": "Chaource", "cp": "10210", "dept": "10", "lat": 48.0587, "lon": 4.1356}, {"nom": "La Chapelle-Saint-Luc", "cp": "10600", "dept": "10", "lat": 48.3165, "lon": 4.0303}, {"nom": "Chapelle-Vallon", "cp": "10700", "dept": "10", "lat": 48.4328, "lon": 4.0411}, {"nom": "Chappes", "cp": "10260", "dept": "10", "lat": 48.1651, "lon": 4.2544}, {"nom": "Charmont-sous-Barbuise", "cp": "10150", "dept": "10", "lat": 48.4124, "lon": 4.1793}, {"nom": "Charmoy", "cp": "10290", "dept": "10", "lat": 48.3924, "lon": 3.582}, {"nom": "Charny-le-Bachot", "cp": "10380", "dept": "10", "lat": 48.5408, "lon": 3.9529}, {"nom": "Chaserey", "cp": "10210", "dept": "10", "lat": 47.9534, "lon": 4.0743}, {"nom": "Châtres", "cp": "10510", "dept": "10", "lat": 48.4924, "lon": 3.8391}, {"nom": "Chauchigny", "cp": "10170", "dept": "10", "lat": 48.4271, "lon": 3.977}, {"nom": "Chaudrey", "cp": "10240", "dept": "10", "lat": 48.4828, "lon": 4.2439}, {"nom": "Chauffour-lès-Bailly", "cp": "10110", "dept": "10", "lat": 48.1858, "lon": 4.3156}, {"nom": "Chaumesnil", "cp": "10500", "dept": "10", "lat": 48.3594, "lon": 4.6162}, {"nom": "Chavanges", "cp": "10330", "dept": "10", "lat": 48.5205, "lon": 4.5742}, {"nom": "Le Chêne", "cp": "10700", "dept": "10", "lat": 48.5657, "lon": 4.1752}, {"nom": "Chennegy", "cp": "10190", "dept": "10", "lat": 48.2166, "lon": 3.8474}, {"nom": "Chervey", "cp": "10110", "dept": "10", "lat": 48.1339, "lon": 4.4905}, {"nom": "Chesley", "cp": "10210", "dept": "10", "lat": 47.9756, "lon": 4.1129}, {"nom": "Chessy-les-Prés", "cp": "10130", "dept": "10", "lat": 48.013, "lon": 3.9345}, {"nom": "Clérey", "cp": "10390", "dept": "10", "lat": 48.2094, "lon": 4.1993}, {"nom": "Coclois", "cp": "10240", "dept": "10", "lat": 48.4729, "lon": 4.3285}, {"nom": "Colombé-la-Fosse", "cp": "10200", "dept": "10", "lat": 48.2701, "lon": 4.7901}, {"nom": "Colombé-le-Sec", "cp": "10200", "dept": "10", "lat": 48.2599, "lon": 4.8022}, {"nom": "Cormost", "cp": "10800", "dept": "10", "lat": 48.1545, "lon": 4.1357}, {"nom": "Courcelles-sur-Voire", "cp": "10500", "dept": "10", "lat": 48.483, "lon": 4.5297}, {"nom": "Courceroy", "cp": "10400", "dept": "10", "lat": 48.4702, "lon": 3.4073}, {"nom": "Coursan-en-Othe", "cp": "10130", "dept": "10", "lat": 48.0794, "lon": 3.8289}, {"nom": "Courtaoult", "cp": "10130", "dept": "10", "lat": 48.024, "lon": 3.8691}, {"nom": "Courtenot", "cp": "10260", "dept": "10", "lat": 48.156, "lon": 4.3131}, {"nom": "Courteranges", "cp": "10270", "dept": "10", "lat": 48.267, "lon": 4.2261}, {"nom": "Courteron", "cp": "10250", "dept": "10", "lat": 48.016, "lon": 4.4652}, {"nom": "Coussegrey", "cp": "10210", "dept": "10", "lat": 47.9511, "lon": 4.0326}, {"nom": "Couvignon", "cp": "10200", "dept": "10", "lat": 48.2022, "lon": 4.6659}, {"nom": "Crancey", "cp": "10100", "dept": "10", "lat": 48.5191, "lon": 3.6387}, {"nom": "Creney-près-Troyes", "cp": "10150", "dept": "10", "lat": 48.3379, "lon": 4.1439}, {"nom": "Crésantignes", "cp": "10320", "dept": "10", "lat": 48.1433, "lon": 4.0195}, {"nom": "Crespy-le-Neuf", "cp": "10500", "dept": "10", "lat": 48.3976, "lon": 4.6105}, {"nom": "Les Croûtes", "cp": "10130", "dept": "10", "lat": 47.9917, "lon": 3.8624}, {"nom": "Cunfin", "cp": "10360", "dept": "10", "lat": 48.0458, "lon": 4.6698}, {"nom": "Cussangy", "cp": "10210", "dept": "10", "lat": 48.0276, "lon": 4.0868}, {"nom": "Dampierre", "cp": "10240", "dept": "10", "lat": 48.5677, "lon": 4.3653}, {"nom": "Davrey", "cp": "10130", "dept": "10", "lat": 48.0455, "lon": 3.9555}, {"nom": "Dienville", "cp": "10500", "dept": "10", "lat": 48.3268, "lon": 4.5102}, {"nom": "Dierrey-Saint-Julien", "cp": "10190", "dept": "10", "lat": 48.3022, "lon": 3.8379}, {"nom": "Dierrey-Saint-Pierre", "cp": "10190", "dept": "10", "lat": 48.3315, "lon": 3.8398}, {"nom": "Dolancourt", "cp": "10200", "dept": "10", "lat": 48.2677, "lon": 4.6078}, {"nom": "Dommartin-le-Coq", "cp": "10240", "dept": "10", "lat": 48.4978, "lon": 4.3541}, {"nom": "Donnement", "cp": "10330", "dept": "10", "lat": 48.5218, "lon": 4.4268}, {"nom": "Dosches", "cp": "10220", "dept": "10", "lat": 48.3104, "lon": 4.2773}, {"nom": "Dosnon", "cp": "10700", "dept": "10", "lat": 48.6132, "lon": 4.2507}, {"nom": "Droupt-Saint-Basle", "cp": "10170", "dept": "10", "lat": 48.4804, "lon": 3.957}, {"nom": "Droupt-Sainte-Marie", "cp": "10170", "dept": "10", "lat": 48.4995, "lon": 3.9404}, {"nom": "Eaux-Puiseaux", "cp": "10130", "dept": "10", "lat": 48.1189, "lon": 3.8819}, {"nom": "Échemines", "cp": "10350", "dept": "10", "lat": 48.3883, "lon": 3.835}, {"nom": "Éclance", "cp": "10200", "dept": "10", "lat": 48.3045, "lon": 4.6414}, {"nom": "Éguilly-sous-Bois", "cp": "10110", "dept": "10", "lat": 48.1367, "lon": 4.5396}, {"nom": "Engente", "cp": "10200", "dept": "10", "lat": 48.2789, "lon": 4.767}, {"nom": "Épagne", "cp": "10500", "dept": "10", "lat": 48.3977, "lon": 4.4701}, {"nom": "Épothémont", "cp": "10500", "dept": "10", "lat": 48.4141, "lon": 4.6629}, {"nom": "Ervy-le-Châtel", "cp": "10130", "dept": "10", "lat": 48.0587, "lon": 3.9093}, {"nom": "Essoyes", "cp": "10360", "dept": "10", "lat": 48.0473, "lon": 4.5426}, {"nom": "Estissac", "cp": "10190", "dept": "10", "lat": 48.2507, "lon": 3.8117}, {"nom": "Étourvy", "cp": "10210", "dept": "10", "lat": 47.9494, "lon": 4.1302}, {"nom": "Étrelles-sur-Aube", "cp": "10170", "dept": "10", "lat": 48.5602, "lon": 3.876}, {"nom": "Faux-Villecerf", "cp": "10290", "dept": "10", "lat": 48.3278, "lon": 3.7413}, {"nom": "Fay-lès-Marcilly", "cp": "10290", "dept": "10", "lat": 48.4038, "lon": 3.6071}, {"nom": "Fays-la-Chapelle", "cp": "10320", "dept": "10", "lat": 48.1306, "lon": 4.0177}, {"nom": "Ferreux-Quincey", "cp": "10400", "dept": "10", "lat": 48.4611, "lon": 3.6003}, {"nom": "Feuges", "cp": "10150", "dept": "10", "lat": 48.3964, "lon": 4.1118}, {"nom": "Fontaine", "cp": "10200", "dept": "10", "lat": 48.2085, "lon": 4.7194}, {"nom": "Fontaine-les-Grès", "cp": "10280", "dept": "10", "lat": 48.4108, "lon": 3.8876}, {"nom": "Fontaine-Mâcon", "cp": "10400", "dept": "10", "lat": 48.4564, "lon": 3.509}, {"nom": "Fontenay-de-Bossery", "cp": "10400", "dept": "10", "lat": 48.4519, "lon": 3.467}, {"nom": "Fontette", "cp": "10360", "dept": "10", "lat": 48.0751, "lon": 4.6133}, {"nom": "Fontvannes", "cp": "10190", "dept": "10", "lat": 48.2822, "lon": 3.8699}, {"nom": "La Fosse-Corduan", "cp": "10100", "dept": "10", "lat": 48.4423, "lon": 3.6542}, {"nom": "Fouchères", "cp": "10260", "dept": "10", "lat": 48.1447, "lon": 4.2755}, {"nom": "Fralignes", "cp": "10110", "dept": "10", "lat": 48.1639, "lon": 4.3807}, {"nom": "Fravaux", "cp": "10200", "dept": "10", "lat": 48.2356, "lon": 4.6417}, {"nom": "Fresnay", "cp": "10200", "dept": "10", "lat": 48.3085, "lon": 4.7595}, {"nom": "Fresnoy-le-Château", "cp": "10270", "dept": "10", "lat": 48.2212, "lon": 4.2317}, {"nom": "Fuligny", "cp": "10200", "dept": "10", "lat": 48.3429, "lon": 4.699}, {"nom": "Gélannes", "cp": "10100", "dept": "10", "lat": 48.4751, "lon": 3.6716}, {"nom": "Géraudot", "cp": "10220", "dept": "10", "lat": 48.3017, "lon": 4.3202}, {"nom": "Les Grandes-Chapelles", "cp": "10170", "dept": "10", "lat": 48.4685, "lon": 4.0317}, {"nom": "Grandville", "cp": "10700", "dept": "10", "lat": 48.5934, "lon": 4.2408}, {"nom": "Les Granges", "cp": "10210", "dept": "10", "lat": 48.0562, "lon": 4.0612}, {"nom": "Gumery", "cp": "10400", "dept": "10", "lat": 48.4395, "lon": 3.4196}, {"nom": "Gyé-sur-Seine", "cp": "10250", "dept": "10", "lat": 48.0038, "lon": 4.4401}, {"nom": "Hampigny", "cp": "10500", "dept": "10", "lat": 48.4611, "lon": 4.6031}, {"nom": "Herbisse", "cp": "10700", "dept": "10", "lat": 48.6154, "lon": 4.1228}, {"nom": "Isle-Aumont", "cp": "10800", "dept": "10", "lat": 48.2042, "lon": 4.1217}, {"nom": "Isle-Aubigny", "cp": "10240", "dept": "10", "lat": 48.5414, "lon": 4.284}, {"nom": "Jasseines", "cp": "10330", "dept": "10", "lat": 48.511, "lon": 4.3956}, {"nom": "Jaucourt", "cp": "10200", "dept": "10", "lat": 48.2545, "lon": 4.6416}, {"nom": "Javernant", "cp": "10320", "dept": "10", "lat": 48.1589, "lon": 3.9973}, {"nom": "Jessains", "cp": "10140", "dept": "10", "lat": 48.2854, "lon": 4.5705}, {"nom": "Jeugny", "cp": "10320", "dept": "10", "lat": 48.1139, "lon": 4.06}, {"nom": "Joncreuil", "cp": "10330", "dept": "10", "lat": 48.5282, "lon": 4.6196}, {"nom": "Jully-sur-Sarce", "cp": "10260", "dept": "10", "lat": 48.1113, "lon": 4.28}, {"nom": "Juvancourt", "cp": "10310", "dept": "10", "lat": 48.119, "lon": 4.8113}, {"nom": "Juvanzé", "cp": "10140", "dept": "10", "lat": 48.3237, "lon": 4.5865}, {"nom": "Juzanvigny", "cp": "10500", "dept": "10", "lat": 48.4169, "lon": 4.6097}, {"nom": "Lagesse", "cp": "10210", "dept": "10", "lat": 48.0169, "lon": 4.129}, {"nom": "Laines-aux-Bois", "cp": "10120", "dept": "10", "lat": 48.2254, "lon": 3.9817}, {"nom": "Landreville", "cp": "10110", "dept": "10", "lat": 48.0755, "lon": 4.4659}, {"nom": "Lantages", "cp": "10210", "dept": "10", "lat": 48.0812, "lon": 4.2014}, {"nom": "Lassicourt", "cp": "10500", "dept": "10", "lat": 48.4347, "lon": 4.4998}, {"nom": "Laubressel", "cp": "10270", "dept": "10", "lat": 48.3019, "lon": 4.231}, {"nom": "Lavau", "cp": "10150", "dept": "10", "lat": 48.3343, "lon": 4.0921}, {"nom": "Lentilles", "cp": "10330", "dept": "10", "lat": 48.4899, "lon": 4.6282}, {"nom": "Lesmont", "cp": "10500", "dept": "10", "lat": 48.4287, "lon": 4.4296}, {"nom": "Lévigny", "cp": "10200", "dept": "10", "lat": 48.2989, "lon": 4.7053}, {"nom": "Lhuître", "cp": "10700", "dept": "10", "lat": 48.5799, "lon": 4.2721}, {"nom": "Lignières", "cp": "10130", "dept": "10", "lat": 47.9635, "lon": 3.967}, {"nom": "Lignol-le-Château", "cp": "10200", "dept": "10", "lat": 48.2132, "lon": 4.8081}, {"nom": "Lirey", "cp": "10320", "dept": "10", "lat": 48.1635, "lon": 4.0425}, {"nom": "Loches-sur-Ource", "cp": "10110", "dept": "10", "lat": 48.0705, "lon": 4.5025}, {"nom": "La Loge-aux-Chèvres", "cp": "10140", "dept": "10", "lat": 48.2686, "lon": 4.4078}, {"nom": "La Loge-Pomblin", "cp": "10210", "dept": "10", "lat": 48.0703, "lon": 4.0444}, {"nom": "Les Loges-Margueron", "cp": "10210", "dept": "10", "lat": 48.0996, "lon": 4.1113}, {"nom": "Longchamp-sur-Aujon", "cp": "10310", "dept": "10", "lat": 48.1544, "lon": 4.8148}, {"nom": "Longeville-sur-Mogne", "cp": "10320", "dept": "10", "lat": 48.1469, "lon": 4.0652}, {"nom": "Longpré-le-Sec", "cp": "10140", "dept": "10", "lat": 48.1846, "lon": 4.5317}, {"nom": "Longsols", "cp": "10240", "dept": "10", "lat": 48.425, "lon": 4.2791}, {"nom": "Longueville-sur-Aube", "cp": "10170", "dept": "10", "lat": 48.5484, "lon": 3.9116}, {"nom": "La Louptière-Thénard", "cp": "10400", "dept": "10", "lat": 48.3836, "lon": 3.4417}, {"nom": "Lusigny-sur-Barse", "cp": "10270", "dept": "10", "lat": 48.2598, "lon": 4.2808}, {"nom": "Luyères", "cp": "10150", "dept": "10", "lat": 48.3808, "lon": 4.1933}, {"nom": "Macey", "cp": "10300", "dept": "10", "lat": 48.3043, "lon": 3.9109}, {"nom": "Machy", "cp": "10320", "dept": "10", "lat": 48.1469, "lon": 4.0353}, {"nom": "Magnant", "cp": "10110", "dept": "10", "lat": 48.1712, "lon": 4.4217}, {"nom": "Magnicourt", "cp": "10240", "dept": "10", "lat": 48.4576, "lon": 4.3821}, {"nom": "Magny-Fouchard", "cp": "10140", "dept": "10", "lat": 48.2327, "lon": 4.5416}, {"nom": "Mailly-le-Camp", "cp": "10230", "dept": "10", "lat": 48.6683, "lon": 4.1828}, {"nom": "Maison-des-Champs", "cp": "10140", "dept": "10", "lat": 48.2449, "lon": 4.5716}, {"nom": "Maisons-lès-Chaource", "cp": "10210", "dept": "10", "lat": 48.006, "lon": 4.1646}, {"nom": "Maisons-lès-Soulaines", "cp": "10200", "dept": "10", "lat": 48.2962, "lon": 4.7836}, {"nom": "Maizières-la-Grande-Paroisse", "cp": "10510", "dept": "10", "lat": 48.5041, "lon": 3.7911}, {"nom": "Maizières-lès-Brienne", "cp": "10500", "dept": "10", "lat": 48.4305, "lon": 4.6055}, {"nom": "Maraye-en-Othe", "cp": "10160", "dept": "10", "lat": 48.1575, "lon": 3.8698}, {"nom": "Marcilly-le-Hayer", "cp": "10290", "dept": "10", "lat": 48.329, "lon": 3.6417}, {"nom": "Marigny-le-Châtel", "cp": "10350", "dept": "10", "lat": 48.3991, "lon": 3.7196}, {"nom": "Marnay-sur-Seine", "cp": "10400", "dept": "10", "lat": 48.5143, "lon": 3.5528}, {"nom": "Marolles-lès-Bailly", "cp": "10110", "dept": "10", "lat": 48.1877, "lon": 4.3432}, {"nom": "Marolles-sous-Lignières", "cp": "10130", "dept": "10", "lat": 47.9602, "lon": 3.9186}, {"nom": "Mathaux", "cp": "10500", "dept": "10", "lat": 48.3556, "lon": 4.4629}, {"nom": "Maupas", "cp": "10320", "dept": "10", "lat": 48.1373, "lon": 4.076}, {"nom": "Mergey", "cp": "10600", "dept": "10", "lat": 48.3941, "lon": 4.0353}, {"nom": "Le Mériot", "cp": "10400", "dept": "10", "lat": 48.5073, "lon": 3.4407}, {"nom": "Merrey-sur-Arce", "cp": "10110", "dept": "10", "lat": 48.0964, "lon": 4.4059}, {"nom": "Méry-sur-Seine", "cp": "10170", "dept": "10", "lat": 48.5052, "lon": 3.8993}, {"nom": "Mesgrigny", "cp": "10170", "dept": "10", "lat": 48.4804, "lon": 3.864}, {"nom": "Mesnil-la-Comtesse", "cp": "10700", "dept": "10", "lat": 48.5003, "lon": 4.1975}, {"nom": "Mesnil-Lettre", "cp": "10240", "dept": "10", "lat": 48.4628, "lon": 4.2598}, {"nom": "Mesnil-Saint-Loup", "cp": "10190", "dept": "10", "lat": 48.3093, "lon": 3.7685}, {"nom": "Mesnil-Saint-Père", "cp": "10140", "dept": "10", "lat": 48.2529, "lon": 4.3447}, {"nom": "Mesnil-Sellières", "cp": "10220", "dept": "10", "lat": 48.3341, "lon": 4.2057}, {"nom": "Messon", "cp": "10190", "dept": "10", "lat": 48.2616, "lon": 3.9166}, {"nom": "Metz-Robert", "cp": "10210", "dept": "10", "lat": 48.0696, "lon": 4.0969}, {"nom": "Meurville", "cp": "10200", "dept": "10", "lat": 48.2066, "lon": 4.61}, {"nom": "Molins-sur-Aube", "cp": "10500", "dept": "10", "lat": 48.4319, "lon": 4.3872}, {"nom": "Montaulin", "cp": "10270", "dept": "10", "lat": 48.2487, "lon": 4.1958}, {"nom": "Montceaux-lès-Vaudes", "cp": "10260", "dept": "10", "lat": 48.1511, "lon": 4.158}, {"nom": "Montfey", "cp": "10130", "dept": "10", "lat": 48.0679, "lon": 3.8722}, {"nom": "Montgueux", "cp": "10300", "dept": "10", "lat": 48.2967, "lon": 3.9551}, {"nom": "Montiéramey", "cp": "10270", "dept": "10", "lat": 48.2344, "lon": 4.3161}, {"nom": "Montier-en-l'Isle", "cp": "10200", "dept": "10", "lat": 48.2678, "lon": 4.6849}, {"nom": "Montigny-les-Monts", "cp": "10130", "dept": "10", "lat": 48.096, "lon": 3.9614}, {"nom": "Montmartin-le-Haut", "cp": "10140", "dept": "10", "lat": 48.2105, "lon": 4.5503}, {"nom": "Montmorency-Beaufort", "cp": "10330", "dept": "10", "lat": 48.4867, "lon": 4.5547}, {"nom": "Montpothier", "cp": "10400", "dept": "10", "lat": 48.5732, "lon": 3.5151}, {"nom": "Montreuil-sur-Barse", "cp": "10270", "dept": "10", "lat": 48.217, "lon": 4.2901}, {"nom": "Montsuzain", "cp": "10150", "dept": "10", "lat": 48.4472, "lon": 4.1294}, {"nom": "Morembert", "cp": "10240", "dept": "10", "lat": 48.5039, "lon": 4.3317}, {"nom": "Morvilliers", "cp": "10500", "dept": "10", "lat": 48.3792, "lon": 4.6337}, {"nom": "La Motte-Tilly", "cp": "10400", "dept": "10", "lat": 48.4758, "lon": 3.4392}, {"nom": "Moussey", "cp": "10800", "dept": "10", "lat": 48.2182, "lon": 4.0925}, {"nom": "Mussy-sur-Seine", "cp": "10250", "dept": "10", "lat": 47.9883, "lon": 4.499}, {"nom": "Neuville-sur-Seine", "cp": "10250", "dept": "10", "lat": 48.0313, "lon": 4.4146}, {"nom": "Neuville-sur-Vanne", "cp": "10190", "dept": "10", "lat": 48.255, "lon": 3.7732}, {"nom": "Noé-les-Mallets", "cp": "10360", "dept": "10", "lat": 48.0974, "lon": 4.5592}, {"nom": "Les Noës-près-Troyes", "cp": "10420", "dept": "10", "lat": 48.3033, "lon": 4.0407}, {"nom": "Nogent-en-Othe", "cp": "10160", "dept": "10", "lat": 48.1289, "lon": 3.7922}, {"nom": "Nogent-sur-Aube", "cp": "10240", "dept": "10", "lat": 48.4866, "lon": 4.3004}, {"nom": "Nogent-sur-Seine", "cp": "10400", "dept": "10", "lat": 48.4978, "lon": 3.4943}, {"nom": "Nozay", "cp": "10700", "dept": "10", "lat": 48.496, "lon": 4.0869}, {"nom": "Onjon", "cp": "10220", "dept": "10", "lat": 48.3951, "lon": 4.2721}, {"nom": "Origny-le-Sec", "cp": "10510", "dept": "10", "lat": 48.4624, "lon": 3.7688}, {"nom": "Ormes", "cp": "10700", "dept": "10", "lat": 48.555, "lon": 4.1123}, {"nom": "Ortillon", "cp": "10700", "dept": "10", "lat": 48.4938, "lon": 4.2237}, {"nom": "Orvilliers-Saint-Julien", "cp": "10170", "dept": "10", "lat": 48.4387, "lon": 3.8186}, {"nom": "Ossey-les-Trois-Maisons", "cp": "10100", "dept": "10", "lat": 48.4386, "lon": 3.7471}, {"nom": "Paisy-Cosdon", "cp": "10160", "dept": "10", "lat": 48.2166, "lon": 3.7005}, {"nom": "Pargues", "cp": "10210", "dept": "10", "lat": 48.0158, "lon": 4.209}, {"nom": "Pars-lès-Chavanges", "cp": "10330", "dept": "10", "lat": 48.5177, "lon": 4.5005}, {"nom": "Pars-lès-Romilly", "cp": "10100", "dept": "10", "lat": 48.482, "lon": 3.7289}, {"nom": "Le Pavillon-Sainte-Julie", "cp": "10350", "dept": "10", "lat": 48.3635, "lon": 3.8974}, {"nom": "Payns", "cp": "10600", "dept": "10", "lat": 48.373, "lon": 3.9602}, {"nom": "Pel-et-Der", "cp": "10500", "dept": "10", "lat": 48.3937, "lon": 4.4097}, {"nom": "Périgny-la-Rose", "cp": "10400", "dept": "10", "lat": 48.5537, "lon": 3.6259}, {"nom": "Perthes-lès-Brienne", "cp": "10500", "dept": "10", "lat": 48.4321, "lon": 4.5398}, {"nom": "Petit-Mesnil", "cp": "10500", "dept": "10", "lat": 48.3416, "lon": 4.6152}, {"nom": "Piney", "cp": "10220", "dept": "10", "lat": 48.3285, "lon": 4.3585}, {"nom": "Plaines-Saint-Lange", "cp": "10250", "dept": "10", "lat": 47.9981, "lon": 4.4766}, {"nom": "Plancy-l'Abbaye", "cp": "10380", "dept": "10", "lat": 48.592, "lon": 3.9882}, {"nom": "Planty", "cp": "10160", "dept": "10", "lat": 48.2723, "lon": 3.6509}, {"nom": "Plessis-Barbuise", "cp": "10400", "dept": "10", "lat": 48.5726, "lon": 3.583}, {"nom": "Poivres", "cp": "10700", "dept": "10", "lat": 48.684, "lon": 4.2783}, {"nom": "Poligny", "cp": "10110", "dept": "10", "lat": 48.1756, "lon": 4.3464}, {"nom": "Polisot", "cp": "10110", "dept": "10", "lat": 48.0733, "lon": 4.3553}, {"nom": "Polisy", "cp": "10110", "dept": "10", "lat": 48.0594, "lon": 4.3626}, {"nom": "Pont-Sainte-Marie", "cp": "10150", "dept": "10", "lat": 48.3197, "lon": 4.0966}, {"nom": "Pont-sur-Seine", "cp": "10400", "dept": "10", "lat": 48.5056, "lon": 3.5965}, {"nom": "Pouan-les-Vallées", "cp": "10700", "dept": "10", "lat": 48.5322, "lon": 4.064}, {"nom": "Pougy", "cp": "10240", "dept": "10", "lat": 48.437, "lon": 4.3491}, {"nom": "Pouy-sur-Vannes", "cp": "10290", "dept": "10", "lat": 48.2984, "lon": 3.5981}, {"nom": "Praslin", "cp": "10210", "dept": "10", "lat": 48.0464, "lon": 4.2019}, {"nom": "Précy-Notre-Dame", "cp": "10500", "dept": "10", "lat": 48.3996, "lon": 4.4377}, {"nom": "Précy-Saint-Martin", "cp": "10500", "dept": "10", "lat": 48.4155, "lon": 4.4598}, {"nom": "Prémierfait", "cp": "10170", "dept": "10", "lat": 48.5039, "lon": 4.0224}, {"nom": "Proverville", "cp": "10200", "dept": "10", "lat": 48.2337, "lon": 4.6761}, {"nom": "Prugny", "cp": "10190", "dept": "10", "lat": 48.2493, "lon": 3.9388}, {"nom": "Prunay-Belleville", "cp": "10350", "dept": "10", "lat": 48.3673, "lon": 3.7804}, {"nom": "Prusy", "cp": "10210", "dept": "10", "lat": 47.9744, "lon": 4.0529}, {"nom": "Puits-et-Nuisement", "cp": "10140", "dept": "10", "lat": 48.2141, "lon": 4.5121}, {"nom": "Racines", "cp": "10130", "dept": "10", "lat": 48.0496, "lon": 3.8487}, {"nom": "Radonvilliers", "cp": "10500", "dept": "10", "lat": 48.339, "lon": 4.4753}, {"nom": "Ramerupt", "cp": "10240", "dept": "10", "lat": 48.5257, "lon": 4.3029}, {"nom": "Rances", "cp": "10500", "dept": "10", "lat": 48.4623, "lon": 4.5531}, {"nom": "Rhèges", "cp": "10170", "dept": "10", "lat": 48.5334, "lon": 3.9944}, {"nom": "Les Riceys", "cp": "10340", "dept": "10", "lat": 47.9907, "lon": 4.3793}, {"nom": "Rigny-la-Nonneuse", "cp": "10290", "dept": "10", "lat": 48.4149, "lon": 3.6483}, {"nom": "Rigny-le-Ferron", "cp": "10160", "dept": "10", "lat": 48.2022, "lon": 3.6238}, {"nom": "Rilly-Sainte-Syre", "cp": "10280", "dept": "10", "lat": 48.4504, "lon": 3.9679}, {"nom": "La Rivière-de-Corps", "cp": "10440", "dept": "10", "lat": 48.2785, "lon": 4.0154}, {"nom": "Romilly-sur-Seine", "cp": "10100", "dept": "10", "lat": 48.5158, "lon": 3.7158}, {"nom": "Roncenay", "cp": "10320", "dept": "10", "lat": 48.1963, "lon": 4.0458}, {"nom": "Rosières-près-Troyes", "cp": "10430", "dept": "10", "lat": 48.2636, "lon": 4.0651}, {"nom": "Rosnay-l'Hôpital", "cp": "10500", "dept": "10", "lat": 48.4601, "lon": 4.5039}, {"nom": "La Rothière", "cp": "10500", "dept": "10", "lat": 48.3392, "lon": 4.5869}, {"nom": "Rouilly-Sacey", "cp": "10220", "dept": "10", "lat": 48.3471, "lon": 4.2718}, {"nom": "Rouilly-Saint-Loup", "cp": "10800", "dept": "10", "lat": 48.2655, "lon": 4.1498}, {"nom": "Rouvres-les-Vignes", "cp": "10200", "dept": "10", "lat": 48.2379, "lon": 4.8248}, {"nom": "Rumilly-lès-Vaudes", "cp": "10260", "dept": "10", "lat": 48.1242, "lon": 4.1929}, {"nom": "Ruvigny", "cp": "10410", "dept": "10", "lat": 48.2719, "lon": 4.1905}, {"nom": "Saint-André-les-Vergers", "cp": "10120", "dept": "10", "lat": 48.2771, "lon": 4.0464}, {"nom": "Saint-Aubin", "cp": "10400", "dept": "10", "lat": 48.4822, "lon": 3.5526}, {"nom": "Saint-Benoist-sur-Vanne", "cp": "10160", "dept": "10", "lat": 48.233, "lon": 3.6726}, {"nom": "Saint-Benoît-sur-Seine", "cp": "10180", "dept": "10", "lat": 48.378, "lon": 4.0511}, {"nom": "Saint-Christophe-Dodinicourt", "cp": "10500", "dept": "10", "lat": 48.4331, "lon": 4.4757}, {"nom": "Saint-Étienne-sous-Barbuise", "cp": "10700", "dept": "10", "lat": 48.4881, "lon": 4.1113}, {"nom": "Saint-Flavy", "cp": "10350", "dept": "10", "lat": 48.4054, "lon": 3.7794}, {"nom": "Saint-Germain", "cp": "10120", "dept": "10", "lat": 48.2526, "lon": 4.0061}, {"nom": "Saint-Hilaire-sous-Romilly", "cp": "10100", "dept": "10", "lat": 48.4988, "lon": 3.6569}, {"nom": "Saint-Jean-de-Bonneval", "cp": "10320", "dept": "10", "lat": 48.1729, "lon": 4.0513}, {"nom": "Saint-Julien-les-Villas", "cp": "10800", "dept": "10", "lat": 48.2745, "lon": 4.1028}, {"nom": "Saint-Léger-près-Troyes", "cp": "10800", "dept": "10", "lat": 48.2394, "lon": 4.0715}, {"nom": "Saint-Léger-sous-Brienne", "cp": "10500", "dept": "10", "lat": 48.4076, "lon": 4.5082}, {"nom": "Saint-Léger-sous-Margerie", "cp": "10330", "dept": "10", "lat": 48.5312, "lon": 4.4878}, {"nom": "Saint-Loup-de-Buffigny", "cp": "10100", "dept": "10", "lat": 48.4447, "lon": 3.6306}, {"nom": "Saint-Lupien", "cp": "10350", "dept": "10", "lat": 48.3659, "lon": 3.7097}, {"nom": "Saint-Lyé", "cp": "10180", "dept": "10", "lat": 48.3464, "lon": 3.9728}, {"nom": "Saint-Mards-en-Othe", "cp": "10160", "dept": "10", "lat": 48.1608, "lon": 3.7919}, {"nom": "Saint-Martin-de-Bossenay", "cp": "10100", "dept": "10", "lat": 48.4458, "lon": 3.6885}, {"nom": "Sainte-Maure", "cp": "10150", "dept": "10", "lat": 48.3587, "lon": 4.0692}, {"nom": "Saint-Mesmin", "cp": "10280", "dept": "10", "lat": 48.435, "lon": 3.8942}, {"nom": "Saint-Nabord-sur-Aube", "cp": "10700", "dept": "10", "lat": 48.5129, "lon": 4.2011}, {"nom": "Saint-Nicolas-la-Chapelle", "cp": "10400", "dept": "10", "lat": 48.5208, "lon": 3.4805}, {"nom": "Saint-Oulph", "cp": "10170", "dept": "10", "lat": 48.5262, "lon": 3.8746}, {"nom": "Saint-Parres-aux-Tertres", "cp": "10410", "dept": "10", "lat": 48.2935, "lon": 4.1362}, {"nom": "Saint-Parres-lès-Vaudes", "cp": "10260", "dept": "10", "lat": 48.1762, "lon": 4.2172}, {"nom": "Saint-Phal", "cp": "10130", "dept": "10", "lat": 48.1089, "lon": 3.9917}, {"nom": "Saint-Pouange", "cp": "10120", "dept": "10", "lat": 48.2257, "lon": 4.041}, {"nom": "Saint-Remy-sous-Barbuise", "cp": "10700", "dept": "10", "lat": 48.4767, "lon": 4.1272}, {"nom": "Sainte-Savine", "cp": "10300", "dept": "10", "lat": 48.2982, "lon": 4.0261}, {"nom": "Saint-Thibault", "cp": "10800", "dept": "10", "lat": 48.1989, "lon": 4.1478}, {"nom": "Saint-Usage", "cp": "10360", "dept": "10", "lat": 48.0993, "lon": 4.6363}, {"nom": "Salon", "cp": "10700", "dept": "10", "lat": 48.6317, "lon": 4.0226}, {"nom": "Saulcy", "cp": "10200", "dept": "10", "lat": 48.2763, "lon": 4.8362}, {"nom": "La Saulsotte", "cp": "10400", "dept": "10", "lat": 48.551, "lon": 3.508}, {"nom": "Savières", "cp": "10600", "dept": "10", "lat": 48.4072, "lon": 3.9345}, {"nom": "Semoine", "cp": "10700", "dept": "10", "lat": 48.6715, "lon": 4.0908}, {"nom": "Soligny-les-Étangs", "cp": "10400", "dept": "10", "lat": 48.4044, "lon": 3.5157}, {"nom": "Sommeval", "cp": "10320", "dept": "10", "lat": 48.1615, "lon": 3.9537}, {"nom": "Soulaines-Dhuys", "cp": "10200", "dept": "10", "lat": 48.378, "lon": 4.7108}, {"nom": "Souligny", "cp": "10320", "dept": "10", "lat": 48.2118, "lon": 3.9862}, {"nom": "Spoy", "cp": "10200", "dept": "10", "lat": 48.2294, "lon": 4.6179}, {"nom": "Thennelières", "cp": "10410", "dept": "10", "lat": 48.2889, "lon": 4.1823}, {"nom": "Thieffrain", "cp": "10140", "dept": "10", "lat": 48.1979, "lon": 4.4406}, {"nom": "Thil", "cp": "10200", "dept": "10", "lat": 48.3429, "lon": 4.7917}, {"nom": "Thors", "cp": "10200", "dept": "10", "lat": 48.305, "lon": 4.8033}, {"nom": "Torcy-le-Grand", "cp": "10700", "dept": "10", "lat": 48.5194, "lon": 4.1716}, {"nom": "Torcy-le-Petit", "cp": "10700", "dept": "10", "lat": 48.518, "lon": 4.1898}, {"nom": "Torvilliers", "cp": "10440", "dept": "10", "lat": 48.2774, "lon": 3.9702}, {"nom": "Traînel", "cp": "10400", "dept": "10", "lat": 48.4059, "lon": 3.446}, {"nom": "Trancault", "cp": "10290", "dept": "10", "lat": 48.3686, "lon": 3.526}, {"nom": "Trannes", "cp": "10140", "dept": "10", "lat": 48.3039, "lon": 4.5994}, {"nom": "Trouans", "cp": "10700", "dept": "10", "lat": 48.6339, "lon": 4.2513}, {"nom": "Troyes", "cp": "10000", "dept": "10", "lat": 48.2924, "lon": 4.0761}, {"nom": "Turgy", "cp": "10210", "dept": "10", "lat": 48.0335, "lon": 4.0505}, {"nom": "Unienville", "cp": "10140", "dept": "10", "lat": 48.3187, "lon": 4.5447}, {"nom": "Urville", "cp": "10200", "dept": "10", "lat": 48.1706, "lon": 4.6712}, {"nom": "Vailly", "cp": "10150", "dept": "10", "lat": 48.3728, "lon": 4.1243}, {"nom": "Vallant-Saint-Georges", "cp": "10170", "dept": "10", "lat": 48.459, "lon": 3.8913}, {"nom": "Vallentigny", "cp": "10500", "dept": "10", "lat": 48.4412, "lon": 4.6145}, {"nom": "Vallières", "cp": "10210", "dept": "10", "lat": 47.9988, "lon": 4.0601}, {"nom": "Vanlay", "cp": "10210", "dept": "10", "lat": 48.0176, "lon": 4.0129}, {"nom": "Vauchassis", "cp": "10190", "dept": "10", "lat": 48.2047, "lon": 3.918}, {"nom": "Vauchonvilliers", "cp": "10140", "dept": "10", "lat": 48.2676, "lon": 4.5328}, {"nom": "Vaucogne", "cp": "10240", "dept": "10", "lat": 48.5345, "lon": 4.3496}, {"nom": "Vaudes", "cp": "10260", "dept": "10", "lat": 48.1752, "lon": 4.1814}, {"nom": "Vaupoisson", "cp": "10700", "dept": "10", "lat": 48.5036, "lon": 4.2125}, {"nom": "Vendeuvre-sur-Barse", "cp": "10140", "dept": "10", "lat": 48.2412, "lon": 4.4532}, {"nom": "La Vendue-Mignot", "cp": "10800", "dept": "10", "lat": 48.1494, "lon": 4.1014}, {"nom": "Vernonvilliers", "cp": "10200", "dept": "10", "lat": 48.3124, "lon": 4.6797}, {"nom": "Verpillières-sur-Ource", "cp": "10360", "dept": "10", "lat": 48.0393, "lon": 4.5873}, {"nom": "Verricourt", "cp": "10240", "dept": "10", "lat": 48.4536, "lon": 4.3337}, {"nom": "Verrières", "cp": "10390", "dept": "10", "lat": 48.2307, "lon": 4.1509}, {"nom": "Viâpres-le-Petit", "cp": "10380", "dept": "10", "lat": 48.5832, "lon": 4.0536}, {"nom": "Villacerf", "cp": "10600", "dept": "10", "lat": 48.4052, "lon": 4.0046}, {"nom": "Villadin", "cp": "10290", "dept": "10", "lat": 48.3157, "lon": 3.6941}, {"nom": "La Ville-aux-Bois", "cp": "10500", "dept": "10", "lat": 48.4044, "lon": 4.6883}, {"nom": "Villechétif", "cp": "10410", "dept": "10", "lat": 48.3201, "lon": 4.1524}, {"nom": "Villeloup", "cp": "10350", "dept": "10", "lat": 48.3523, "lon": 3.8644}, {"nom": "Villemereuil", "cp": "10800", "dept": "10", "lat": 48.2008, "lon": 4.0784}, {"nom": "Villemoiron-en-Othe", "cp": "10160", "dept": "10", "lat": 48.1993, "lon": 3.7955}, {"nom": "Villemorien", "cp": "10110", "dept": "10", "lat": 48.0793, "lon": 4.2937}, {"nom": "Villemoyenne", "cp": "10260", "dept": "10", "lat": 48.1851, "lon": 4.2458}, {"nom": "Villenauxe-la-Grande", "cp": "10370", "dept": "10", "lat": 48.5951, "lon": 3.5428}, {"nom": "La Villeneuve-au-Châtelot", "cp": "10400", "dept": "10", "lat": 48.5528, "lon": 3.608}, {"nom": "Villeneuve-au-Chemin", "cp": "10130", "dept": "10", "lat": 48.0864, "lon": 3.837}, {"nom": "La Villeneuve-au-Chêne", "cp": "10140", "dept": "10", "lat": 48.2485, "lon": 4.391}, {"nom": "Villeret", "cp": "10330", "dept": "10", "lat": 48.4809, "lon": 4.5854}, {"nom": "Villery", "cp": "10320", "dept": "10", "lat": 48.1743, "lon": 4.0155}, {"nom": "Ville-sous-la-Ferté", "cp": "10310", "dept": "10", "lat": 48.1418, "lon": 4.7665}, {"nom": "Ville-sur-Arce", "cp": "10110", "dept": "10", "lat": 48.1143, "lon": 4.4473}, {"nom": "Ville-sur-Terre", "cp": "10200", "dept": "10", "lat": 48.3364, "lon": 4.7363}, {"nom": "Villette-sur-Aube", "cp": "10700", "dept": "10", "lat": 48.5294, "lon": 4.1079}, {"nom": "Villiers-Herbisse", "cp": "10700", "dept": "10", "lat": 48.6472, "lon": 4.1145}, {"nom": "Villiers-le-Bois", "cp": "10210", "dept": "10", "lat": 47.9543, "lon": 4.19}, {"nom": "Villiers-sous-Praslin", "cp": "10210", "dept": "10", "lat": 48.0603, "lon": 4.2547}, {"nom": "Villy-en-Trodes", "cp": "10140", "dept": "10", "lat": 48.1985, "lon": 4.389}, {"nom": "Villy-le-Bois", "cp": "10800", "dept": "10", "lat": 48.1692, "lon": 4.0878}, {"nom": "Villy-le-Maréchal", "cp": "10800", "dept": "10", "lat": 48.1886, "lon": 4.0743}, {"nom": "Vinets", "cp": "10700", "dept": "10", "lat": 48.5456, "lon": 4.2247}, {"nom": "Virey-sous-Bar", "cp": "10260", "dept": "10", "lat": 48.1342, "lon": 4.3058}, {"nom": "Vitry-le-Croisé", "cp": "10110", "dept": "10", "lat": 48.1443, "lon": 4.5811}, {"nom": "Viviers-sur-Artaut", "cp": "10110", "dept": "10", "lat": 48.0979, "lon": 4.5003}, {"nom": "Voigny", "cp": "10200", "dept": "10", "lat": 48.2351, "lon": 4.7676}, {"nom": "Vosnon", "cp": "10130", "dept": "10", "lat": 48.1093, "lon": 3.8373}, {"nom": "Voué", "cp": "10150", "dept": "10", "lat": 48.46, "lon": 4.1302}, {"nom": "Vougrey", "cp": "10210", "dept": "10", "lat": 48.0886, "lon": 4.2373}, {"nom": "Vulaines", "cp": "10160", "dept": "10", "lat": 48.2417, "lon": 3.6225}, {"nom": "Yèvres-le-Petit", "cp": "10500", "dept": "10", "lat": 48.4786, "lon": 4.4907}]