[{"nom": "Aignan", "cp": "32290", "dept": "32", "lat": 43.699, "lon": 0.091}, {"nom": "Ansan", "cp": "32270", "dept": "32", "lat": 43.686, "lon": 0.7843}, {"nom": "Antras", "cp": "32360", "dept": "32", "lat": 43.7304, "lon": 0.4465}, {"nom": "Arblade-le-Bas", "cp": "32720", "dept": "32", "lat": 43.7049, "lon": -0.1759}, {"nom": "Arblade-le-Haut", "cp": "32110", "dept": "32", "lat": 43.7415, "lon": -0.066}, {"nom": "Ardizas", "cp": "32430", "dept": "32", "lat": 43.7262, "lon": 0.9977}, {"nom": "Armentieux", "cp": "32230", "dept": "32", "lat": 43.5219, "lon": 0.0966}, {"nom": "Armous-et-Cau", "cp": "32230", "dept": "32", "lat": 43.5707, "lon": 0.1883}, {"nom": "Arrouède", "cp": "32140", "dept": "32", "lat": 43.3599, "lon": 0.5835}, {"nom": "Aubiet", "cp": "32270", "dept": "32", "lat": 43.6516, "lon": 0.7809}, {"nom": "Auch", "cp": "32000", "dept": "32", "lat": 43.6602, "lon": 0.5673}, {"nom": "Augnax", "cp": "32120", "dept": "32", "lat": 43.7246, "lon": 0.7746}, {"nom": "Aujan-Mournède", "cp": "32300", "dept": "32", "lat": 43.3748, "lon": 0.5016}, {"nom": "Auradé", "cp": "32600", "dept": "32", "lat": 43.5621, "lon": 1.0768}, {"nom": "Aurensan", "cp": "32400", "dept": "32", "lat": 43.62, "lon": -0.204}, {"nom": "Aurimont", "cp": "32450", "dept": "32", "lat": 43.5664, "lon": 0.8289}, {"nom": "Auterive", "cp": "32550", "dept": "32", "lat": 43.578, "lon": 0.6325}, {"nom": "Aux-Aussat", "cp": "32170", "dept": "32", "lat": 43.4413, "lon": 0.2625}, {"nom": "Avensac", "cp": "32120", "dept": "32", "lat": 43.83, "lon": 0.9007}, {"nom": "Avéron-Bergelle", "cp": "32290", "dept": "32", "lat": 43.7581, "lon": 0.0647}, {"nom": "Avezan", "cp": "32380", "dept": "32", "lat": 43.8824, "lon": 0.802}, {"nom": "Ayguetinte", "cp": "32410", "dept": "32", "lat": 43.8308, "lon": 0.4159}, {"nom": "Ayzieu", "cp": "32800", "dept": "32", "lat": 43.8586, "lon": -0.0257}, {"nom": "Bajonnette", "cp": "32120", "dept": "32", "lat": 43.8127, "lon": 0.7663}, {"nom": "Barcelonne-du-Gers", "cp": "32720", "dept": "32", "lat": 43.695, "lon": -0.2065}, {"nom": "Barcugnan", "cp": "32170", "dept": "32", "lat": 43.3753, "lon": 0.3973}, {"nom": "Barran", "cp": "32350", "dept": "32", "lat": 43.6236, "lon": 0.4487}, {"nom": "Bars", "cp": "32300", "dept": "32", "lat": 43.5118, "lon": 0.3005}, {"nom": "Bascous", "cp": "32190", "dept": "32", "lat": 43.7968, "lon": 0.1383}, {"nom": "Bassoues", "cp": "32320", "dept": "32", "lat": 43.5735, "lon": 0.2461}, {"nom": "Bazian", "cp": "32320", "dept": "32", "lat": 43.6679, "lon": 0.3187}, {"nom": "Bazugues", "cp": "32170", "dept": "32", "lat": 43.4521, "lon": 0.3427}, {"nom": "Beaucaire", "cp": "32410", "dept": "32", "lat": 43.8336, "lon": 0.3721}, {"nom": "Beaumarchés", "cp": "32160", "dept": "32", "lat": 43.5907, "lon": 0.1029}, {"nom": "Beaumont", "cp": "32100", "dept": "32", "lat": 43.937, "lon": 0.2882}, {"nom": "Beaupuy", "cp": "32600", "dept": "32", "lat": 43.647, "lon": 1.0172}, {"nom": "Beccas", "cp": "32730", "dept": "32", "lat": 43.4323, "lon": 0.1558}, {"nom": "Bédéchan", "cp": "32450", "dept": "32", "lat": 43.5741, "lon": 0.789}, {"nom": "Bellegarde", "cp": "32140", "dept": "32", "lat": 43.4307, "lon": 0.6329}, {"nom": "Belloc-Saint-Clamens", "cp": "32300", "dept": "32", "lat": 43.4562, "lon": 0.438}, {"nom": "Belmont", "cp": "32190", "dept": "32", "lat": 43.6886, "lon": 0.2399}, {"nom": "Béraut", "cp": "32100", "dept": "32", "lat": 43.9221, "lon": 0.4106}, {"nom": "Berdoues", "cp": "32300", "dept": "32", "lat": 43.4685, "lon": 0.4004}, {"nom": "Bernède", "cp": "32400", "dept": "32", "lat": 43.6723, "lon": -0.22}, {"nom": "Berrac", "cp": "32480", "dept": "32", "lat": 44.0093, "lon": 0.5501}, {"nom": "Betcave-Aguin", "cp": "32420", "dept": "32", "lat": 43.448, "lon": 0.6795}, {"nom": "Bétous", "cp": "32110", "dept": "32", "lat": 43.7184, "lon": 0.0241}, {"nom": "Betplan", "cp": "32730", "dept": "32", "lat": 43.4202, "lon": 0.2093}, {"nom": "Bézéril", "cp": "32130", "dept": "32", "lat": 43.5333, "lon": 0.8811}, {"nom": "Bezolles", "cp": "32310", "dept": "32", "lat": 43.8209, "lon": 0.355}, {"nom": "Bézues-Bajon", "cp": "32140", "dept": "32", "lat": 43.3875, "lon": 0.6103}, {"nom": "Biran", "cp": "32350", "dept": "32", "lat": 43.6908, "lon": 0.4021}, {"nom": "Bivès", "cp": "32380", "dept": "32", "lat": 43.8317, "lon": 0.8087}, {"nom": "Blanquefort", "cp": "32270", "dept": "32", "lat": 43.6737, "lon": 0.8063}, {"nom": "Blaziert", "cp": "32100", "dept": "32", "lat": 43.9272, "lon": 0.4826}, {"nom": "Blousson-Sérian", "cp": "32230", "dept": "32", "lat": 43.4595, "lon": 0.1943}, {"nom": "Bonas", "cp": "32410", "dept": "32", "lat": 43.7808, "lon": 0.4068}, {"nom": "Boucagnères", "cp": "32550", "dept": "32", "lat": 43.5613, "lon": 0.6171}, {"nom": "Boulaur", "cp": "32450", "dept": "32", "lat": 43.5503, "lon": 0.7646}, {"nom": "Bourrouillan", "cp": "32370", "dept": "32", "lat": 43.8282, "lon": -0.0094}, {"nom": "Bouzon-Gellenave", "cp": "32290", "dept": "32", "lat": 43.6865, "lon": 0.0289}, {"nom": "Bretagne-d'Armagnac", "cp": "32800", "dept": "32", "lat": 43.8896, "lon": 0.1327}, {"nom": "Le Brouilh-Monbert", "cp": "32350", "dept": "32", "lat": 43.6587, "lon": 0.4004}, {"nom": "Brugnens", "cp": "32500", "dept": "32", "lat": 43.844, "lon": 0.7192}, {"nom": "Cadeilhan", "cp": "32380", "dept": "32", "lat": 43.8312, "lon": 0.7682}, {"nom": "Cadeillan", "cp": "32220", "dept": "32", "lat": 43.4217, "lon": 0.8385}, {"nom": "Cahuzac-sur-Adour", "cp": "32400", "dept": "32", "lat": 43.6385, "lon": -0.0256}, {"nom": "Caillavet", "cp": "32190", "dept": "32", "lat": 43.7071, "lon": 0.3435}, {"nom": "Callian", "cp": "32190", "dept": "32", "lat": 43.6311, "lon": 0.2641}, {"nom": "Campagne-d'Armagnac", "cp": "32800", "dept": "32", "lat": 43.8604, "lon": 0.0068}, {"nom": "Cassaigne", "cp": "32100", "dept": "32", "lat": 43.9036, "lon": 0.344}, {"nom": "Castelnau-Barbarens", "cp": "32450", "dept": "32", "lat": 43.5842, "lon": 0.7295}, {"nom": "Castelnau-d'Anglès", "cp": "32320", "dept": "32", "lat": 43.6176, "lon": 0.2998}, {"nom": "Castelnau-d'Arbieu", "cp": "32500", "dept": "32", "lat": 43.8852, "lon": 0.6909}, {"nom": "Castelnau d'Auzan Labarrère", "cp": "32250", "dept": "32", "lat": 43.9544, "lon": 0.1097}, {"nom": "Castelnau-sur-l'Auvignon", "cp": "32100", "dept": "32", "lat": 43.9631, "lon": 0.4699}, {"nom": "Castelnavet", "cp": "32290", "dept": "32", "lat": 43.6733, "lon": 0.1401}, {"nom": "Castéra-Lectourois", "cp": "32700", "dept": "32", "lat": 43.9902, "lon": 0.6144}, {"nom": "Castéra-Verduzan", "cp": "32410", "dept": "32", "lat": 43.8026, "lon": 0.4327}, {"nom": "Castéron", "cp": "32380", "dept": "32", "lat": 43.9044, "lon": 0.8741}, {"nom": "Castet-Arrouy", "cp": "32340", "dept": "32", "lat": 43.9815, "lon": 0.7313}, {"nom": "Castex", "cp": "32170", "dept": "32", "lat": 43.3811, "lon": 0.312}, {"nom": "Castex-d'Armagnac", "cp": "32240", "dept": "32", "lat": 43.8669, "lon": -0.1681}, {"nom": "Castillon-Debats", "cp": "32190", "dept": "32", "lat": 43.7287, "lon": 0.2277}, {"nom": "Castillon-Massas", "cp": "32360", "dept": "32", "lat": 43.7159, "lon": 0.5431}, {"nom": "Castillon-Savès", "cp": "32490", "dept": "32", "lat": 43.5642, "lon": 0.9848}, {"nom": "Castin", "cp": "32810", "dept": "32", "lat": 43.6914, "lon": 0.5363}, {"nom": "Catonvielle", "cp": "32200", "dept": "32", "lat": 43.6556, "lon": 0.9593}, {"nom": "Caumont", "cp": "32400", "dept": "32", "lat": 43.6933, "lon": -0.1113}, {"nom": "Caupenne-d'Armagnac", "cp": "32110", "dept": "32", "lat": 43.7864, "lon": -0.0701}, {"nom": "Caussens", "cp": "32100", "dept": "32", "lat": 43.9477, "lon": 0.4405}, {"nom": "Cazaubon", "cp": "32150", "dept": "32", "lat": 43.9285, "lon": -0.0336}, {"nom": "Cazaux-d'Anglès", "cp": "32190", "dept": "32", "lat": 43.6574, "lon": 0.2634}, {"nom": "Cazaux-Savès", "cp": "32130", "dept": "32", "lat": 43.5447, "lon": 0.979}, {"nom": "Cazaux-Villecomtal", "cp": "32230", "dept": "32", "lat": 43.4471, "lon": 0.1754}, {"nom": "Cazeneuve", "cp": "32800", "dept": "32", "lat": 43.8891, "lon": 0.166}, {"nom": "Céran", "cp": "32500", "dept": "32", "lat": 43.816, "lon": 0.6981}, {"nom": "Cézan", "cp": "32410", "dept": "32", "lat": 43.8035, "lon": 0.4991}, {"nom": "Chélan", "cp": "32140", "dept": "32", "lat": 43.3532, "lon": 0.5441}, {"nom": "Clermont-Pouyguillès", "cp": "32300", "dept": "32", "lat": 43.4751, "lon": 0.5282}, {"nom": "Clermont-Savès", "cp": "32600", "dept": "32", "lat": 43.62, "lon": 1.0107}, {"nom": "Cologne", "cp": "32430", "dept": "32", "lat": 43.7197, "lon": 0.9759}, {"nom": "Condom", "cp": "32100", "dept": "32", "lat": 43.9653, "lon": 0.3782}, {"nom": "Corneillan", "cp": "32400", "dept": "32", "lat": 43.6547, "lon": -0.1841}, {"nom": "Couloumé-Mondebat", "cp": "32160", "dept": "32", "lat": 43.6354, "lon": 0.1148}, {"nom": "Courrensan", "cp": "32330", "dept": "32", "lat": 43.8419, "lon": 0.2338}, {"nom": "Courties", "cp": "32230", "dept": "32", "lat": 43.5744, "lon": 0.1535}, {"nom": "Crastes", "cp": "32270", "dept": "32", "lat": 43.7158, "lon": 0.7332}, {"nom": "Cravencères", "cp": "32110", "dept": "32", "lat": 43.7766, "lon": 0.03}, {"nom": "Cuélas", "cp": "32300", "dept": "32", "lat": 43.351, "lon": 0.4473}, {"nom": "Dému", "cp": "32190", "dept": "32", "lat": 43.761, "lon": 0.1687}, {"nom": "Duffort", "cp": "32170", "dept": "32", "lat": 43.3427, "lon": 0.4209}, {"nom": "Duran", "cp": "32810", "dept": "32", "lat": 43.672, "lon": 0.5624}, {"nom": "Durban", "cp": "32260", "dept": "32", "lat": 43.5396, "lon": 0.5706}, {"nom": "Eauze", "cp": "32800", "dept": "32", "lat": 43.8614, "lon": 0.1057}, {"nom": "Encausse", "cp": "32430", "dept": "32", "lat": 43.6923, "lon": 1.0306}, {"nom": "Endoufielle", "cp": "32600", "dept": "32", "lat": 43.5489, "lon": 1.0196}, {"nom": "Esclassan-Labastide", "cp": "32140", "dept": "32", "lat": 43.4174, "lon": 0.5505}, {"nom": "Escornebœuf", "cp": "32200", "dept": "32", "lat": 43.6467, "lon": 0.9019}, {"nom": "Espaon", "cp": "32220", "dept": "32", "lat": 43.4306, "lon": 0.8699}, {"nom": "Espas", "cp": "32370", "dept": "32", "lat": 43.7769, "lon": 0.0903}, {"nom": "Estampes", "cp": "32170", "dept": "32", "lat": 43.4016, "lon": 0.2791}, {"nom": "Estang", "cp": "32240", "dept": "32", "lat": 43.8761, "lon": -0.1043}, {"nom": "Estipouy", "cp": "32300", "dept": "32", "lat": 43.5511, "lon": 0.3885}, {"nom": "Estramiac", "cp": "32380", "dept": "32", "lat": 43.8355, "lon": 0.8481}, {"nom": "Faget-Abbatial", "cp": "32450", "dept": "32", "lat": 43.5075, "lon": 0.69}, {"nom": "Flamarens", "cp": "32340", "dept": "32", "lat": 44.0234, "lon": 0.7941}, {"nom": "Fleurance", "cp": "32500", "dept": "32", "lat": 43.8432, "lon": 0.6405}, {"nom": "Fourcès", "cp": "32250", "dept": "32", "lat": 43.9958, "lon": 0.2305}, {"nom": "Frégouville", "cp": "32490", "dept": "32", "lat": 43.575, "lon": 0.9601}, {"nom": "Fustérouau", "cp": "32400", "dept": "32", "lat": 43.6856, "lon": 0.0048}, {"nom": "Galiax", "cp": "32160", "dept": "32", "lat": 43.611, "lon": 0.0104}, {"nom": "Garravet", "cp": "32220", "dept": "32", "lat": 43.4201, "lon": 0.9101}, {"nom": "Gaudonville", "cp": "32380", "dept": "32", "lat": 43.8844, "lon": 0.8446}, {"nom": "Gaujac", "cp": "32220", "dept": "32", "lat": 43.4749, "lon": 0.8232}, {"nom": "Gaujan", "cp": "32420", "dept": "32", "lat": 43.3992, "lon": 0.7234}, {"nom": "Gavarret-sur-Aulouste", "cp": "32390", "dept": "32", "lat": 43.7806, "lon": 0.6614}, {"nom": "Gazaupouy", "cp": "32480", "dept": "32", "lat": 44.0129, "lon": 0.472}, {"nom": "Gazax-et-Baccarisse", "cp": "32230", "dept": "32", "lat": 43.6018, "lon": 0.197}, {"nom": "Gée-Rivière", "cp": "32720", "dept": "32", "lat": 43.6757, "lon": -0.1871}, {"nom": "Gimbrède", "cp": "32340", "dept": "32", "lat": 44.0382, "lon": 0.7192}, {"nom": "Gimont", "cp": "32200", "dept": "32", "lat": 43.6175, "lon": 0.8815}, {"nom": "Giscaro", "cp": "32200", "dept": "32", "lat": 43.6065, "lon": 0.9345}, {"nom": "Gondrin", "cp": "32330", "dept": "32", "lat": 43.8778, "lon": 0.2487}, {"nom": "Goutz", "cp": "32500", "dept": "32", "lat": 43.8083, "lon": 0.732}, {"nom": "Goux", "cp": "32400", "dept": "32", "lat": 43.6158, "lon": -0.0222}, {"nom": "Haget", "cp": "32730", "dept": "32", "lat": 43.4164, "lon": 0.1612}, {"nom": "Haulies", "cp": "32550", "dept": "32", "lat": 43.557, "lon": 0.6685}, {"nom": "Homps", "cp": "32120", "dept": "32", "lat": 43.8103, "lon": 0.845}, {"nom": "Le Houga", "cp": "32460", "dept": "32", "lat": 43.773, "lon": -0.1836}, {"nom": "Idrac-Respaillès", "cp": "32300", "dept": "32", "lat": 43.5168, "lon": 0.4704}, {"nom": "L'Isle-Arné", "cp": "32270", "dept": "32", "lat": 43.6167, "lon": 0.7862}, {"nom": "L'Isle-Bouzon", "cp": "32380", "dept": "32", "lat": 43.9254, "lon": 0.7383}, {"nom": "L'Isle-de-Noé", "cp": "32300", "dept": "32", "lat": 43.5866, "lon": 0.4284}, {"nom": "L'Isle-Jourdain", "cp": "32600", "dept": "32", "lat": 43.6159, "lon": 1.0826}, {"nom": "Izotges", "cp": "32400", "dept": "32", "lat": 43.6543, "lon": -0.0197}, {"nom": "Jegun", "cp": "32360", "dept": "32", "lat": 43.7637, "lon": 0.4374}, {"nom": "Jû-Belloc", "cp": "32160", "dept": "32", "lat": 43.5761, "lon": 0.0162}, {"nom": "Juillac", "cp": "32230", "dept": "32", "lat": 43.5447, "lon": 0.1221}, {"nom": "Juilles", "cp": "32200", "dept": "32", "lat": 43.6071, "lon": 0.8268}, {"nom": "Justian", "cp": "32190", "dept": "32", "lat": 43.8148, "lon": 0.2995}, {"nom": "Laas", "cp": "32170", "dept": "32", "lat": 43.4735, "lon": 0.302}, {"nom": "Labarthe", "cp": "32260", "dept": "32", "lat": 43.4699, "lon": 0.5764}, {"nom": "Labarthète", "cp": "32400", "dept": "32", "lat": 43.6285, "lon": -0.1639}, {"nom": "Labastide-Savès", "cp": "32130", "dept": "32", "lat": 43.522, "lon": 0.9775}, {"nom": "Labéjan", "cp": "32300", "dept": "32", "lat": 43.5395, "lon": 0.5072}, {"nom": "Labrihe", "cp": "32120", "dept": "32", "lat": 43.7652, "lon": 0.8752}, {"nom": "Ladevèze-Rivière", "cp": "32230", "dept": "32", "lat": 43.5515, "lon": 0.0855}, {"nom": "Ladevèze-Ville", "cp": "32230", "dept": "32", "lat": 43.5407, "lon": 0.0642}, {"nom": "Lagarde", "cp": "32700", "dept": "32", "lat": 43.9706, "lon": 0.5625}, {"nom": "Lagarde-Hachan", "cp": "32300", "dept": "32", "lat": 43.407, "lon": 0.4995}, {"nom": "Lagardère", "cp": "32310", "dept": "32", "lat": 43.8401, "lon": 0.3226}, {"nom": "Lagraulet-du-Gers", "cp": "32330", "dept": "32", "lat": 43.8868, "lon": 0.1981}, {"nom": "Laguian-Mazous", "cp": "32170", "dept": "32", "lat": 43.4136, "lon": 0.2579}, {"nom": "Lahas", "cp": "32130", "dept": "32", "lat": 43.5644, "lon": 0.9009}, {"nom": "Lahitte", "cp": "32810", "dept": "32", "lat": 43.658, "lon": 0.6798}, {"nom": "Lalanne", "cp": "32500", "dept": "32", "lat": 43.8063, "lon": 0.6765}, {"nom": "Lalanne-Arqué", "cp": "32140", "dept": "32", "lat": 43.3264, "lon": 0.6399}, {"nom": "Lamaguère", "cp": "32260", "dept": "32", "lat": 43.4862, "lon": 0.6843}, {"nom": "Lamazère", "cp": "32300", "dept": "32", "lat": 43.5625, "lon": 0.452}, {"nom": "Lamothe-Goas", "cp": "32500", "dept": "32", "lat": 43.8716, "lon": 0.5711}, {"nom": "Lannemaignan", "cp": "32240", "dept": "32", "lat": 43.8995, "lon": -0.2145}, {"nom": "Lannepax", "cp": "32190", "dept": "32", "lat": 43.8084, "lon": 0.2229}, {"nom": "Lanne-Soubiran", "cp": "32110", "dept": "32", "lat": 43.7404, "lon": -0.1031}, {"nom": "Lannux", "cp": "32400", "dept": "32", "lat": 43.6453, "lon": -0.2271}, {"nom": "Larée", "cp": "32150", "dept": "32", "lat": 43.9075, "lon": -0.0572}, {"nom": "Larressingle", "cp": "32100", "dept": "32", "lat": 43.9385, "lon": 0.3176}, {"nom": "Larroque-Engalin", "cp": "32480", "dept": "32", "lat": 43.9897, "lon": 0.5485}, {"nom": "Larroque-Saint-Sernin", "cp": "32410", "dept": "32", "lat": 43.8285, "lon": 0.4711}, {"nom": "Larroque-sur-l'Osse", "cp": "32100", "dept": "32", "lat": 43.9752, "lon": 0.281}, {"nom": "Lartigue", "cp": "32450", "dept": "32", "lat": 43.5371, "lon": 0.7009}, {"nom": "Lasserrade", "cp": "32160", "dept": "32", "lat": 43.6294, "lon": 0.0572}, {"nom": "Lasséran", "cp": "32550", "dept": "32", "lat": 43.6025, "lon": 0.529}, {"nom": "Lasseube-Propre", "cp": "32550", "dept": "32", "lat": 43.5715, "lon": 0.5786}, {"nom": "Laujuzan", "cp": "32110", "dept": "32", "lat": 43.8035, "lon": -0.1167}, {"nom": "Lauraët", "cp": "32330", "dept": "32", "lat": 43.927, "lon": 0.257}, {"nom": "Lavardens", "cp": "32360", "dept": "32", "lat": 43.7628, "lon": 0.5241}, {"nom": "Laveraët", "cp": "32230", "dept": "32", "lat": 43.5286, "lon": 0.2129}, {"nom": "Laymont", "cp": "32220", "dept": "32", "lat": 43.4209, "lon": 0.9988}, {"nom": "Leboulin", "cp": "32810", "dept": "32", "lat": 43.6728, "lon": 0.6608}, {"nom": "Lectoure", "cp": "32700", "dept": "32", "lat": 43.945, "lon": 0.6524}, {"nom": "Lelin-Lapujolle", "cp": "32400", "dept": "32", "lat": 43.7086, "lon": -0.1391}, {"nom": "Lias", "cp": "32600", "dept": "32", "lat": 43.568, "lon": 1.1279}, {"nom": "Lias-d'Armagnac", "cp": "32240", "dept": "32", "lat": 43.859, "lon": -0.0646}, {"nom": "Ligardes", "cp": "32480", "dept": "32", "lat": 44.0413, "lon": 0.4792}, {"nom": "Lombez", "cp": "32220", "dept": "32", "lat": 43.4641, "lon": 0.8995}, {"nom": "Loubédat", "cp": "32110", "dept": "32", "lat": 43.744, "lon": 0.0301}, {"nom": "Loubersan", "cp": "32300", "dept": "32", "lat": 43.5022, "lon": 0.5103}, {"nom": "Lourties-Monbrun", "cp": "32140", "dept": "32", "lat": 43.4576, "lon": 0.5464}, {"nom": "Louslitges", "cp": "32230", "dept": "32", "lat": 43.6021, "lon": 0.1555}, {"nom": "Loussous-Débat", "cp": "32290", "dept": "32", "lat": 43.6568, "lon": 0.0783}, {"nom": "Lupiac", "cp": "32290", "dept": "32", "lat": 43.6894, "lon": 0.1863}, {"nom": "Luppé-Violles", "cp": "32110", "dept": "32", "lat": 43.7351, "lon": -0.1399}, {"nom": "Lussan", "cp": "32270", "dept": "32", "lat": 43.618, "lon": 0.739}, {"nom": "Magnan", "cp": "32110", "dept": "32", "lat": 43.7632, "lon": -0.1141}, {"nom": "Magnas", "cp": "32380", "dept": "32", "lat": 43.892, "lon": 0.7234}, {"nom": "Maignaut-Tauzia", "cp": "32310", "dept": "32", "lat": 43.8872, "lon": 0.399}, {"nom": "Malabat", "cp": "32730", "dept": "32", "lat": 43.4318, "lon": 0.1922}, {"nom": "Manas-Bastanous", "cp": "32170", "dept": "32", "lat": 43.3665, "lon": 0.3683}, {"nom": "Manciet", "cp": "32370", "dept": "32", "lat": 43.8186, "lon": 0.0599}, {"nom": "Manent-Montané", "cp": "32140", "dept": "32", "lat": 43.3339, "lon": 0.6}, {"nom": "Mansempuy", "cp": "32120", "dept": "32", "lat": 43.7433, "lon": 0.8085}, {"nom": "Mansencôme", "cp": "32310", "dept": "32", "lat": 43.8743, "lon": 0.3315}, {"nom": "Marambat", "cp": "32190", "dept": "32", "lat": 43.7779, "lon": 0.3222}, {"nom": "Maravat", "cp": "32120", "dept": "32", "lat": 43.7598, "lon": 0.7708}, {"nom": "Marciac", "cp": "32230", "dept": "32", "lat": 43.5209, "lon": 0.1544}, {"nom": "Marestaing", "cp": "32490", "dept": "32", "lat": 43.5853, "lon": 1.0135}, {"nom": "Margouët-Meymes", "cp": "32290", "dept": "32", "lat": 43.7284, "lon": 0.1211}, {"nom": "Marguestau", "cp": "32150", "dept": "32", "lat": 43.8821, "lon": -0.0392}, {"nom": "Marsan", "cp": "32270", "dept": "32", "lat": 43.6467, "lon": 0.7248}, {"nom": "Marseillan", "cp": "32170", "dept": "32", "lat": 43.4885, "lon": 0.3114}, {"nom": "Marsolan", "cp": "32700", "dept": "32", "lat": 43.9426, "lon": 0.5337}, {"nom": "Mascaras", "cp": "32230", "dept": "32", "lat": 43.5551, "lon": 0.2229}, {"nom": "Mas-d'Auvignon", "cp": "32700", "dept": "32", "lat": 43.8927, "lon": 0.5022}, {"nom": "Masseube", "cp": "32140", "dept": "32", "lat": 43.4268, "lon": 0.5857}, {"nom": "Mauléon-d'Armagnac", "cp": "32240", "dept": "32", "lat": 43.9033, "lon": -0.1553}, {"nom": "Maulichères", "cp": "32400", "dept": "32", "lat": 43.6878, "lon": -0.0838}, {"nom": "Maumusson-Laguian", "cp": "32400", "dept": "32", "lat": 43.6107, "lon": -0.0923}, {"nom": "Maupas", "cp": "32240", "dept": "32", "lat": 43.844, "lon": -0.1295}, {"nom": "Maurens", "cp": "32200", "dept": "32", "lat": 43.5842, "lon": 0.9137}, {"nom": "Mauroux", "cp": "32380", "dept": "32", "lat": 43.9092, "lon": 0.8226}, {"nom": "Mauvezin", "cp": "32120", "dept": "32", "lat": 43.735, "lon": 0.8644}, {"nom": "Meilhan", "cp": "32420", "dept": "32", "lat": 43.4187, "lon": 0.6755}, {"nom": "Mérens", "cp": "32360", "dept": "32", "lat": 43.7509, "lon": 0.5521}, {"nom": "Miélan", "cp": "32170", "dept": "32", "lat": 43.4254, "lon": 0.3089}, {"nom": "Miradoux", "cp": "32340", "dept": "32", "lat": 43.9982, "lon": 0.7564}, {"nom": "Miramont-d'Astarac", "cp": "32300", "dept": "32", "lat": 43.5482, "lon": 0.4638}, {"nom": "Miramont-Latour", "cp": "32390", "dept": "32", "lat": 43.7763, "lon": 0.6918}, {"nom": "Mirande", "cp": "32300", "dept": "32", "lat": 43.52, "lon": 0.4053}, {"nom": "Mirannes", "cp": "32350", "dept": "32", "lat": 43.6223, "lon": 0.3815}, {"nom": "Mirepoix", "cp": "32390", "dept": "32", "lat": 43.7443, "lon": 0.6706}, {"nom": "Monblanc", "cp": "32130", "dept": "32", "lat": 43.4655, "lon": 0.9966}, {"nom": "Monbrun", "cp": "32600", "dept": "32", "lat": 43.6654, "lon": 1.0372}, {"nom": "Moncassin", "cp": "32300", "dept": "32", "lat": 43.4477, "lon": 0.4778}, {"nom": "Monclar", "cp": "32150", "dept": "32", "lat": 43.9143, "lon": -0.0998}, {"nom": "Monclar-sur-Losse", "cp": "32300", "dept": "32", "lat": 43.5251, "lon": 0.336}, {"nom": "Moncorneil-Grazan", "cp": "32260", "dept": "32", "lat": 43.4519, "lon": 0.6504}, {"nom": "Monferran-Plavès", "cp": "32260", "dept": "32", "lat": 43.495, "lon": 0.641}, {"nom": "Monferran-Savès", "cp": "32490", "dept": "32", "lat": 43.6142, "lon": 0.9827}, {"nom": "Monfort", "cp": "32120", "dept": "32", "lat": 43.788, "lon": 0.8127}, {"nom": "Mongausy", "cp": "32220", "dept": "32", "lat": 43.5011, "lon": 0.8036}, {"nom": "Monguilhem", "cp": "32240", "dept": "32", "lat": 43.8557, "lon": -0.1882}, {"nom": "Monlaur-Bernet", "cp": "32140", "dept": "32", "lat": 43.3468, "lon": 0.5165}, {"nom": "Monlezun", "cp": "32230", "dept": "32", "lat": 43.4956, "lon": 0.2177}, {"nom": "Monlezun-d'Armagnac", "cp": "32240", "dept": "32", "lat": 43.8272, "lon": -0.1492}, {"nom": "Monpardiac", "cp": "32170", "dept": "32", "lat": 43.4644, "lon": 0.2445}, {"nom": "Montadet", "cp": "32220", "dept": "32", "lat": 43.4351, "lon": 0.9049}, {"nom": "Montamat", "cp": "32220", "dept": "32", "lat": 43.4888, "lon": 0.8555}, {"nom": "Montaut", "cp": "32300", "dept": "32", "lat": 43.3998, "lon": 0.4206}, {"nom": "Montaut-les-Créneaux", "cp": "32810", "dept": "32", "lat": 43.7067, "lon": 0.6652}, {"nom": "Mont-d'Astarac", "cp": "32140", "dept": "32", "lat": 43.3323, "lon": 0.5792}, {"nom": "Mont-de-Marrast", "cp": "32170", "dept": "32", "lat": 43.3886, "lon": 0.3726}, {"nom": "Montégut", "cp": "32550", "dept": "32", "lat": 43.6432, "lon": 0.6709}, {"nom": "Montégut-Arros", "cp": "32730", "dept": "32", "lat": 43.3847, "lon": 0.2224}, {"nom": "Montégut-Savès", "cp": "32220", "dept": "32", "lat": 43.4372, "lon": 0.9637}, {"nom": "Montesquiou", "cp": "32320", "dept": "32", "lat": 43.5728, "lon": 0.3292}, {"nom": "Montestruc-sur-Gers", "cp": "32390", "dept": "32", "lat": 43.7941, "lon": 0.632}, {"nom": "Monties", "cp": "32420", "dept": "32", "lat": 43.392, "lon": 0.6877}, {"nom": "Montiron", "cp": "32200", "dept": "32", "lat": 43.5888, "lon": 0.8553}, {"nom": "Montpezat", "cp": "32220", "dept": "32", "lat": 43.3867, "lon": 0.9756}, {"nom": "Montréal", "cp": "32250", "dept": "32", "lat": 43.961, "lon": 0.2097}, {"nom": "Mormès", "cp": "32240", "dept": "32", "lat": 43.7965, "lon": -0.1517}, {"nom": "Mouchan", "cp": "32330", "dept": "32", "lat": 43.8999, "lon": 0.3011}, {"nom": "Mouchès", "cp": "32300", "dept": "32", "lat": 43.5581, "lon": 0.4222}, {"nom": "Mourède", "cp": "32190", "dept": "32", "lat": 43.8015, "lon": 0.2911}, {"nom": "Nizas", "cp": "32130", "dept": "32", "lat": 43.4955, "lon": 0.9906}, {"nom": "Nogaro", "cp": "32110", "dept": "32", "lat": 43.7646, "lon": -0.0295}, {"nom": "Noilhan", "cp": "32130", "dept": "32", "lat": 43.5306, "lon": 0.9359}, {"nom": "Nougaroulet", "cp": "32270", "dept": "32", "lat": 43.6903, "lon": 0.7275}, {"nom": "Noulens", "cp": "32800", "dept": "32", "lat": 43.8016, "lon": 0.1592}, {"nom": "Orbessan", "cp": "32260", "dept": "32", "lat": 43.546, "lon": 0.6129}, {"nom": "Ordan-Larroque", "cp": "32350", "dept": "32", "lat": 43.6819, "lon": 0.4814}, {"nom": "Ornézan", "cp": "32260", "dept": "32", "lat": 43.5131, "lon": 0.5975}, {"nom": "Pallanne", "cp": "32230", "dept": "32", "lat": 43.5036, "lon": 0.2663}, {"nom": "Panassac", "cp": "32140", "dept": "32", "lat": 43.3861, "lon": 0.5693}, {"nom": "Panjas", "cp": "32110", "dept": "32", "lat": 43.827, "lon": -0.0792}, {"nom": "Pauilhac", "cp": "32500", "dept": "32", "lat": 43.8834, "lon": 0.6231}, {"nom": "Pavie", "cp": "32550", "dept": "32", "lat": 43.6055, "lon": 0.5857}, {"nom": "Pébées", "cp": "32130", "dept": "32", "lat": 43.4601, "lon": 1.0272}, {"nom": "Pellefigue", "cp": "32420", "dept": "32", "lat": 43.4822, "lon": 0.7881}, {"nom": "Perchède", "cp": "32460", "dept": "32", "lat": 43.7774, "lon": -0.1412}, {"nom": "Pergain-Taillac", "cp": "32700", "dept": "32", "lat": 44.0562, "lon": 0.5946}, {"nom": "Pessan", "cp": "32550", "dept": "32", "lat": 43.6039, "lon": 0.6671}, {"nom": "Pessoulens", "cp": "32380", "dept": "32", "lat": 43.8617, "lon": 0.885}, {"nom": "Peyrecave", "cp": "32340", "dept": "32", "lat": 43.9956, "lon": 0.8075}, {"nom": "Peyrusse-Grande", "cp": "32320", "dept": "32", "lat": 43.6303, "lon": 0.2233}, {"nom": "Peyrusse-Massas", "cp": "32360", "dept": "32", "lat": 43.7404, "lon": 0.5573}, {"nom": "Peyrusse-Vieille", "cp": "32230", "dept": "32", "lat": 43.63, "lon": 0.173}, {"nom": "Pis", "cp": "32500", "dept": "32", "lat": 43.7854, "lon": 0.7081}, {"nom": "Plaisance", "cp": "32160", "dept": "32", "lat": 43.6015, "lon": 0.0475}, {"nom": "Plieux", "cp": "32340", "dept": "32", "lat": 43.9532, "lon": 0.7492}, {"nom": "Polastron", "cp": "32130", "dept": "32", "lat": 43.5326, "lon": 0.8446}, {"nom": "Pompiac", "cp": "32130", "dept": "32", "lat": 43.5201, "lon": 1.0057}, {"nom": "Ponsampère", "cp": "32300", "dept": "32", "lat": 43.4576, "lon": 0.3717}, {"nom": "Ponsan-Soubiran", "cp": "32300", "dept": "32", "lat": 43.3508, "lon": 0.4815}, {"nom": "Pouydraguin", "cp": "32290", "dept": "32", "lat": 43.659, "lon": 0.0357}, {"nom": "Pouylebon", "cp": "32320", "dept": "32", "lat": 43.5469, "lon": 0.3035}, {"nom": "Pouy-Loubrin", "cp": "32260", "dept": "32", "lat": 43.4678, "lon": 0.618}, {"nom": "Pouy-Roquelaure", "cp": "32480", "dept": "32", "lat": 44.0391, "lon": 0.5217}, {"nom": "Préchac", "cp": "32390", "dept": "32", "lat": 43.7939, "lon": 0.5672}, {"nom": "Préchac-sur-Adour", "cp": "32160", "dept": "32", "lat": 43.6016, "lon": 0.0032}, {"nom": "Preignan", "cp": "32810", "dept": "32", "lat": 43.7205, "lon": 0.6361}, {"nom": "Préneron", "cp": "32190", "dept": "32", "lat": 43.729, "lon": 0.2718}, {"nom": "Projan", "cp": "32400", "dept": "32", "lat": 43.6093, "lon": -0.2325}, {"nom": "Pujaudran", "cp": "32600", "dept": "32", "lat": 43.592, "lon": 1.1679}, {"nom": "Puycasquier", "cp": "32120", "dept": "32", "lat": 43.7507, "lon": 0.7539}, {"nom": "Puylausic", "cp": "32220", "dept": "32", "lat": 43.4436, "lon": 0.9319}, {"nom": "Puységur", "cp": "32390", "dept": "32", "lat": 43.7751, "lon": 0.5875}, {"nom": "Ramouzens", "cp": "32800", "dept": "32", "lat": 43.8082, "lon": 0.1862}, {"nom": "Razengues", "cp": "32600", "dept": "32", "lat": 43.6437, "lon": 0.9838}, {"nom": "Réans", "cp": "32800", "dept": "32", "lat": 43.8737, "lon": 0.0362}, {"nom": "Réjaumont", "cp": "32390", "dept": "32", "lat": 43.8147, "lon": 0.5481}, {"nom": "Ricourt", "cp": "32230", "dept": "32", "lat": 43.4887, "lon": 0.1761}, {"nom": "Riguepeu", "cp": "32320", "dept": "32", "lat": 43.6602, "lon": 0.3308}, {"nom": "Riscle", "cp": "32400", "dept": "32", "lat": 43.6392, "lon": -0.0777}, {"nom": "La Romieu", "cp": "32480", "dept": "32", "lat": 43.9881, "lon": 0.4998}, {"nom": "Roquebrune", "cp": "32190", "dept": "32", "lat": 43.7078, "lon": 0.296}, {"nom": "Roquefort", "cp": "32390", "dept": "32", "lat": 43.7569, "lon": 0.5867}, {"nom": "Roquelaure", "cp": "32810", "dept": "32", "lat": 43.7234, "lon": 0.5904}, {"nom": "Roquelaure-Saint-Aubin", "cp": "32430", "dept": "32", "lat": 43.6637, "lon": 0.9841}, {"nom": "Roquepine", "cp": "32100", "dept": "32", "lat": 43.9084, "lon": 0.469}, {"nom": "Roques", "cp": "32310", "dept": "32", "lat": 43.8402, "lon": 0.2983}, {"nom": "Rozès", "cp": "32190", "dept": "32", "lat": 43.8002, "lon": 0.362}, {"nom": "Sabaillan", "cp": "32420", "dept": "32", "lat": 43.4437, "lon": 0.8158}, {"nom": "Sabazan", "cp": "32290", "dept": "32", "lat": 43.7103, "lon": 0.0482}, {"nom": "Sadeillan", "cp": "32170", "dept": "32", "lat": 43.3978, "lon": 0.3464}, {"nom": "Saint-André", "cp": "32200", "dept": "32", "lat": 43.5583, "lon": 0.8548}, {"nom": "Sainte-Anne", "cp": "32430", "dept": "32", "lat": 43.745, "lon": 0.9714}, {"nom": "Saint-Antoine", "cp": "32340", "dept": "32", "lat": 44.0404, "lon": 0.8312}, {"nom": "Saint-Antonin", "cp": "32120", "dept": "32", "lat": 43.7199, "lon": 0.8225}, {"nom": "Saint-Arailles", "cp": "32350", "dept": "32", "lat": 43.625, "lon": 0.3429}, {"nom": "Saint-Arroman", "cp": "32300", "dept": "32", "lat": 43.4344, "lon": 0.5211}, {"nom": "Saint-Aunix-Lengros", "cp": "32160", "dept": "32", "lat": 43.5731, "lon": 0.0563}, {"nom": "Sainte-Aurence-Cazaux", "cp": "32300", "dept": "32", "lat": 43.3736, "lon": 0.4274}, {"nom": "Saint-Avit-Frandat", "cp": "32700", "dept": "32", "lat": 43.9822, "lon": 0.6597}, {"nom": "Cap d'Astarac", "cp": "32140", "dept": "32", "lat": 43.3627, "lon": 0.6679}, {"nom": "Saint-Brès", "cp": "32120", "dept": "32", "lat": 43.785, "lon": 0.7688}, {"nom": "Saint-Christaud", "cp": "32320", "dept": "32", "lat": 43.525, "lon": 0.2614}, {"nom": "Sainte-Christie", "cp": "32390", "dept": "32", "lat": 43.7549, "lon": 0.632}, {"nom": "Sainte-Christie-d'Armagnac", "cp": "32370", "dept": "32", "lat": 43.7944, "lon": -0.0048}, {"nom": "Saint-Clar", "cp": "32380", "dept": "32", "lat": 43.896, "lon": 0.7678}, {"nom": "Saint-Créac", "cp": "32380", "dept": "32", "lat": 43.9168, "lon": 0.7941}, {"nom": "Saint-Cricq", "cp": "32430", "dept": "32", "lat": 43.698, "lon": 0.9884}, {"nom": "Sainte-Dode", "cp": "32170", "dept": "32", "lat": 43.4193, "lon": 0.3677}, {"nom": "Saint-Élix-d'Astarac", "cp": "32450", "dept": "32", "lat": 43.4949, "lon": 0.7721}, {"nom": "Saint-Élix-Theux", "cp": "32300", "dept": "32", "lat": 43.4285, "lon": 0.4684}, {"nom": "Sainte-Gemme", "cp": "32120", "dept": "32", "lat": 43.775, "lon": 0.7901}, {"nom": "Saint-Georges", "cp": "32430", "dept": "32", "lat": 43.7374, "lon": 0.9295}, {"nom": "Saint-Germé", "cp": "32400", "dept": "32", "lat": 43.6753, "lon": -0.1499}, {"nom": "Saint-Germier", "cp": "32200", "dept": "32", "lat": 43.6733, "lon": 0.9581}, {"nom": "Saint-Griède", "cp": "32110", "dept": "32", "lat": 43.7249, "lon": -0.0969}, {"nom": "Saint-Jean-le-Comtal", "cp": "32550", "dept": "32", "lat": 43.5762, "lon": 0.5116}, {"nom": "Saint-Jean-Poutge", "cp": "32190", "dept": "32", "lat": 43.7368, "lon": 0.3825}, {"nom": "Saint-Justin", "cp": "32230", "dept": "32", "lat": 43.4847, "lon": 0.1517}, {"nom": "Saint-Lary", "cp": "32360", "dept": "32", "lat": 43.7189, "lon": 0.4966}, {"nom": "Saint-Léonard", "cp": "32380", "dept": "32", "lat": 43.8559, "lon": 0.7694}, {"nom": "Saint-Lizier-du-Planté", "cp": "32220", "dept": "32", "lat": 43.4077, "lon": 0.945}, {"nom": "Saint-Loube", "cp": "32220", "dept": "32", "lat": 43.44, "lon": 1.0058}, {"nom": "Sainte-Marie", "cp": "32200", "dept": "32", "lat": 43.6747, "lon": 0.8633}, {"nom": "Saint-Martin", "cp": "32300", "dept": "32", "lat": 43.5096, "lon": 0.3758}, {"nom": "Saint-Martin-d'Armagnac", "cp": "32110", "dept": "32", "lat": 43.7131, "lon": -0.0634}, {"nom": "Saint-Martin-de-Goyne", "cp": "32480", "dept": "32", "lat": 44.0022, "lon": 0.5736}, {"nom": "Saint-Martin-Gimois", "cp": "32450", "dept": "32", "lat": 43.521, "lon": 0.8126}, {"nom": "Saint-Maur", "cp": "32300", "dept": "32", "lat": 43.483, "lon": 0.3509}, {"nom": "Saint-Médard", "cp": "32300", "dept": "32", "lat": 43.4855, "lon": 0.4622}, {"nom": "Sainte-Mère", "cp": "32700", "dept": "32", "lat": 44.0008, "lon": 0.6843}, {"nom": "Saint-Mézard", "cp": "32700", "dept": "32", "lat": 44.0363, "lon": 0.5719}, {"nom": "Saint-Michel", "cp": "32300", "dept": "32", "lat": 43.4299, "lon": 0.3988}, {"nom": "Saint-Mont", "cp": "32400", "dept": "32", "lat": 43.6399, "lon": -0.1442}, {"nom": "Saint-Orens", "cp": "32120", "dept": "32", "lat": 43.7128, "lon": 0.9164}, {"nom": "Saint-Orens-Pouy-Petit", "cp": "32100", "dept": "32", "lat": 43.9126, "lon": 0.4382}, {"nom": "Saint-Ost", "cp": "32300", "dept": "32", "lat": 43.3754, "lon": 0.4661}, {"nom": "Saint-Paul-de-Baïse", "cp": "32190", "dept": "32", "lat": 43.7811, "lon": 0.3714}, {"nom": "Saint-Pierre-d'Aubézies", "cp": "32290", "dept": "32", "lat": 43.6501, "lon": 0.1601}, {"nom": "Saint-Puy", "cp": "32310", "dept": "32", "lat": 43.8705, "lon": 0.4585}, {"nom": "Sainte-Radegonde", "cp": "32500", "dept": "32", "lat": 43.8407, "lon": 0.5867}, {"nom": "Saint-Sauvy", "cp": "32270", "dept": "32", "lat": 43.6959, "lon": 0.8091}, {"nom": "Saint-Soulan", "cp": "32220", "dept": "32", "lat": 43.5093, "lon": 0.8637}, {"nom": "Salles-d'Armagnac", "cp": "32370", "dept": "32", "lat": 43.8133, "lon": -0.045}, {"nom": "Samaran", "cp": "32140", "dept": "32", "lat": 43.3929, "lon": 0.5314}, {"nom": "Samatan", "cp": "32130", "dept": "32", "lat": 43.4928, "lon": 0.9279}, {"nom": "Sansan", "cp": "32260", "dept": "32", "lat": 43.5277, "lon": 0.6082}, {"nom": "Saramon", "cp": "32450", "dept": "32", "lat": 43.5266, "lon": 0.764}, {"nom": "Sarragachies", "cp": "32400", "dept": "32", "lat": 43.685, "lon": -0.051}, {"nom": "Sarraguzan", "cp": "32170", "dept": "32", "lat": 43.3663, "lon": 0.3441}, {"nom": "Sarrant", "cp": "32120", "dept": "32", "lat": 43.7698, "lon": 0.9317}, {"nom": "La Sauvetat", "cp": "32500", "dept": "32", "lat": 43.8497, "lon": 0.5369}, {"nom": "Sauveterre", "cp": "32220", "dept": "32", "lat": 43.4533, "lon": 0.8503}, {"nom": "Sauviac", "cp": "32300", "dept": "32", "lat": 43.4107, "lon": 0.4586}, {"nom": "Sauvimont", "cp": "32220", "dept": "32", "lat": 43.4496, "lon": 0.9675}, {"nom": "Savignac-Mona", "cp": "32130", "dept": "32", "lat": 43.4852, "lon": 1.0092}, {"nom": "Scieurac-et-Flourès", "cp": "32230", "dept": "32", "lat": 43.5561, "lon": 0.1979}, {"nom": "Séailles", "cp": "32190", "dept": "32", "lat": 43.751, "lon": 0.1115}, {"nom": "Ségos", "cp": "32400", "dept": "32", "lat": 43.6315, "lon": -0.2601}, {"nom": "Ségoufielle", "cp": "32600", "dept": "32", "lat": 43.6292, "lon": 1.1308}, {"nom": "Seissan", "cp": "32260", "dept": "32", "lat": 43.5011, "lon": 0.5757}, {"nom": "Sembouès", "cp": "32230", "dept": "32", "lat": 43.4672, "lon": 0.1714}, {"nom": "Sémézies-Cachan", "cp": "32450", "dept": "32", "lat": 43.5017, "lon": 0.7335}, {"nom": "Sempesserre", "cp": "32700", "dept": "32", "lat": 44.0214, "lon": 0.6452}, {"nom": "Sère", "cp": "32140", "dept": "32", "lat": 43.4045, "lon": 0.6493}, {"nom": "Sérempuy", "cp": "32120", "dept": "32", "lat": 43.7628, "lon": 0.8234}, {"nom": "Seysses-Savès", "cp": "32130", "dept": "32", "lat": 43.5139, "lon": 1.0454}, {"nom": "Simorre", "cp": "32420", "dept": "32", "lat": 43.4586, "lon": 0.7417}, {"nom": "Sion", "cp": "32110", "dept": "32", "lat": 43.7384, "lon": 0.0055}, {"nom": "Sirac", "cp": "32430", "dept": "32", "lat": 43.7014, "lon": 0.9522}, {"nom": "Solomiac", "cp": "32120", "dept": "32", "lat": 43.8036, "lon": 0.8867}, {"nom": "Sorbets", "cp": "32110", "dept": "32", "lat": 43.7127, "lon": -0.0187}, {"nom": "Tachoires", "cp": "32260", "dept": "32", "lat": 43.4734, "lon": 0.6572}, {"nom": "Tarsac", "cp": "32400", "dept": "32", "lat": 43.6678, "lon": -0.1146}, {"nom": "Tasque", "cp": "32160", "dept": "32", "lat": 43.6372, "lon": 0.0121}, {"nom": "Taybosc", "cp": "32120", "dept": "32", "lat": 43.7866, "lon": 0.7424}, {"nom": "Terraube", "cp": "32700", "dept": "32", "lat": 43.8999, "lon": 0.5495}, {"nom": "Termes-d'Armagnac", "cp": "32400", "dept": "32", "lat": 43.6755, "lon": -0.0128}, {"nom": "Thoux", "cp": "32430", "dept": "32", "lat": 43.6808, "lon": 0.9926}, {"nom": "Tieste-Uragnoux", "cp": "32160", "dept": "32", "lat": 43.5521, "lon": 0.0313}, {"nom": "Tillac", "cp": "32170", "dept": "32", "lat": 43.4781, "lon": 0.2631}, {"nom": "Tirent-Pontéjac", "cp": "32450", "dept": "32", "lat": 43.5457, "lon": 0.7929}, {"nom": "Touget", "cp": "32430", "dept": "32", "lat": 43.6846, "lon": 0.9159}, {"nom": "Toujouse", "cp": "32240", "dept": "32", "lat": 43.8229, "lon": -0.1826}, {"nom": "Tourdun", "cp": "32230", "dept": "32", "lat": 43.5453, "lon": 0.1611}, {"nom": "Tournan", "cp": "32420", "dept": "32", "lat": 43.426, "lon": 0.7913}, {"nom": "Tournecoupe", "cp": "32380", "dept": "32", "lat": 43.8615, "lon": 0.8302}, {"nom": "Tourrenquets", "cp": "32390", "dept": "32", "lat": 43.7486, "lon": 0.7017}, {"nom": "Traversères", "cp": "32450", "dept": "32", "lat": 43.5341, "lon": 0.651}, {"nom": "Troncens", "cp": "32230", "dept": "32", "lat": 43.4542, "lon": 0.2202}, {"nom": "Tudelle", "cp": "32190", "dept": "32", "lat": 43.6829, "lon": 0.2878}, {"nom": "Urdens", "cp": "32500", "dept": "32", "lat": 43.8641, "lon": 0.7097}, {"nom": "Urgosse", "cp": "32110", "dept": "32", "lat": 43.7402, "lon": -0.0214}, {"nom": "Valence-sur-Baïse", "cp": "32310", "dept": "32", "lat": 43.8722, "lon": 0.3637}, {"nom": "Vergoignan", "cp": "32720", "dept": "32", "lat": 43.7243, "lon": -0.1899}, {"nom": "Verlus", "cp": "32400", "dept": "32", "lat": 43.6004, "lon": -0.198}, {"nom": "Vic-Fezensac", "cp": "32190", "dept": "32", "lat": 43.7662, "lon": 0.2903}, {"nom": "Viella", "cp": "32400", "dept": "32", "lat": 43.6025, "lon": -0.1425}, {"nom": "Villecomtal-sur-Arros", "cp": "32730", "dept": "32", "lat": 43.3989, "lon": 0.2069}, {"nom": "Villefranche-d'Astarac", "cp": "32420", "dept": "32", "lat": 43.4219, "lon": 0.7326}, {"nom": "Viozan", "cp": "32300", "dept": "32", "lat": 43.3966, "lon": 0.4672}, {"nom": "Saint-Caprais", "cp": "32200", "dept": "32", "lat": 43.5956, "lon": 0.7945}, {"nom": "Aussos", "cp": "32140", "dept": "32", "lat": 43.3768, "lon": 0.6434}]