[{"nom": "Allanche", "cp": "15160", "dept": "15", "lat": 45.2285, "lon": 2.961}, {"nom": "Alleuze", "cp": "15100", "dept": "15", "lat": 44.9548, "lon": 3.1037}, {"nom": "Ally", "cp": "15700", "dept": "15", "lat": 45.1617, "lon": 2.3341}, {"nom": "Andelat", "cp": "15100", "dept": "15", "lat": 45.0653, "lon": 3.055}, {"nom": "Anglards-de-Saint-Flour", "cp": "15100", "dept": "15", "lat": 44.9881, "lon": 3.1635}, {"nom": "Anglards-de-Salers", "cp": "15380", "dept": "15", "lat": 45.199, "lon": 2.4854}, {"nom": "Anterrieux", "cp": "15110", "dept": "15", "lat": 44.827, "lon": 3.0637}, {"nom": "Antignac", "cp": "15240", "dept": "15", "lat": 45.3545, "lon": 2.5608}, {"nom": "Apchon", "cp": "15400", "dept": "15", "lat": 45.2446, "lon": 2.7013}, {"nom": "Arches", "cp": "15200", "dept": "15", "lat": 45.297, "lon": 2.3152}, {"nom": "Arnac", "cp": "15150", "dept": "15", "lat": 45.0646, "lon": 2.2204}, {"nom": "Arpajon-sur-Cère", "cp": "15130", "dept": "15", "lat": 44.879, "lon": 2.4631}, {"nom": "Auriac-l'Église", "cp": "15500", "dept": "15", "lat": 45.2663, "lon": 3.1156}, {"nom": "Aurillac", "cp": "15000", "dept": "15", "lat": 44.9281, "lon": 2.4416}, {"nom": "Auzers", "cp": "15240", "dept": "15", "lat": 45.2732, "lon": 2.4681}, {"nom": "Ayrens", "cp": "15250", "dept": "15", "lat": 44.9907, "lon": 2.3266}, {"nom": "Badailhac", "cp": "15800", "dept": "15", "lat": 44.9144, "lon": 2.626}, {"nom": "Barriac-les-Bosquets", "cp": "15700", "dept": "15", "lat": 45.1483, "lon": 2.2656}, {"nom": "Bassignac", "cp": "15240", "dept": "15", "lat": 45.3116, "lon": 2.4044}, {"nom": "Beaulieu", "cp": "15270", "dept": "15", "lat": 45.465, "lon": 2.5204}, {"nom": "Boisset", "cp": "15600", "dept": "15", "lat": 44.7816, "lon": 2.2575}, {"nom": "Bonnac", "cp": "15500", "dept": "15", "lat": 45.2114, "lon": 3.1438}, {"nom": "Brageac", "cp": "15700", "dept": "15", "lat": 45.2026, "lon": 2.2624}, {"nom": "Albepierre-Bredons", "cp": "15300", "dept": "15", "lat": 45.0777, "lon": 2.8268}, {"nom": "Brezons", "cp": "15230", "dept": "15", "lat": 45.005, "lon": 2.7865}, {"nom": "Puycapel", "cp": "15340", "dept": "15", "lat": 44.7065, "lon": 2.325}, {"nom": "Carlat", "cp": "15130", "dept": "15", "lat": 44.8776, "lon": 2.5729}, {"nom": "Cassaniouze", "cp": "15340", "dept": "15", "lat": 44.6761, "lon": 2.3822}, {"nom": "Cayrols", "cp": "15290", "dept": "15", "lat": 44.8266, "lon": 2.2243}, {"nom": "Celles", "cp": "15170", "dept": "15", "lat": 45.1023, "lon": 2.9554}, {"nom": "Celoux", "cp": "15500", "dept": "15", "lat": 45.1377, "lon": 3.2595}, {"nom": "Cézens", "cp": "15230", "dept": "15", "lat": 44.9919, "lon": 2.8572}, {"nom": "Chaliers", "cp": "15320", "dept": "15", "lat": 44.9677, "lon": 3.2378}, {"nom": "Chalinargues", "cp": "15170", "dept": "15", "lat": 45.1628, "lon": 2.9343}, {"nom": "Chalvignac", "cp": "15200", "dept": "15", "lat": 45.251, "lon": 2.2624}, {"nom": "Champagnac", "cp": "15350", "dept": "15", "lat": 45.3673, "lon": 2.4001}, {"nom": "Champs-sur-Tarentaine-Marchal", "cp": "15270", "dept": "15", "lat": 45.4043, "lon": 2.6053}, {"nom": "Chanterelle", "cp": "15190", "dept": "15", "lat": 45.3761, "lon": 2.8308}, {"nom": "La Chapelle-d'Alagnon", "cp": "15300", "dept": "15", "lat": 45.1037, "lon": 2.9072}, {"nom": "La Chapelle-Laurent", "cp": "15500", "dept": "15", "lat": 45.1827, "lon": 3.2395}, {"nom": "Charmensac", "cp": "15500", "dept": "15", "lat": 45.2255, "lon": 3.0742}, {"nom": "Chaudes-Aigues", "cp": "15110", "dept": "15", "lat": 44.8423, "lon": 3.0057}, {"nom": "Chaussenac", "cp": "15700", "dept": "15", "lat": 45.1726, "lon": 2.2686}, {"nom": "Chavagnac", "cp": "15300", "dept": "15", "lat": 45.1629, "lon": 2.8757}, {"nom": "Chazelles", "cp": "15500", "dept": "15", "lat": 45.1066, "lon": 3.3313}, {"nom": "Cheylade", "cp": "15400", "dept": "15", "lat": 45.2087, "lon": 2.7097}, {"nom": "Le Claux", "cp": "15400", "dept": "15", "lat": 45.1433, "lon": 2.7038}, {"nom": "Clavières", "cp": "15320", "dept": "15", "lat": 44.9926, "lon": 3.3137}, {"nom": "Collandres", "cp": "15400", "dept": "15", "lat": 45.213, "lon": 2.6387}, {"nom": "Coltines", "cp": "15170", "dept": "15", "lat": 45.0939, "lon": 2.9944}, {"nom": "Condat", "cp": "15190", "dept": "15", "lat": 45.3493, "lon": 2.7964}, {"nom": "Coren", "cp": "15100", "dept": "15", "lat": 45.0871, "lon": 3.1021}, {"nom": "Crandelles", "cp": "15250", "dept": "15", "lat": 44.9591, "lon": 2.3589}, {"nom": "Cros-de-Montvert", "cp": "15150", "dept": "15", "lat": 45.0572, "lon": 2.154}, {"nom": "Cros-de-Ronesque", "cp": "15130", "dept": "15", "lat": 44.8577, "lon": 2.6108}, {"nom": "Cussac", "cp": "15430", "dept": "15", "lat": 44.9804, "lon": 2.9353}, {"nom": "Deux-Verges", "cp": "15110", "dept": "15", "lat": 44.7996, "lon": 3.0178}, {"nom": "Dienne", "cp": "15300", "dept": "15", "lat": 45.1614, "lon": 2.8112}, {"nom": "Drugeac", "cp": "15140", "dept": "15", "lat": 45.1601, "lon": 2.385}, {"nom": "Escorailles", "cp": "15700", "dept": "15", "lat": 45.1704, "lon": 2.3296}, {"nom": "Espinasse", "cp": "15110", "dept": "15", "lat": 44.8702, "lon": 2.9266}, {"nom": "Le Falgoux", "cp": "15380", "dept": "15", "lat": 45.142, "lon": 2.6299}, {"nom": "Le Fau", "cp": "15140", "dept": "15", "lat": 45.1106, "lon": 2.5971}, {"nom": "Ferrières-Saint-Mary", "cp": "15170", "dept": "15", "lat": 45.1698, "lon": 3.0789}, {"nom": "Fontanges", "cp": "15140", "dept": "15", "lat": 45.1106, "lon": 2.5196}, {"nom": "Freix-Anglards", "cp": "15310", "dept": "15", "lat": 45.018, "lon": 2.3791}, {"nom": "Fridefont", "cp": "15110", "dept": "15", "lat": 44.9061, "lon": 3.0908}, {"nom": "Giou-de-Mamou", "cp": "15130", "dept": "15", "lat": 44.9355, "lon": 2.5089}, {"nom": "Girgols", "cp": "15310", "dept": "15", "lat": 45.05, "lon": 2.5224}, {"nom": "Glénat", "cp": "15150", "dept": "15", "lat": 44.8965, "lon": 2.1745}, {"nom": "Gourdièges", "cp": "15230", "dept": "15", "lat": 44.9448, "lon": 2.8823}, {"nom": "Jabrun", "cp": "15110", "dept": "15", "lat": 44.7974, "lon": 2.9627}, {"nom": "Jaleyrac", "cp": "15200", "dept": "15", "lat": 45.2715, "lon": 2.3657}, {"nom": "Joursac", "cp": "15170", "dept": "15", "lat": 45.1617, "lon": 3.0158}, {"nom": "Jou-sous-Monjou", "cp": "15800", "dept": "15", "lat": 44.9411, "lon": 2.6605}, {"nom": "Junhac", "cp": "15120", "dept": "15", "lat": 44.6945, "lon": 2.4495}, {"nom": "Jussac", "cp": "15250", "dept": "15", "lat": 44.997, "lon": 2.4189}, {"nom": "Labesserette", "cp": "15120", "dept": "15", "lat": 44.7437, "lon": 2.4803}, {"nom": "Labrousse", "cp": "15130", "dept": "15", "lat": 44.8502, "lon": 2.5483}, {"nom": "Lacapelle-Barrès", "cp": "15230", "dept": "15", "lat": 44.9516, "lon": 2.7245}, {"nom": "Lacapelle-del-Fraisse", "cp": "15120", "dept": "15", "lat": 44.7737, "lon": 2.4307}, {"nom": "Lacapelle-Viescamp", "cp": "15150", "dept": "15", "lat": 44.9279, "lon": 2.2744}, {"nom": "Ladinhac", "cp": "15120", "dept": "15", "lat": 44.7683, "lon": 2.5125}, {"nom": "Lafeuillade-en-Vézie", "cp": "15130", "dept": "15", "lat": 44.793, "lon": 2.4439}, {"nom": "Landeyrat", "cp": "15160", "dept": "15", "lat": 45.2734, "lon": 2.8682}, {"nom": "Lanobre", "cp": "15270", "dept": "15", "lat": 45.4355, "lon": 2.5567}, {"nom": "Lapeyrugue", "cp": "15120", "dept": "15", "lat": 44.7294, "lon": 2.5339}, {"nom": "Laroquebrou", "cp": "15150", "dept": "15", "lat": 44.9705, "lon": 2.2017}, {"nom": "Laroquevieille", "cp": "15250", "dept": "15", "lat": 45.0283, "lon": 2.5257}, {"nom": "Lascelle", "cp": "15590", "dept": "15", "lat": 45.0355, "lon": 2.579}, {"nom": "Lastic", "cp": "15500", "dept": "15", "lat": 45.1115, "lon": 3.2203}, {"nom": "Laurie", "cp": "15500", "dept": "15", "lat": 45.284, "lon": 3.0853}, {"nom": "Laveissenet", "cp": "15300", "dept": "15", "lat": 45.0726, "lon": 2.8719}, {"nom": "Laveissière", "cp": "15300", "dept": "15", "lat": 45.0985, "lon": 2.7837}, {"nom": "Lavigerie", "cp": "15300", "dept": "15", "lat": 45.1274, "lon": 2.7269}, {"nom": "Leucamp", "cp": "15120", "dept": "15", "lat": 44.7829, "lon": 2.5363}, {"nom": "Leynhac", "cp": "15600", "dept": "15", "lat": 44.7414, "lon": 2.278}, {"nom": "Leyvaux", "cp": "43450", "dept": "15", "lat": 45.3272, "lon": 3.086}, {"nom": "Lieutadès", "cp": "15110", "dept": "15", "lat": 44.829, "lon": 2.9022}, {"nom": "Lorcières", "cp": "15320", "dept": "15", "lat": 44.9503, "lon": 3.2938}, {"nom": "Val d'Arcomie", "cp": "15320", "dept": "15", "lat": 44.9193, "lon": 3.1723}, {"nom": "Lugarde", "cp": "15190", "dept": "15", "lat": 45.2858, "lon": 2.7569}, {"nom": "Madic", "cp": "15210", "dept": "15", "lat": 45.3726, "lon": 2.4593}, {"nom": "Malbo", "cp": "15230", "dept": "15", "lat": 44.9857, "lon": 2.7554}, {"nom": "Mandailles-Saint-Julien", "cp": "15590", "dept": "15", "lat": 45.0775, "lon": 2.6649}, {"nom": "Marcenat", "cp": "15190", "dept": "15", "lat": 45.3119, "lon": 2.8569}, {"nom": "Marchastel", "cp": "15400", "dept": "15", "lat": 45.2718, "lon": 2.7334}, {"nom": "Marcolès", "cp": "15220", "dept": "15", "lat": 44.7839, "lon": 2.3462}, {"nom": "Marmanhac", "cp": "15250", "dept": "15", "lat": 45.0075, "lon": 2.4789}, {"nom": "Massiac", "cp": "15500", "dept": "15", "lat": 45.2439, "lon": 3.1954}, {"nom": "Mauriac", "cp": "15200", "dept": "15", "lat": 45.2209, "lon": 2.3209}, {"nom": "Maurines", "cp": "15110", "dept": "15", "lat": 44.8706, "lon": 3.0842}, {"nom": "Maurs", "cp": "15600", "dept": "15", "lat": 44.7151, "lon": 2.1729}, {"nom": "Méallet", "cp": "15200", "dept": "15", "lat": 45.2623, "lon": 2.4172}, {"nom": "Menet", "cp": "15400", "dept": "15", "lat": 45.296, "lon": 2.5781}, {"nom": "Mentières", "cp": "15100", "dept": "15", "lat": 45.0782, "lon": 3.1426}, {"nom": "Molèdes", "cp": "15500", "dept": "15", "lat": 45.2685, "lon": 3.0485}, {"nom": "Molompize", "cp": "15500", "dept": "15", "lat": 45.2276, "lon": 3.1284}, {"nom": "La Monselie", "cp": "15240", "dept": "15", "lat": 45.3203, "lon": 2.554}, {"nom": "Montboudif", "cp": "15190", "dept": "15", "lat": 45.3708, "lon": 2.727}, {"nom": "Montchamp", "cp": "15100", "dept": "15", "lat": 45.0709, "lon": 3.2128}, {"nom": "Le Monteil", "cp": "15240", "dept": "15", "lat": 45.2997, "lon": 2.5092}, {"nom": "Montgreleix", "cp": "15190", "dept": "15", "lat": 45.3571, "lon": 2.8874}, {"nom": "Montmurat", "cp": "15600", "dept": "15", "lat": 44.6298, "lon": 2.1987}, {"nom": "Montsalvy", "cp": "15120", "dept": "15", "lat": 44.6879, "lon": 2.4995}, {"nom": "Montvert", "cp": "15150", "dept": "15", "lat": 44.9973, "lon": 2.1634}, {"nom": "Moussages", "cp": "15380", "dept": "15", "lat": 45.2389, "lon": 2.4741}, {"nom": "Murat", "cp": "15300", "dept": "15", "lat": 45.1236, "lon": 2.8501}, {"nom": "Narnhac", "cp": "15230", "dept": "15", "lat": 44.9375, "lon": 2.7645}, {"nom": "Naucelles", "cp": "15250", "dept": "15", "lat": 44.952, "lon": 2.4203}, {"nom": "Neussargues-Moissac", "cp": "15170", "dept": "15", "lat": 45.136, "lon": 2.9875}, {"nom": "Neuvéglise-sur-Truyère", "cp": "15100", "dept": "15", "lat": 44.936, "lon": 2.9767}, {"nom": "Nieudan", "cp": "15150", "dept": "15", "lat": 44.9818, "lon": 2.2415}, {"nom": "Omps", "cp": "15290", "dept": "15", "lat": 44.8812, "lon": 2.2724}, {"nom": "Pailherols", "cp": "15800", "dept": "15", "lat": 44.9684, "lon": 2.7088}, {"nom": "Parlan", "cp": "15290", "dept": "15", "lat": 44.8213, "lon": 2.171}, {"nom": "Paulhac", "cp": "15430", "dept": "15", "lat": 45.0179, "lon": 2.8841}, {"nom": "Paulhenc", "cp": "15230", "dept": "15", "lat": 44.8808, "lon": 2.814}, {"nom": "Peyrusse", "cp": "15170", "dept": "15", "lat": 45.2137, "lon": 3.0316}, {"nom": "Pierrefort", "cp": "15230", "dept": "15", "lat": 44.9281, "lon": 2.8362}, {"nom": "Pleaux", "cp": "15700", "dept": "15", "lat": 45.1468, "lon": 2.2563}, {"nom": "Polminhac", "cp": "15800", "dept": "15", "lat": 44.9554, "lon": 2.5816}, {"nom": "Pradiers", "cp": "15160", "dept": "15", "lat": 45.2834, "lon": 2.9191}, {"nom": "Prunet", "cp": "15130", "dept": "15", "lat": 44.8272, "lon": 2.4647}, {"nom": "Quézac", "cp": "15600", "dept": "15", "lat": 44.754, "lon": 2.1787}, {"nom": "Rageade", "cp": "15500", "dept": "15", "lat": 45.1169, "lon": 3.2705}, {"nom": "Raulhac", "cp": "15800", "dept": "15", "lat": 44.9022, "lon": 2.6573}, {"nom": "Reilhac", "cp": "15250", "dept": "15", "lat": 44.9674, "lon": 2.4251}, {"nom": "Rézentières", "cp": "15170", "dept": "15", "lat": 45.1333, "lon": 3.1066}, {"nom": "Riom-ès-Montagnes", "cp": "15400", "dept": "15", "lat": 45.2999, "lon": 2.6569}, {"nom": "Roannes-Saint-Mary", "cp": "15220", "dept": "15", "lat": 44.8407, "lon": 2.3986}, {"nom": "Roffiac", "cp": "15100", "dept": "15", "lat": 45.0475, "lon": 3.0154}, {"nom": "Rouffiac", "cp": "15150", "dept": "15", "lat": 45.031, "lon": 2.1461}, {"nom": "Roumégoux", "cp": "15290", "dept": "15", "lat": 44.8611, "lon": 2.1872}, {"nom": "Rouziers", "cp": "15600", "dept": "15", "lat": 44.7936, "lon": 2.2036}, {"nom": "Ruynes-en-Margeride", "cp": "15320", "dept": "15", "lat": 45.0015, "lon": 3.2258}, {"nom": "Saignes", "cp": "15240", "dept": "15", "lat": 45.3333, "lon": 2.482}, {"nom": "Saint-Amandin", "cp": "15190", "dept": "15", "lat": 45.3302, "lon": 2.7139}, {"nom": "Sainte-Anastasie", "cp": "15170", "dept": "15", "lat": 45.1794, "lon": 2.9723}, {"nom": "Saint-Antoine", "cp": "15220", "dept": "15", "lat": 44.7486, "lon": 2.3366}, {"nom": "Saint-Bonnet-de-Condat", "cp": "15190", "dept": "15", "lat": 45.2786, "lon": 2.8094}, {"nom": "Saint-Bonnet-de-Salers", "cp": "15140", "dept": "15", "lat": 45.158, "lon": 2.4993}, {"nom": "Saint-Cernin", "cp": "15310", "dept": "15", "lat": 45.0495, "lon": 2.4223}, {"nom": "Saint-Chamant", "cp": "15140", "dept": "15", "lat": 45.0947, "lon": 2.4493}, {"nom": "Saint-Cirgues-de-Jordanne", "cp": "15590", "dept": "15", "lat": 45.0448, "lon": 2.603}, {"nom": "Saint-Cirgues-de-Malbert", "cp": "15140", "dept": "15", "lat": 45.0858, "lon": 2.3761}, {"nom": "Saint-Clément", "cp": "15800", "dept": "15", "lat": 44.985, "lon": 2.6836}, {"nom": "Saint-Constant-Fournoulès", "cp": "15600", "dept": "15", "lat": 44.6893, "lon": 2.2654}, {"nom": "Saint-Étienne-Cantalès", "cp": "15150", "dept": "15", "lat": 44.9455, "lon": 2.2431}, {"nom": "Saint-Étienne-de-Carlat", "cp": "15130", "dept": "15", "lat": 44.9126, "lon": 2.5848}, {"nom": "Saint-Étienne-de-Maurs", "cp": "15600", "dept": "15", "lat": 44.7207, "lon": 2.2405}, {"nom": "Saint-Étienne-de-Chomeil", "cp": "15400", "dept": "15", "lat": 45.3438, "lon": 2.6198}, {"nom": "Sainte-Eulalie", "cp": "15140", "dept": "15", "lat": 45.1243, "lon": 2.3819}, {"nom": "Saint-Flour", "cp": "15100", "dept": "15", "lat": 45.0251, "lon": 3.073}, {"nom": "Saint-Georges", "cp": "15100", "dept": "15", "lat": 45.0219, "lon": 3.1442}, {"nom": "Saint-Gérons", "cp": "15150", "dept": "15", "lat": 44.9422, "lon": 2.2063}, {"nom": "Saint-Hippolyte", "cp": "15400", "dept": "15", "lat": 45.2178, "lon": 2.7081}, {"nom": "Saint-Illide", "cp": "15310", "dept": "15", "lat": 45.0463, "lon": 2.3152}, {"nom": "Saint-Jacques-des-Blats", "cp": "15800", "dept": "15", "lat": 45.0536, "lon": 2.7185}, {"nom": "Saint-Julien-de-Toursac", "cp": "15600", "dept": "15", "lat": 44.771, "lon": 2.2028}, {"nom": "Saint-Mamet-la-Salvetat", "cp": "15220", "dept": "15", "lat": 44.865, "lon": 2.3059}, {"nom": "Sainte-Marie", "cp": "15230", "dept": "15", "lat": 44.8967, "lon": 2.888}, {"nom": "Saint-Martial", "cp": "15110", "dept": "15", "lat": 44.8845, "lon": 3.0385}, {"nom": "Saint-Martin-Cantalès", "cp": "15140", "dept": "15", "lat": 45.0909, "lon": 2.2995}, {"nom": "Saint-Martin-sous-Vigouroux", "cp": "15230", "dept": "15", "lat": 44.9435, "lon": 2.7969}, {"nom": "Saint-Martin-Valmeroux", "cp": "15140", "dept": "15", "lat": 45.1216, "lon": 2.4452}, {"nom": "Saint-Mary-le-Plain", "cp": "15500", "dept": "15", "lat": 45.1714, "lon": 3.1495}, {"nom": "Saint-Paul-des-Landes", "cp": "15250", "dept": "15", "lat": 44.9475, "lon": 2.3043}, {"nom": "Saint-Paul-de-Salers", "cp": "15140", "dept": "15", "lat": 45.1374, "lon": 2.5504}, {"nom": "Saint-Pierre", "cp": "15350", "dept": "15", "lat": 45.3954, "lon": 2.3862}, {"nom": "Saint-Poncy", "cp": "15500", "dept": "15", "lat": 45.1691, "lon": 3.1914}, {"nom": "Saint-Projet-de-Salers", "cp": "15140", "dept": "15", "lat": 45.0853, "lon": 2.5671}, {"nom": "Saint-Rémy-de-Chaudes-Aigues", "cp": "15110", "dept": "15", "lat": 44.7683, "lon": 3.0248}, {"nom": "Saint-Santin-Cantalès", "cp": "15150", "dept": "15", "lat": 45.0234, "lon": 2.2355}, {"nom": "Saint-Santin-de-Maurs", "cp": "15600", "dept": "15", "lat": 44.6532, "lon": 2.2187}, {"nom": "Saint-Saturnin", "cp": "15190", "dept": "15", "lat": 45.2268, "lon": 2.7978}, {"nom": "Saint-Saury", "cp": "15290", "dept": "15", "lat": 44.877, "lon": 2.124}, {"nom": "Saint-Simon", "cp": "15130", "dept": "15", "lat": 44.966, "lon": 2.4998}, {"nom": "Saint-Urcize", "cp": "15110", "dept": "15", "lat": 44.7018, "lon": 2.985}, {"nom": "Saint-Victor", "cp": "15150", "dept": "15", "lat": 45.0085, "lon": 2.2905}, {"nom": "Saint-Vincent-de-Salers", "cp": "15380", "dept": "15", "lat": 45.2052, "lon": 2.5372}, {"nom": "Salers", "cp": "15140", "dept": "15", "lat": 45.144, "lon": 2.5016}, {"nom": "Salins", "cp": "15200", "dept": "15", "lat": 45.1906, "lon": 2.4029}, {"nom": "Sansac-de-Marmiesse", "cp": "15130", "dept": "15", "lat": 44.8882, "lon": 2.3469}, {"nom": "Sansac-Veinazès", "cp": "15120", "dept": "15", "lat": 44.7456, "lon": 2.4277}, {"nom": "Sauvat", "cp": "15240", "dept": "15", "lat": 45.3068, "lon": 2.4394}, {"nom": "La Ségalassière", "cp": "15290", "dept": "15", "lat": 44.8934, "lon": 2.2099}, {"nom": "Ségur-les-Villas", "cp": "15300", "dept": "15", "lat": 45.2094, "lon": 2.8237}, {"nom": "Sénezergues", "cp": "15340", "dept": "15", "lat": 44.7163, "lon": 2.4103}, {"nom": "Siran", "cp": "15150", "dept": "15", "lat": 44.9448, "lon": 2.1218}, {"nom": "Soulages", "cp": "15100", "dept": "15", "lat": 45.0897, "lon": 3.2714}, {"nom": "Sourniac", "cp": "15200", "dept": "15", "lat": 45.2731, "lon": 2.3356}, {"nom": "Talizat", "cp": "15170", "dept": "15", "lat": 45.1302, "lon": 3.0554}, {"nom": "Tanavelle", "cp": "15100", "dept": "15", "lat": 45.0268, "lon": 2.9812}, {"nom": "Teissières-de-Cornet", "cp": "15250", "dept": "15", "lat": 44.9753, "lon": 2.3607}, {"nom": "Teissières-lès-Bouliès", "cp": "15130", "dept": "15", "lat": 44.8197, "lon": 2.5368}, {"nom": "Les Ternes", "cp": "15100", "dept": "15", "lat": 44.9929, "lon": 2.9981}, {"nom": "Thiézac", "cp": "15800", "dept": "15", "lat": 45.0198, "lon": 2.667}, {"nom": "Tiviers", "cp": "15100", "dept": "15", "lat": 45.0749, "lon": 3.1819}, {"nom": "Tournemire", "cp": "15310", "dept": "15", "lat": 45.0571, "lon": 2.4921}, {"nom": "Trémouille", "cp": "15270", "dept": "15", "lat": 45.3878, "lon": 2.6703}, {"nom": "La Trinitat", "cp": "15110", "dept": "15", "lat": 44.7478, "lon": 2.9435}, {"nom": "Le Trioulou", "cp": "15600", "dept": "15", "lat": 44.6715, "lon": 2.1882}, {"nom": "Trizac", "cp": "15400", "dept": "15", "lat": 45.2441, "lon": 2.5389}, {"nom": "Ussel", "cp": "15300", "dept": "15", "lat": 45.0732, "lon": 2.955}, {"nom": "Vabres", "cp": "15100", "dept": "15", "lat": 45.0366, "lon": 3.1953}, {"nom": "Valette", "cp": "15400", "dept": "15", "lat": 45.2648, "lon": 2.5996}, {"nom": "Valjouze", "cp": "15170", "dept": "15", "lat": 45.1636, "lon": 3.0592}, {"nom": "Valuéjols", "cp": "15300", "dept": "15", "lat": 45.0535, "lon": 2.9037}, {"nom": "Le Vaulmier", "cp": "15380", "dept": "15", "lat": 45.1838, "lon": 2.583}, {"nom": "Vebret", "cp": "15240", "dept": "15", "lat": 45.351, "lon": 2.5175}, {"nom": "Védrines-Saint-Loup", "cp": "15100", "dept": "15", "lat": 45.0518, "lon": 3.2672}, {"nom": "Velzic", "cp": "15590", "dept": "15", "lat": 44.9946, "lon": 2.5591}, {"nom": "Vernols", "cp": "15160", "dept": "15", "lat": 45.2177, "lon": 2.8822}, {"nom": "Veyrières", "cp": "15350", "dept": "15", "lat": 45.321, "lon": 2.3659}, {"nom": "Vézac", "cp": "15130", "dept": "15", "lat": 44.8933, "lon": 2.5247}, {"nom": "Vèze", "cp": "15160", "dept": "15", "lat": 45.2795, "lon": 2.9804}, {"nom": "Vezels-Roussy", "cp": "15130", "dept": "15", "lat": 44.8067, "lon": 2.58}, {"nom": "Vic-sur-Cère", "cp": "15800", "dept": "15", "lat": 44.9687, "lon": 2.6294}, {"nom": "Vieillespesse", "cp": "15500", "dept": "15", "lat": 45.1158, "lon": 3.1579}, {"nom": "Vieillevie", "cp": "15120", "dept": "15", "lat": 44.6518, "lon": 2.4341}, {"nom": "Le Vigean", "cp": "15200", "dept": "15", "lat": 45.2169, "lon": 2.3634}, {"nom": "Villedieu", "cp": "15100", "dept": "15", "lat": 44.9944, "lon": 3.05}, {"nom": "Virargues", "cp": "15300", "dept": "15", "lat": 45.13, "lon": 2.9006}, {"nom": "Vitrac", "cp": "15220", "dept": "15", "lat": 44.8075, "lon": 2.313}, {"nom": "Ydes", "cp": "15210", "dept": "15", "lat": 45.3458, "lon": 2.4521}, {"nom": "Yolet", "cp": "15130", "dept": "15", "lat": 44.9351, "lon": 2.5351}, {"nom": "Ytrac", "cp": "15000", "dept": "15", "lat": 44.9125, "lon": 2.3575}, {"nom": "Le Rouget-Pers", "cp": "15290", "dept": "15", "lat": 44.884, "lon": 2.2351}, {"nom": "Besse", "cp": "15140", "dept": "15", "lat": 45.1021, "lon": 2.3541}]