[{"nom": "Abbécourt", "cp": "02300", "dept": "02", "lat": 49.5997, "lon": 3.1824}, {"nom": "Achery", "cp": "02800", "dept": "02", "lat": 49.6935, "lon": 3.3974}, {"nom": "Acy", "cp": "02200", "dept": "02", "lat": 49.3476, "lon": 3.4188}, {"nom": "Agnicourt-et-Séchelles", "cp": "02340", "dept": "02", "lat": 49.7172, "lon": 3.9637}, {"nom": "Aguilcourt", "cp": "02190", "dept": "02", "lat": 49.3953, "lon": 3.9663}, {"nom": "Aisonville-et-Bernoville", "cp": "02110", "dept": "02", "lat": 49.9313, "lon": 3.5121}, {"nom": "Aizelles", "cp": "02820", "dept": "02", "lat": 49.4865, "lon": 3.8211}, {"nom": "Aizy-Jouy", "cp": "02370", "dept": "02", "lat": 49.4372, "lon": 3.5128}, {"nom": "Alaincourt", "cp": "02240", "dept": "02", "lat": 49.7681, "lon": 3.3692}, {"nom": "Allemant", "cp": "02320", "dept": "02", "lat": 49.4639, "lon": 3.4591}, {"nom": "Ambleny", "cp": "02290", "dept": "02", "lat": 49.3741, "lon": 3.1681}, {"nom": "Ambrief", "cp": "02200", "dept": "02", "lat": 49.3226, "lon": 3.4058}, {"nom": "Amifontaine", "cp": "02190", "dept": "02", "lat": 49.4977, "lon": 3.9218}, {"nom": "Amigny-Rouy", "cp": "02700", "dept": "02", "lat": 49.6111, "lon": 3.3059}, {"nom": "Ancienville", "cp": "02600", "dept": "02", "lat": 49.2196, "lon": 3.2065}, {"nom": "Andelain", "cp": "02800", "dept": "02", "lat": 49.6428, "lon": 3.3686}, {"nom": "Anguilcourt-le-Sart", "cp": "02800", "dept": "02", "lat": 49.6971, "lon": 3.424}, {"nom": "Anizy-le-Grand", "cp": "02320", "dept": "02", "lat": 49.5159, "lon": 3.4426}, {"nom": "Annois", "cp": "02480", "dept": "02", "lat": 49.7122, "lon": 3.1761}, {"nom": "Any-Martin-Rieux", "cp": "02500", "dept": "02", "lat": 49.8851, "lon": 4.219}, {"nom": "Archon", "cp": "02360", "dept": "02", "lat": 49.7444, "lon": 4.1176}, {"nom": "Arcy-Sainte-Restitue", "cp": "02130", "dept": "02", "lat": 49.2557, "lon": 3.4776}, {"nom": "Armentières-sur-Ourcq", "cp": "02210", "dept": "02", "lat": 49.1731, "lon": 3.3916}, {"nom": "Arrancy", "cp": "02860", "dept": "02", "lat": 49.4985, "lon": 3.7647}, {"nom": "Artemps", "cp": "02480", "dept": "02", "lat": 49.7623, "lon": 3.196}, {"nom": "Assis-sur-Serre", "cp": "02270", "dept": "02", "lat": 49.6788, "lon": 3.5547}, {"nom": "Athies-sous-Laon", "cp": "02840", "dept": "02", "lat": 49.5754, "lon": 3.6905}, {"nom": "Attilly", "cp": "02490", "dept": "02", "lat": 49.8557, "lon": 3.1533}, {"nom": "Aubencheul-aux-Bois", "cp": "02420", "dept": "02", "lat": 50.0248, "lon": 3.2614}, {"nom": "Aubenton", "cp": "02500", "dept": "02", "lat": 49.8254, "lon": 4.1928}, {"nom": "Aubigny-aux-Kaisnes", "cp": "02590", "dept": "02", "lat": 49.7724, "lon": 3.1167}, {"nom": "Aubigny-en-Laonnois", "cp": "02820", "dept": "02", "lat": 49.495, "lon": 3.7921}, {"nom": "Audignicourt", "cp": "02300", "dept": "02", "lat": 49.4779, "lon": 3.1268}, {"nom": "Audigny", "cp": "02120", "dept": "02", "lat": 49.8651, "lon": 3.6314}, {"nom": "Augy", "cp": "02220", "dept": "02", "lat": 49.3405, "lon": 3.5117}, {"nom": "Aulnois-sous-Laon", "cp": "02000", "dept": "02", "lat": 49.6213, "lon": 3.6111}, {"nom": "Les Autels", "cp": "02360", "dept": "02", "lat": 49.7603, "lon": 4.224}, {"nom": "Autremencourt", "cp": "02250", "dept": "02", "lat": 49.7042, "lon": 3.7931}, {"nom": "Autreppes", "cp": "02580", "dept": "02", "lat": 49.8963, "lon": 3.8571}, {"nom": "Autreville", "cp": "02300", "dept": "02", "lat": 49.5878, "lon": 3.2378}, {"nom": "Azy-sur-Marne", "cp": "02400", "dept": "02", "lat": 49.0061, "lon": 3.3575}, {"nom": "Bagneux", "cp": "02290", "dept": "02", "lat": 49.4595, "lon": 3.2776}, {"nom": "Bancigny", "cp": "02140", "dept": "02", "lat": 49.7997, "lon": 4.0383}, {"nom": "Barenton-Bugny", "cp": "02000", "dept": "02", "lat": 49.6217, "lon": 3.6612}, {"nom": "Barenton-Cel", "cp": "02000", "dept": "02", "lat": 49.6466, "lon": 3.6448}, {"nom": "Barenton-sur-Serre", "cp": "02270", "dept": "02", "lat": 49.6682, "lon": 3.6929}, {"nom": "Barisis-aux-Bois", "cp": "02700", "dept": "02", "lat": 49.5814, "lon": 3.332}, {"nom": "Barzy-en-Thiérache", "cp": "02170", "dept": "02", "lat": 50.0378, "lon": 3.7522}, {"nom": "Barzy-sur-Marne", "cp": "02850", "dept": "02", "lat": 49.09, "lon": 3.5586}, {"nom": "Bassoles-Aulers", "cp": "02380", "dept": "02", "lat": 49.5328, "lon": 3.3828}, {"nom": "Vallées en Champagne", "cp": "02330", "dept": "02", "lat": 49.0009, "lon": 3.6203}, {"nom": "Bazoches-et-Saint-Thibaut", "cp": "02220", "dept": "02", "lat": 49.2991, "lon": 3.6184}, {"nom": "Beaumé", "cp": "02500", "dept": "02", "lat": 49.8187, "lon": 4.1529}, {"nom": "Beaumont-en-Beine", "cp": "02300", "dept": "02", "lat": 49.6876, "lon": 3.1317}, {"nom": "Beaurevoir", "cp": "02110", "dept": "02", "lat": 49.9965, "lon": 3.332}, {"nom": "Beaurieux", "cp": "02160", "dept": "02", "lat": 49.4029, "lon": 3.7594}, {"nom": "Beautor", "cp": "02800", "dept": "02", "lat": 49.6472, "lon": 3.3361}, {"nom": "Beauvois-en-Vermandois", "cp": "02590", "dept": "02", "lat": 49.8331, "lon": 3.1023}, {"nom": "Becquigny", "cp": "02110", "dept": "02", "lat": 50.0143, "lon": 3.458}, {"nom": "Belleau", "cp": "02400", "dept": "02", "lat": 49.0803, "lon": 3.3036}, {"nom": "Bellenglise", "cp": "02420", "dept": "02", "lat": 49.9241, "lon": 3.2431}, {"nom": "Belleu", "cp": "02200", "dept": "02", "lat": 49.3597, "lon": 3.3439}, {"nom": "Bellicourt", "cp": "02420", "dept": "02", "lat": 49.9581, "lon": 3.2284}, {"nom": "Benay", "cp": "02440", "dept": "02", "lat": 49.7556, "lon": 3.3076}, {"nom": "Bergues-sur-Sambre", "cp": "02450", "dept": "02", "lat": 50.03, "lon": 3.7114}, {"nom": "Berlancourt", "cp": "02250", "dept": "02", "lat": 49.7799, "lon": 3.757}, {"nom": "Berlise", "cp": "02340", "dept": "02", "lat": 49.6628, "lon": 4.1104}, {"nom": "Bernot", "cp": "02120", "dept": "02", "lat": 49.8827, "lon": 3.4827}, {"nom": "Berny-Rivière", "cp": "02290", "dept": "02", "lat": 49.4118, "lon": 3.152}, {"nom": "Berrieux", "cp": "02820", "dept": "02", "lat": 49.4828, "lon": 3.8531}, {"nom": "Berry-au-Bac", "cp": "02190", "dept": "02", "lat": 49.4076, "lon": 3.8947}, {"nom": "Bertaucourt-Epourdon", "cp": "02800", "dept": "02", "lat": 49.6283, "lon": 3.3988}, {"nom": "Berthenicourt", "cp": "02240", "dept": "02", "lat": 49.7787, "lon": 3.373}, {"nom": "Bertricourt", "cp": "02190", "dept": "02", "lat": 49.3975, "lon": 4.0116}, {"nom": "Besmé", "cp": "02300", "dept": "02", "lat": 49.5348, "lon": 3.1657}, {"nom": "Besmont", "cp": "02500", "dept": "02", "lat": 49.8209, "lon": 4.116}, {"nom": "Besny-et-Loizy", "cp": "02870", "dept": "02", "lat": 49.5914, "lon": 3.5778}, {"nom": "Béthancourt-en-Vaux", "cp": "02300", "dept": "02", "lat": 49.6274, "lon": 3.1376}, {"nom": "Beugneux", "cp": "02210", "dept": "02", "lat": 49.2243, "lon": 3.4187}, {"nom": "Beuvardes", "cp": "02130", "dept": "02", "lat": 49.1278, "lon": 3.4884}, {"nom": "Bézu-le-Guéry", "cp": "02310", "dept": "02", "lat": 49.0101, "lon": 3.2283}, {"nom": "Bézu-Saint-Germain", "cp": "02400", "dept": "02", "lat": 49.1045, "lon": 3.4082}, {"nom": "Bichancourt", "cp": "02300", "dept": "02", "lat": 49.5787, "lon": 3.2135}, {"nom": "Bieuxy", "cp": "02290", "dept": "02", "lat": 49.4469, "lon": 3.2687}, {"nom": "Bièvres", "cp": "02860", "dept": "02", "lat": 49.4923, "lon": 3.7141}, {"nom": "Billy-sur-Aisne", "cp": "02200", "dept": "02", "lat": 49.3555, "lon": 3.3753}, {"nom": "Billy-sur-Ourcq", "cp": "02210", "dept": "02", "lat": 49.2233, "lon": 3.301}, {"nom": "Blanzy-lès-Fismes", "cp": "02160", "dept": "02", "lat": 49.3378, "lon": 3.6702}, {"nom": "Blérancourt", "cp": "02300", "dept": "02", "lat": 49.51, "lon": 3.149}, {"nom": "Blesmes", "cp": "02400", "dept": "02", "lat": 49.0258, "lon": 3.4628}, {"nom": "Bohain-en-Vermandois", "cp": "02110", "dept": "02", "lat": 49.9887, "lon": 3.464}, {"nom": "Bois-lès-Pargny", "cp": "02270", "dept": "02", "lat": 49.7383, "lon": 3.6567}, {"nom": "Boncourt", "cp": "02350", "dept": "02", "lat": 49.6287, "lon": 3.9553}, {"nom": "Bonneil", "cp": "02400", "dept": "02", "lat": 49.0077, "lon": 3.3476}, {"nom": "Bonnesvalyn", "cp": "02400", "dept": "02", "lat": 49.1235, "lon": 3.3273}, {"nom": "Bony", "cp": "02420", "dept": "02", "lat": 49.9896, "lon": 3.218}, {"nom": "Bosmont-sur-Serre", "cp": "02250", "dept": "02", "lat": 49.7381, "lon": 3.8664}, {"nom": "Bouconville-Vauclair", "cp": "02860", "dept": "02", "lat": 49.4606, "lon": 3.7609}, {"nom": "Boué", "cp": "02450", "dept": "02", "lat": 50.0101, "lon": 3.7126}, {"nom": "Bouffignereux", "cp": "02160", "dept": "02", "lat": 49.3776, "lon": 3.847}, {"nom": "Bouresches", "cp": "02400", "dept": "02", "lat": 49.0665, "lon": 3.3191}, {"nom": "Bourg-et-Comin", "cp": "02160", "dept": "02", "lat": 49.4038, "lon": 3.6565}, {"nom": "Bourguignon-sous-Coucy", "cp": "02300", "dept": "02", "lat": 49.5417, "lon": 3.1579}, {"nom": "Bourguignon-sous-Montbavin", "cp": "02000", "dept": "02", "lat": 49.528, "lon": 3.5389}, {"nom": "La Bouteille", "cp": "02140", "dept": "02", "lat": 49.8738, "lon": 3.9602}, {"nom": "Braine", "cp": "02220", "dept": "02", "lat": 49.3488, "lon": 3.5357}, {"nom": "Brancourt-en-Laonnois", "cp": "02320", "dept": "02", "lat": 49.517, "lon": 3.4128}, {"nom": "Brancourt-le-Grand", "cp": "02110", "dept": "02", "lat": 49.9798, "lon": 3.3956}, {"nom": "Brasles", "cp": "02400", "dept": "02", "lat": 49.0579, "lon": 3.4195}, {"nom": "Braye-en-Laonnois", "cp": "02000", "dept": "02", "lat": 49.437, "lon": 3.6096}, {"nom": "Braye-en-Thiérache", "cp": "02140", "dept": "02", "lat": 49.7665, "lon": 3.9623}, {"nom": "Bray-Saint-Christophe", "cp": "02480", "dept": "02", "lat": 49.7738, "lon": 3.142}, {"nom": "Braye", "cp": "02880", "dept": "02", "lat": 49.4222, "lon": 3.3769}, {"nom": "Brécy", "cp": "02210", "dept": "02", "lat": 49.1402, "lon": 3.4263}, {"nom": "Brenelle", "cp": "02220", "dept": "02", "lat": 49.3694, "lon": 3.5459}, {"nom": "Breny", "cp": "02210", "dept": "02", "lat": 49.1826, "lon": 3.3513}, {"nom": "Brie", "cp": "02870", "dept": "02", "lat": 49.5992, "lon": 3.4722}, {"nom": "Brissay-Choigny", "cp": "02240", "dept": "02", "lat": 49.7224, "lon": 3.4042}, {"nom": "Brissy-Hamégicourt", "cp": "02240", "dept": "02", "lat": 49.7458, "lon": 3.4011}, {"nom": "Brumetz", "cp": "02810", "dept": "02", "lat": 49.1124, "lon": 3.1528}, {"nom": "Brunehamel", "cp": "02360", "dept": "02", "lat": 49.7686, "lon": 4.188}, {"nom": "Bruyères-sur-Fère", "cp": "02130", "dept": "02", "lat": 49.1994, "lon": 3.445}, {"nom": "Bruyères-et-Montbérault", "cp": "02860", "dept": "02", "lat": 49.5184, "lon": 3.6698}, {"nom": "Bruys", "cp": "02220", "dept": "02", "lat": 49.2595, "lon": 3.5669}, {"nom": "Bucilly", "cp": "02500", "dept": "02", "lat": 49.8636, "lon": 4.0938}, {"nom": "Bucy-le-Long", "cp": "02880", "dept": "02", "lat": 49.39, "lon": 3.3923}, {"nom": "Bucy-lès-Cerny", "cp": "02870", "dept": "02", "lat": 49.5799, "lon": 3.493}, {"nom": "Bucy-lès-Pierrepont", "cp": "02350", "dept": "02", "lat": 49.6494, "lon": 3.904}, {"nom": "Buire", "cp": "02500", "dept": "02", "lat": 49.908, "lon": 4.0561}, {"nom": "Buironfosse", "cp": "02620", "dept": "02", "lat": 49.958, "lon": 3.8371}, {"nom": "Burelles", "cp": "02140", "dept": "02", "lat": 49.7702, "lon": 3.9148}, {"nom": "Bussiares", "cp": "02810", "dept": "02", "lat": 49.0749, "lon": 3.2501}, {"nom": "Buzancy", "cp": "02200", "dept": "02", "lat": 49.3086, "lon": 3.3487}, {"nom": "Caillouël-Crépigny", "cp": "02300", "dept": "02", "lat": 49.6174, "lon": 3.1226}, {"nom": "Camelin", "cp": "02300", "dept": "02", "lat": 49.5244, "lon": 3.1243}, {"nom": "La Capelle", "cp": "02260", "dept": "02", "lat": 49.9705, "lon": 3.9146}, {"nom": "Castres", "cp": "02680", "dept": "02", "lat": 49.803, "lon": 3.2576}, {"nom": "Le Catelet", "cp": "02420", "dept": "02", "lat": 50.0008, "lon": 3.2425}, {"nom": "Caulaincourt", "cp": "02490", "dept": "02", "lat": 49.8646, "lon": 3.1078}, {"nom": "Caumont", "cp": "02300", "dept": "02", "lat": 49.6374, "lon": 3.173}, {"nom": "Celles-lès-Condé", "cp": "02330", "dept": "02", "lat": 49.0158, "lon": 3.5703}, {"nom": "Celles-sur-Aisne", "cp": "02370", "dept": "02", "lat": 49.4135, "lon": 3.4701}, {"nom": "Cerizy", "cp": "02240", "dept": "02", "lat": 49.7667, "lon": 3.3346}, {"nom": "Cerny-en-Laonnois", "cp": "02860", "dept": "02", "lat": 49.4492, "lon": 3.6803}, {"nom": "Cerny-lès-Bucy", "cp": "02870", "dept": "02", "lat": 49.5791, "lon": 3.5466}, {"nom": "Cerseuil", "cp": "02220", "dept": "02", "lat": 49.3259, "lon": 3.5175}, {"nom": "Cessières-Suzy", "cp": "02320", "dept": "02", "lat": 49.5575, "lon": 3.4817}, {"nom": "Chacrise", "cp": "02200", "dept": "02", "lat": 49.3008, "lon": 3.3964}, {"nom": "Chaillevois", "cp": "02000", "dept": "02", "lat": 49.5087, "lon": 3.5233}, {"nom": "Chalandry", "cp": "02270", "dept": "02", "lat": 49.6691, "lon": 3.6474}, {"nom": "Chambry", "cp": "02000", "dept": "02", "lat": 49.5985, "lon": 3.6719}, {"nom": "Chamouille", "cp": "02860", "dept": "02", "lat": 49.4723, "lon": 3.671}, {"nom": "Champs", "cp": "02670", "dept": "02", "lat": 49.538, "lon": 3.257}, {"nom": "Chaourse", "cp": "02340", "dept": "02", "lat": 49.703, "lon": 3.9837}, {"nom": "La Chapelle-sur-Chézy", "cp": "02570", "dept": "02", "lat": 48.9495, "lon": 3.375}, {"nom": "Charly-sur-Marne", "cp": "02310", "dept": "02", "lat": 48.9821, "lon": 3.2936}, {"nom": "Le Charmel", "cp": "02850", "dept": "02", "lat": 49.1106, "lon": 3.5446}, {"nom": "Charmes", "cp": "02800", "dept": "02", "lat": 49.6524, "lon": 3.3834}, {"nom": "Chartèves", "cp": "02400", "dept": "02", "lat": 49.0894, "lon": 3.504}, {"nom": "Chassemy", "cp": "02370", "dept": "02", "lat": 49.3778, "lon": 3.5046}, {"nom": "Château-Thierry", "cp": "02400", "dept": "02", "lat": 49.0556, "lon": 3.3784}, {"nom": "Châtillon-lès-Sons", "cp": "02270", "dept": "02", "lat": 49.7629, "lon": 3.6986}, {"nom": "Châtillon-sur-Oise", "cp": "02240", "dept": "02", "lat": 49.7951, "lon": 3.4173}, {"nom": "Chaudardes", "cp": "02160", "dept": "02", "lat": 49.3968, "lon": 3.788}, {"nom": "Chaudun", "cp": "02200", "dept": "02", "lat": 49.3141, "lon": 3.2508}, {"nom": "Chauny", "cp": "02300", "dept": "02", "lat": 49.6185, "lon": 3.2192}, {"nom": "Chavignon", "cp": "02000", "dept": "02", "lat": 49.4782, "lon": 3.5155}, {"nom": "Chavigny", "cp": "02880", "dept": "02", "lat": 49.4229, "lon": 3.309}, {"nom": "Chavonne", "cp": "02370", "dept": "02", "lat": 49.4081, "lon": 3.5614}, {"nom": "Chérêt", "cp": "02860", "dept": "02", "lat": 49.5147, "lon": 3.6878}, {"nom": "Chermizy-Ailles", "cp": "02860", "dept": "02", "lat": 49.464, "lon": 3.7196}, {"nom": "Chéry-Chartreuve", "cp": "02220", "dept": "02", "lat": 49.2529, "lon": 3.6081}, {"nom": "Chéry-lès-Pouilly", "cp": "02000", "dept": "02", "lat": 49.6479, "lon": 3.5886}, {"nom": "Chéry-lès-Rozoy", "cp": "02360", "dept": "02", "lat": 49.7245, "lon": 4.1026}, {"nom": "Chevennes", "cp": "02250", "dept": "02", "lat": 49.8196, "lon": 3.7386}, {"nom": "Chevregny", "cp": "02000", "dept": "02", "lat": 49.47, "lon": 3.595}, {"nom": "Chevresis-Monceau", "cp": "02270", "dept": "02", "lat": 49.7657, "lon": 3.5843}, {"nom": "Chézy-en-Orxois", "cp": "02810", "dept": "02", "lat": 49.1247, "lon": 3.1565}, {"nom": "Chézy-sur-Marne", "cp": "02570", "dept": "02", "lat": 48.9857, "lon": 3.3882}, {"nom": "Chierry", "cp": "02400", "dept": "02", "lat": 49.0326, "lon": 3.4321}, {"nom": "Chigny", "cp": "02120", "dept": "02", "lat": 49.9291, "lon": 3.7728}, {"nom": "Chivres-en-Laonnois", "cp": "02350", "dept": "02", "lat": 49.6256, "lon": 3.8576}, {"nom": "Chivres-Val", "cp": "02880", "dept": "02", "lat": 49.4048, "lon": 3.4371}, {"nom": "Chivy-lès-Étouvelles", "cp": "02000", "dept": "02", "lat": 49.5334, "lon": 3.5838}, {"nom": "Chouy", "cp": "02210", "dept": "02", "lat": 49.2154, "lon": 3.2433}, {"nom": "Cierges", "cp": "02130", "dept": "02", "lat": 49.1659, "lon": 3.6022}, {"nom": "Cilly", "cp": "02250", "dept": "02", "lat": 49.7473, "lon": 3.8421}, {"nom": "Ciry-Salsogne", "cp": "02220", "dept": "02", "lat": 49.3693, "lon": 3.4664}, {"nom": "Clacy-et-Thierret", "cp": "02000", "dept": "02", "lat": 49.5546, "lon": 3.5651}, {"nom": "Clairfontaine", "cp": "02260", "dept": "02", "lat": 49.969, "lon": 3.9919}, {"nom": "Clamecy", "cp": "02880", "dept": "02", "lat": 49.4274, "lon": 3.3654}, {"nom": "Clastres", "cp": "02440", "dept": "02", "lat": 49.7491, "lon": 3.228}, {"nom": "Clermont-les-Fermes", "cp": "02340", "dept": "02", "lat": 49.6602, "lon": 3.9448}, {"nom": "Cœuvres-et-Valsery", "cp": "02600", "dept": "02", "lat": 49.324, "lon": 3.1496}, {"nom": "Coincy", "cp": "02210", "dept": "02", "lat": 49.1548, "lon": 3.4331}, {"nom": "Coingt", "cp": "02360", "dept": "02", "lat": 49.7928, "lon": 4.0956}, {"nom": "Colligis-Crandelain", "cp": "02860", "dept": "02", "lat": 49.4696, "lon": 3.628}, {"nom": "Colonfay", "cp": "02120", "dept": "02", "lat": 49.8575, "lon": 3.7117}, {"nom": "Commenchon", "cp": "02300", "dept": "02", "lat": 49.6415, "lon": 3.1488}, {"nom": "Concevreux", "cp": "02160", "dept": "02", "lat": 49.3781, "lon": 3.7828}, {"nom": "Condé-en-Brie", "cp": "02330", "dept": "02", "lat": 48.9999, "lon": 3.5602}, {"nom": "Condé-sur-Aisne", "cp": "02370", "dept": "02", "lat": 49.4014, "lon": 3.4684}, {"nom": "Condé-sur-Suippe", "cp": "02190", "dept": "02", "lat": 49.4147, "lon": 3.9447}, {"nom": "Condren", "cp": "02700", "dept": "02", "lat": 49.6332, "lon": 3.2767}, {"nom": "Connigis", "cp": "02330", "dept": "02", "lat": 49.0357, "lon": 3.532}, {"nom": "Contescourt", "cp": "02680", "dept": "02", "lat": 49.7921, "lon": 3.2343}, {"nom": "Corbeny", "cp": "02820", "dept": "02", "lat": 49.4613, "lon": 3.8256}, {"nom": "Corcy", "cp": "02600", "dept": "02", "lat": 49.2528, "lon": 3.1957}, {"nom": "Coucy-le-Château-Auffrique", "cp": "02380", "dept": "02", "lat": 49.514, "lon": 3.3178}, {"nom": "Coucy-lès-Eppes", "cp": "02840", "dept": "02", "lat": 49.556, "lon": 3.7811}, {"nom": "Coucy-la-Ville", "cp": "02380", "dept": "02", "lat": 49.5414, "lon": 3.3413}, {"nom": "Coulonges-Cohan", "cp": "02130", "dept": "02", "lat": 49.1958, "lon": 3.6238}, {"nom": "Coupru", "cp": "02310", "dept": "02", "lat": 49.0304, "lon": 3.2749}, {"nom": "Courbes", "cp": "02800", "dept": "02", "lat": 49.6804, "lon": 3.4567}, {"nom": "Courboin", "cp": "02330", "dept": "02", "lat": 48.9956, "lon": 3.5127}, {"nom": "Courcelles-sur-Vesle", "cp": "02220", "dept": "02", "lat": 49.3464, "lon": 3.576}, {"nom": "Courchamps", "cp": "02810", "dept": "02", "lat": 49.1152, "lon": 3.261}, {"nom": "Courmelles", "cp": "02200", "dept": "02", "lat": 49.3456, "lon": 3.2994}, {"nom": "Courmont", "cp": "02130", "dept": "02", "lat": 49.1411, "lon": 3.5712}, {"nom": "Courtemont-Varennes", "cp": "02850", "dept": "02", "lat": 49.0719, "lon": 3.5414}, {"nom": "Courtrizy-et-Fussigny", "cp": "02820", "dept": "02", "lat": 49.5152, "lon": 3.7953}, {"nom": "Couvrelles", "cp": "02220", "dept": "02", "lat": 49.3328, "lon": 3.485}, {"nom": "Couvron-et-Aumencourt", "cp": "02270", "dept": "02", "lat": 49.6464, "lon": 3.515}, {"nom": "Coyolles", "cp": "02600", "dept": "02", "lat": 49.216, "lon": 3.021}, {"nom": "Cramaille", "cp": "02130", "dept": "02", "lat": 49.2269, "lon": 3.4555}, {"nom": "Craonne", "cp": "02160", "dept": "02", "lat": 49.4491, "lon": 3.7947}, {"nom": "Craonnelle", "cp": "02160", "dept": "02", "lat": 49.4251, "lon": 3.7755}, {"nom": "Crécy-au-Mont", "cp": "02380", "dept": "02", "lat": 49.4846, "lon": 3.3141}, {"nom": "Crécy-sur-Serre", "cp": "02270", "dept": "02", "lat": 49.693, "lon": 3.6188}, {"nom": "Crépy", "cp": "02870", "dept": "02", "lat": 49.6089, "lon": 3.5088}, {"nom": "Crézancy", "cp": "02650", "dept": "02", "lat": 49.0405, "lon": 3.5169}, {"nom": "Croix-Fonsomme", "cp": "02110", "dept": "02", "lat": 49.9329, "lon": 3.3937}, {"nom": "La Croix-sur-Ourcq", "cp": "02210", "dept": "02", "lat": 49.1589, "lon": 3.3502}, {"nom": "Crouttes-sur-Marne", "cp": "02310", "dept": "02", "lat": 48.9775, "lon": 3.247}, {"nom": "Crouy", "cp": "02880", "dept": "02", "lat": 49.4073, "lon": 3.3684}, {"nom": "Crupilly", "cp": "02120", "dept": "02", "lat": 49.9299, "lon": 3.7555}, {"nom": "Cuffies", "cp": "02880", "dept": "02", "lat": 49.4086, "lon": 3.3197}, {"nom": "Cugny", "cp": "02480", "dept": "02", "lat": 49.7097, "lon": 3.1518}, {"nom": "Cuirieux", "cp": "02350", "dept": "02", "lat": 49.6835, "lon": 3.8206}, {"nom": "Cuiry-Housse", "cp": "02220", "dept": "02", "lat": 49.2886, "lon": 3.4903}, {"nom": "Cuiry-lès-Chaudardes", "cp": "02160", "dept": "02", "lat": 49.3919, "lon": 3.7621}, {"nom": "Cuiry-lès-Iviers", "cp": "02360", "dept": "02", "lat": 49.7661, "lon": 4.1045}, {"nom": "Cuissy-et-Geny", "cp": "02160", "dept": "02", "lat": 49.4013, "lon": 3.7056}, {"nom": "Cuisy-en-Almont", "cp": "02200", "dept": "02", "lat": 49.422, "lon": 3.2452}, {"nom": "Cutry", "cp": "02600", "dept": "02", "lat": 49.345, "lon": 3.1907}, {"nom": "Cys-la-Commune", "cp": "02220", "dept": "02", "lat": 49.3838, "lon": 3.5717}, {"nom": "Dagny-Lambercy", "cp": "02140", "dept": "02", "lat": 49.7685, "lon": 4.0437}, {"nom": "Dallon", "cp": "02680", "dept": "02", "lat": 49.8249, "lon": 3.2327}, {"nom": "Dammard", "cp": "02470", "dept": "02", "lat": 49.146, "lon": 3.1723}, {"nom": "Dampleux", "cp": "02600", "dept": "02", "lat": 49.2408, "lon": 3.1471}, {"nom": "Danizy", "cp": "02800", "dept": "02", "lat": 49.6658, "lon": 3.4037}, {"nom": "Dercy", "cp": "02270", "dept": "02", "lat": 49.7127, "lon": 3.6847}, {"nom": "Deuillet", "cp": "02700", "dept": "02", "lat": 49.6271, "lon": 3.3571}, {"nom": "Dhuizel", "cp": "02220", "dept": "02", "lat": 49.3591, "lon": 3.6148}, {"nom": "Dizy-le-Gros", "cp": "02340", "dept": "02", "lat": 49.6351, "lon": 4.0171}, {"nom": "Dohis", "cp": "02360", "dept": "02", "lat": 49.766, "lon": 4.1421}, {"nom": "Dolignon", "cp": "02360", "dept": "02", "lat": 49.7295, "lon": 4.0873}, {"nom": "Dommiers", "cp": "02600", "dept": "02", "lat": 49.3314, "lon": 3.2165}, {"nom": "Domptin", "cp": "02310", "dept": "02", "lat": 49.0151, "lon": 3.2705}, {"nom": "Dorengt", "cp": "02450", "dept": "02", "lat": 49.9656, "lon": 3.7014}, {"nom": "Douchy", "cp": "02590", "dept": "02", "lat": 49.7959, "lon": 3.1296}, {"nom": "Dravegny", "cp": "02130", "dept": "02", "lat": 49.2425, "lon": 3.6395}, {"nom": "Droizy", "cp": "02210", "dept": "02", "lat": 49.2746, "lon": 3.3864}, {"nom": "Dury", "cp": "02480", "dept": "02", "lat": 49.7516, "lon": 3.1322}, {"nom": "Ébouleau", "cp": "02350", "dept": "02", "lat": 49.6783, "lon": 3.8871}, {"nom": "Effry", "cp": "02500", "dept": "02", "lat": 49.9191, "lon": 3.9879}, {"nom": "Englancourt", "cp": "02260", "dept": "02", "lat": 49.9251, "lon": 3.8081}, {"nom": "Épagny", "cp": "02290", "dept": "02", "lat": 49.4729, "lon": 3.2565}, {"nom": "Éparcy", "cp": "02500", "dept": "02", "lat": 49.8853, "lon": 4.071}, {"nom": "Épaux-Bézu", "cp": "02400", "dept": "02", "lat": 49.1022, "lon": 3.3563}, {"nom": "Épieds", "cp": "02400", "dept": "02", "lat": 49.1023, "lon": 3.4579}, {"nom": "L'Épine-aux-Bois", "cp": "02540", "dept": "02", "lat": 48.8988, "lon": 3.4452}, {"nom": "Eppes", "cp": "02840", "dept": "02", "lat": 49.5509, "lon": 3.7397}, {"nom": "Erlon", "cp": "02250", "dept": "02", "lat": 49.733, "lon": 3.7073}, {"nom": "Erloy", "cp": "02260", "dept": "02", "lat": 49.9204, "lon": 3.8394}, {"nom": "Esquéhéries", "cp": "02170", "dept": "02", "lat": 49.9779, "lon": 3.7584}, {"nom": "Essigny-le-Grand", "cp": "02690", "dept": "02", "lat": 49.7742, "lon": 3.2732}, {"nom": "Essigny-le-Petit", "cp": "02100", "dept": "02", "lat": 49.8985, "lon": 3.3686}, {"nom": "Essises", "cp": "02570", "dept": "02", "lat": 48.9674, "lon": 3.4162}, {"nom": "Essômes-sur-Marne", "cp": "02400", "dept": "02", "lat": 49.033, "lon": 3.3427}, {"nom": "Estrées", "cp": "02420", "dept": "02", "lat": 49.9686, "lon": 3.2802}, {"nom": "Étampes-sur-Marne", "cp": "02400", "dept": "02", "lat": 49.0319, "lon": 3.4175}, {"nom": "Étaves-et-Bocquiaux", "cp": "02110", "dept": "02", "lat": 49.931, "lon": 3.4519}, {"nom": "Étouvelles", "cp": "02000", "dept": "02", "lat": 49.5171, "lon": 3.5807}, {"nom": "Étréaupont", "cp": "02580", "dept": "02", "lat": 49.9014, "lon": 3.9399}, {"nom": "Étreillers", "cp": "02590", "dept": "02", "lat": 49.8309, "lon": 3.1565}, {"nom": "Étrépilly", "cp": "02400", "dept": "02", "lat": 49.0825, "lon": 3.3515}, {"nom": "Étreux", "cp": "02510", "dept": "02", "lat": 49.9985, "lon": 3.6554}, {"nom": "Évergnicourt", "cp": "02190", "dept": "02", "lat": 49.4573, "lon": 4.039}, {"nom": "Faverolles", "cp": "02600", "dept": "02", "lat": 49.2255, "lon": 3.1827}, {"nom": "Fayet", "cp": "02100", "dept": "02", "lat": 49.871, "lon": 3.2533}, {"nom": "La Fère", "cp": "02800", "dept": "02", "lat": 49.6683, "lon": 3.3694}, {"nom": "Fère-en-Tardenois", "cp": "02130", "dept": "02", "lat": 49.1833, "lon": 3.5126}, {"nom": "La Ferté-Chevresis", "cp": "02270", "dept": "02", "lat": 49.7455, "lon": 3.5506}, {"nom": "La Ferté-Milon", "cp": "02460", "dept": "02", "lat": 49.1729, "lon": 3.1441}, {"nom": "Fesmy-le-Sart", "cp": "02450", "dept": "02", "lat": 50.0477, "lon": 3.6972}, {"nom": "Festieux", "cp": "02840", "dept": "02", "lat": 49.5255, "lon": 3.7609}, {"nom": "Fieulaine", "cp": "02110", "dept": "02", "lat": 49.8974, "lon": 3.445}, {"nom": "La Flamengrie", "cp": "02260", "dept": "02", "lat": 50.0021, "lon": 3.9205}, {"nom": "Flavigny-le-Grand-et-Beaurain", "cp": "02120", "dept": "02", "lat": 49.8868, "lon": 3.6741}, {"nom": "Flavy-le-Martel", "cp": "02520", "dept": "02", "lat": 49.7086, "lon": 3.1921}, {"nom": "Fleury", "cp": "02600", "dept": "02", "lat": 49.2679, "lon": 3.1553}, {"nom": "Fluquières", "cp": "02590", "dept": "02", "lat": 49.7995, "lon": 3.1569}, {"nom": "Folembray", "cp": "02670", "dept": "02", "lat": 49.55, "lon": 3.2896}, {"nom": "Fonsomme", "cp": "02110", "dept": "02", "lat": 49.8998, "lon": 3.3961}, {"nom": "Fontaine-lès-Clercs", "cp": "02680", "dept": "02", "lat": 49.8091, "lon": 3.2127}, {"nom": "Fontaine-lès-Vervins", "cp": "02140", "dept": "02", "lat": 49.8512, "lon": 3.9084}, {"nom": "Fontaine-Notre-Dame", "cp": "02110", "dept": "02", "lat": 49.881, "lon": 3.424}, {"nom": "Fontaine-Uterte", "cp": "02110", "dept": "02", "lat": 49.9266, "lon": 3.3689}, {"nom": "Fontenelle", "cp": "02170", "dept": "02", "lat": 50.0299, "lon": 3.8489}, {"nom": "Fontenoy", "cp": "02290", "dept": "02", "lat": 49.4108, "lon": 3.1936}, {"nom": "Foreste", "cp": "02590", "dept": "02", "lat": 49.8056, "lon": 3.0952}, {"nom": "Fossoy", "cp": "02650", "dept": "02", "lat": 49.0426, "lon": 3.4821}, {"nom": "Fourdrain", "cp": "02870", "dept": "02", "lat": 49.617, "lon": 3.4569}, {"nom": "Francilly-Selency", "cp": "02760", "dept": "02", "lat": 49.8558, "lon": 3.2296}, {"nom": "Franqueville", "cp": "02140", "dept": "02", "lat": 49.8187, "lon": 3.7974}, {"nom": "Fresnes-en-Tardenois", "cp": "02130", "dept": "02", "lat": 49.1448, "lon": 3.5511}, {"nom": "Fresnes-sous-Coucy", "cp": "02380", "dept": "02", "lat": 49.5523, "lon": 3.3678}, {"nom": "Fresnoy-le-Grand", "cp": "02230", "dept": "02", "lat": 49.9553, "lon": 3.417}, {"nom": "Fressancourt", "cp": "02800", "dept": "02", "lat": 49.629, "lon": 3.4289}, {"nom": "Frières-Faillouël", "cp": "02700", "dept": "02", "lat": 49.6841, "lon": 3.2366}, {"nom": "Froidestrées", "cp": "02260", "dept": "02", "lat": 49.9432, "lon": 3.9097}, {"nom": "Froidmont-Cohartille", "cp": "02270", "dept": "02", "lat": 49.6793, "lon": 3.72}, {"nom": "Gandelu", "cp": "02810", "dept": "02", "lat": 49.0796, "lon": 3.1782}, {"nom": "Gauchy", "cp": "02430", "dept": "02", "lat": 49.8233, "lon": 3.2846}, {"nom": "Gercy", "cp": "02140", "dept": "02", "lat": 49.8145, "lon": 3.8726}, {"nom": "Gergny", "cp": "02260", "dept": "02", "lat": 49.9339, "lon": 3.93}, {"nom": "Germaine", "cp": "02590", "dept": "02", "lat": 49.8135, "lon": 3.1207}, {"nom": "Gibercourt", "cp": "02440", "dept": "02", "lat": 49.7426, "lon": 3.284}, {"nom": "Gizy", "cp": "02350", "dept": "02", "lat": 49.6118, "lon": 3.7661}, {"nom": "Gland", "cp": "02400", "dept": "02", "lat": 49.059, "lon": 3.4602}, {"nom": "Goudelancourt-lès-Berrieux", "cp": "02820", "dept": "02", "lat": 49.4923, "lon": 3.8568}, {"nom": "Goudelancourt-lès-Pierrepont", "cp": "02350", "dept": "02", "lat": 49.6798, "lon": 3.8529}, {"nom": "Goussancourt", "cp": "02130", "dept": "02", "lat": 49.1636, "lon": 3.6541}, {"nom": "Gouy", "cp": "02420", "dept": "02", "lat": 49.9938, "lon": 3.2618}, {"nom": "Grandlup-et-Fay", "cp": "02350", "dept": "02", "lat": 49.6538, "lon": 3.7378}, {"nom": "Grandrieux", "cp": "02360", "dept": "02", "lat": 49.7312, "lon": 4.1862}, {"nom": "Gricourt", "cp": "02100", "dept": "02", "lat": 49.8876, "lon": 3.2394}, {"nom": "Grisolles", "cp": "02210", "dept": "02", "lat": 49.1298, "lon": 3.3718}, {"nom": "Gronard", "cp": "02140", "dept": "02", "lat": 49.7972, "lon": 3.8775}, {"nom": "Grougis", "cp": "02110", "dept": "02", "lat": 49.9501, "lon": 3.5281}, {"nom": "Grugies", "cp": "02680", "dept": "02", "lat": 49.8106, "lon": 3.2787}, {"nom": "Villeneuve-sur-Aisne", "cp": "02190", "dept": "02", "lat": 49.4409, "lon": 3.9744}, {"nom": "Guise", "cp": "02120", "dept": "02", "lat": 49.8973, "lon": 3.6229}, {"nom": "Guivry", "cp": "02300", "dept": "02", "lat": 49.6504, "lon": 3.1196}, {"nom": "Guny", "cp": "02300", "dept": "02", "lat": 49.5117, "lon": 3.2641}, {"nom": "Guyencourt", "cp": "02160", "dept": "02", "lat": 49.3579, "lon": 3.8412}, {"nom": "Hannapes", "cp": "02510", "dept": "02", "lat": 49.9762, "lon": 3.6163}, {"nom": "Happencourt", "cp": "02480", "dept": "02", "lat": 49.7814, "lon": 3.1838}, {"nom": "Haramont", "cp": "02600", "dept": "02", "lat": 49.2862, "lon": 3.0219}, {"nom": "Harcigny", "cp": "02140", "dept": "02", "lat": 49.8081, "lon": 3.9767}, {"nom": "Hargicourt", "cp": "02420", "dept": "02", "lat": 49.967, "lon": 3.1884}, {"nom": "Harly", "cp": "02100", "dept": "02", "lat": 49.8404, "lon": 3.3347}, {"nom": "Hartennes-et-Taux", "cp": "02210", "dept": "02", "lat": 49.2795, "lon": 3.3588}, {"nom": "Hary", "cp": "02140", "dept": "02", "lat": 49.798, "lon": 3.9154}, {"nom": "Lehaucourt", "cp": "02420", "dept": "02", "lat": 49.9122, "lon": 3.2777}, {"nom": "Hautevesnes", "cp": "02810", "dept": "02", "lat": 49.114, "lon": 3.2317}, {"nom": "Hauteville", "cp": "02120", "dept": "02", "lat": 49.888, "lon": 3.525}, {"nom": "Haution", "cp": "02140", "dept": "02", "lat": 49.8709, "lon": 3.8352}, {"nom": "La Hérie", "cp": "02500", "dept": "02", "lat": 49.8828, "lon": 4.0414}, {"nom": "Le Hérie-la-Viéville", "cp": "02120", "dept": "02", "lat": 49.8214, "lon": 3.6544}, {"nom": "Hinacourt", "cp": "02440", "dept": "02", "lat": 49.7462, "lon": 3.2943}, {"nom": "Hirson", "cp": "02500", "dept": "02", "lat": 49.938, "lon": 4.1132}, {"nom": "Holnon", "cp": "02760", "dept": "02", "lat": 49.861, "lon": 3.2007}, {"nom": "Homblières", "cp": "02720", "dept": "02", "lat": 49.8569, "lon": 3.3709}, {"nom": "Houry", "cp": "02140", "dept": "02", "lat": 49.7871, "lon": 3.8502}, {"nom": "Housset", "cp": "02250", "dept": "02", "lat": 49.7941, "lon": 3.6958}, {"nom": "Iron", "cp": "02510", "dept": "02", "lat": 49.9517, "lon": 3.6656}, {"nom": "Itancourt", "cp": "02240", "dept": "02", "lat": 49.803, "lon": 3.3501}, {"nom": "Iviers", "cp": "02360", "dept": "02", "lat": 49.7881, "lon": 4.1392}, {"nom": "Jaulgonne", "cp": "02850", "dept": "02", "lat": 49.0884, "lon": 3.5315}, {"nom": "Jeancourt", "cp": "02490", "dept": "02", "lat": 49.9308, "lon": 3.1459}, {"nom": "Jeantes", "cp": "02140", "dept": "02", "lat": 49.8142, "lon": 4.071}, {"nom": "Joncourt", "cp": "02420", "dept": "02", "lat": 49.9604, "lon": 3.3043}, {"nom": "Jouaignes", "cp": "02220", "dept": "02", "lat": 49.2947, "lon": 3.5294}, {"nom": "Jumencourt", "cp": "02380", "dept": "02", "lat": 49.5151, "lon": 3.3484}, {"nom": "Jumigny", "cp": "02160", "dept": "02", "lat": 49.4081, "lon": 3.7256}, {"nom": "Jussy", "cp": "02480", "dept": "02", "lat": 49.7168, "lon": 3.2357}, {"nom": "Juvigny", "cp": "02880", "dept": "02", "lat": 49.4488, "lon": 3.3178}, {"nom": "Juvincourt-et-Damary", "cp": "02190", "dept": "02", "lat": 49.4504, "lon": 3.8904}, {"nom": "Laffaux", "cp": "02880", "dept": "02", "lat": 49.4506, "lon": 3.4356}, {"nom": "Laigny", "cp": "02140", "dept": "02", "lat": 49.8634, "lon": 3.8573}, {"nom": "Lanchy", "cp": "02590", "dept": "02", "lat": 49.8297, "lon": 3.0727}, {"nom": "Landifay-et-Bertaignemont", "cp": "02120", "dept": "02", "lat": 49.8293, "lon": 3.604}, {"nom": "Landouzy-la-Cour", "cp": "02140", "dept": "02", "lat": 49.8445, "lon": 3.9934}, {"nom": "Landouzy-la-Ville", "cp": "02140", "dept": "02", "lat": 49.8578, "lon": 4.0489}, {"nom": "Landricourt", "cp": "02380", "dept": "02", "lat": 49.5104, "lon": 3.3717}, {"nom": "Laniscourt", "cp": "02000", "dept": "02", "lat": 49.5461, "lon": 3.5336}, {"nom": "Laon", "cp": "02000", "dept": "02", "lat": 49.5711, "lon": 3.613}, {"nom": "Lappion", "cp": "02150", "dept": "02", "lat": 49.5929, "lon": 3.9689}, {"nom": "Largny-sur-Automne", "cp": "02600", "dept": "02", "lat": 49.2627, "lon": 3.0559}, {"nom": "Latilly", "cp": "02210", "dept": "02", "lat": 49.154, "lon": 3.3123}, {"nom": "Launoy", "cp": "02210", "dept": "02", "lat": 49.2632, "lon": 3.4034}, {"nom": "Laval-en-Laonnois", "cp": "02860", "dept": "02", "lat": 49.503, "lon": 3.5862}, {"nom": "Lavaqueresse", "cp": "02450", "dept": "02", "lat": 49.9453, "lon": 3.7163}, {"nom": "Laversine", "cp": "02600", "dept": "02", "lat": 49.3541, "lon": 3.1475}, {"nom": "Lemé", "cp": "02140", "dept": "02", "lat": 49.8422, "lon": 3.758}, {"nom": "Lempire", "cp": "02420", "dept": "02", "lat": 49.9976, "lon": 3.1753}, {"nom": "Lerzy", "cp": "02260", "dept": "02", "lat": 49.9504, "lon": 3.8831}, {"nom": "Leschelle", "cp": "02170", "dept": "02", "lat": 49.963, "lon": 3.7739}, {"nom": "Lesdins", "cp": "02100", "dept": "02", "lat": 49.9036, "lon": 3.3122}, {"nom": "Lesges", "cp": "02220", "dept": "02", "lat": 49.308, "lon": 3.4982}, {"nom": "Lesquielles-Saint-Germain", "cp": "02120", "dept": "02", "lat": 49.9312, "lon": 3.6277}, {"nom": "Leuilly-sous-Coucy", "cp": "02380", "dept": "02", "lat": 49.4755, "lon": 3.3501}, {"nom": "Leury", "cp": "02880", "dept": "02", "lat": 49.4246, "lon": 3.3415}, {"nom": "Leuze", "cp": "02500", "dept": "02", "lat": 49.8586, "lon": 4.1675}, {"nom": "Levergies", "cp": "02420", "dept": "02", "lat": 49.9342, "lon": 3.3122}, {"nom": "Lhuys", "cp": "02220", "dept": "02", "lat": 49.2734, "lon": 3.5431}, {"nom": "Licy-Clignon", "cp": "02810", "dept": "02", "lat": 49.1026, "lon": 3.2654}, {"nom": "Lierval", "cp": "02860", "dept": "02", "lat": 49.488, "lon": 3.6218}, {"nom": "Liesse-Notre-Dame", "cp": "02350", "dept": "02", "lat": 49.6115, "lon": 3.8271}, {"nom": "Liez", "cp": "02700", "dept": "02", "lat": 49.6933, "lon": 3.3002}, {"nom": "Limé", "cp": "02220", "dept": "02", "lat": 49.3249, "lon": 3.5559}, {"nom": "Lislet", "cp": "02340", "dept": "02", "lat": 49.6763, "lon": 4.0198}, {"nom": "Logny-lès-Aubenton", "cp": "02500", "dept": "02", "lat": 49.832, "lon": 4.2235}, {"nom": "Longpont", "cp": "02600", "dept": "02", "lat": 49.2857, "lon": 3.2202}, {"nom": "Les Septvallons", "cp": "02160", "dept": "02", "lat": 49.3555, "lon": 3.6776}, {"nom": "Lor", "cp": "02190", "dept": "02", "lat": 49.5308, "lon": 4.0544}, {"nom": "Louâtre", "cp": "02600", "dept": "02", "lat": 49.2566, "lon": 3.2429}, {"nom": "Loupeigne", "cp": "02130", "dept": "02", "lat": 49.2437, "lon": 3.5251}, {"nom": "Lucy-le-Bocage", "cp": "02400", "dept": "02", "lat": 49.0556, "lon": 3.2755}, {"nom": "Lugny", "cp": "02140", "dept": "02", "lat": 49.7802, "lon": 3.8114}, {"nom": "Luzoir", "cp": "02500", "dept": "02", "lat": 49.9315, "lon": 3.9597}, {"nom": "Ly-Fontaine", "cp": "02440", "dept": "02", "lat": 49.7329, "lon": 3.311}, {"nom": "Maast-et-Violaine", "cp": "02220", "dept": "02", "lat": 49.2935, "lon": 3.4535}, {"nom": "Mâchecourt", "cp": "02350", "dept": "02", "lat": 49.6509, "lon": 3.8415}, {"nom": "Macogny", "cp": "02470", "dept": "02", "lat": 49.157, "lon": 3.2186}, {"nom": "Macquigny", "cp": "02120", "dept": "02", "lat": 49.8714, "lon": 3.569}, {"nom": "Magny-la-Fosse", "cp": "02420", "dept": "02", "lat": 49.9371, "lon": 3.274}, {"nom": "Maissemy", "cp": "02490", "dept": "02", "lat": 49.8924, "lon": 3.1857}, {"nom": "Maizy", "cp": "02160", "dept": "02", "lat": 49.3754, "lon": 3.7134}, {"nom": "La Malmaison", "cp": "02190", "dept": "02", "lat": 49.5168, "lon": 3.9951}, {"nom": "Malzy", "cp": "02120", "dept": "02", "lat": 49.921, "lon": 3.7317}, {"nom": "Manicamp", "cp": "02300", "dept": "02", "lat": 49.5653, "lon": 3.1805}, {"nom": "Marchais", "cp": "02350", "dept": "02", "lat": 49.5867, "lon": 3.819}, {"nom": "Dhuys et Morin-en-Brie", "cp": "02330", "dept": "02", "lat": 48.8917, "lon": 3.5092}, {"nom": "Marcy", "cp": "02720", "dept": "02", "lat": 49.8518, "lon": 3.4159}, {"nom": "Marcy-sous-Marle", "cp": "02250", "dept": "02", "lat": 49.7487, "lon": 3.7346}, {"nom": "Marest-Dampcourt", "cp": "02300", "dept": "02", "lat": 49.5942, "lon": 3.1488}, {"nom": "Mareuil-en-Dôle", "cp": "02130", "dept": "02", "lat": 49.2446, "lon": 3.5627}, {"nom": "Marfontaine", "cp": "02140", "dept": "02", "lat": 49.8085, "lon": 3.7641}, {"nom": "Margival", "cp": "02880", "dept": "02", "lat": 49.4322, "lon": 3.4072}, {"nom": "Marigny-en-Orxois", "cp": "02810", "dept": "02", "lat": 49.0551, "lon": 3.2195}, {"nom": "Marizy-Sainte-Geneviève", "cp": "02470", "dept": "02", "lat": 49.181, "lon": 3.1971}, {"nom": "Marizy-Saint-Mard", "cp": "02470", "dept": "02", "lat": 49.1823, "lon": 3.227}, {"nom": "Marle", "cp": "02250", "dept": "02", "lat": 49.7444, "lon": 3.7654}, {"nom": "Marly-Gomont", "cp": "02120", "dept": "02", "lat": 49.8894, "lon": 3.7856}, {"nom": "Martigny", "cp": "02500", "dept": "02", "lat": 49.8672, "lon": 4.1357}, {"nom": "Martigny-Courpierre", "cp": "02860", "dept": "02", "lat": 49.4919, "lon": 3.6872}, {"nom": "Mauregny-en-Haye", "cp": "02820", "dept": "02", "lat": 49.5437, "lon": 3.7968}, {"nom": "Mayot", "cp": "02800", "dept": "02", "lat": 49.7093, "lon": 3.3962}, {"nom": "Mennessis", "cp": "02700", "dept": "02", "lat": 49.6915, "lon": 3.2726}, {"nom": "Mennevret", "cp": "02630", "dept": "02", "lat": 49.9925, "lon": 3.5568}, {"nom": "Mercin-et-Vaux", "cp": "02200", "dept": "02", "lat": 49.3675, "lon": 3.2693}, {"nom": "Merlieux-et-Fouquerolles", "cp": "02000", "dept": "02", "lat": 49.5166, "lon": 3.499}, {"nom": "Mesbrecourt-Richecourt", "cp": "02270", "dept": "02", "lat": 49.7132, "lon": 3.5367}, {"nom": "Mesnil-Saint-Laurent", "cp": "02720", "dept": "02", "lat": 49.8312, "lon": 3.3657}, {"nom": "Meurival", "cp": "02160", "dept": "02", "lat": 49.3583, "lon": 3.7621}, {"nom": "Mézières-sur-Oise", "cp": "02240", "dept": "02", "lat": 49.7903, "lon": 3.3864}, {"nom": "Mézy-Moulins", "cp": "02650", "dept": "02", "lat": 49.0634, "lon": 3.5125}, {"nom": "Missy-aux-Bois", "cp": "02200", "dept": "02", "lat": 49.3353, "lon": 3.2491}, {"nom": "Missy-lès-Pierrepont", "cp": "02350", "dept": "02", "lat": 49.6291, "lon": 3.7862}, {"nom": "Missy-sur-Aisne", "cp": "02880", "dept": "02", "lat": 49.3849, "lon": 3.4399}, {"nom": "Molain", "cp": "02110", "dept": "02", "lat": 50.032, "lon": 3.53}, {"nom": "Molinchart", "cp": "02000", "dept": "02", "lat": 49.5614, "lon": 3.5407}, {"nom": "Monampteuil", "cp": "02000", "dept": "02", "lat": 49.4715, "lon": 3.5731}, {"nom": "Monceau-le-Neuf-et-Faucouzy", "cp": "02270", "dept": "02", "lat": 49.7826, "lon": 3.6311}, {"nom": "Monceau-lès-Leups", "cp": "02270", "dept": "02", "lat": 49.6621, "lon": 3.4813}, {"nom": "Monceau-le-Waast", "cp": "02840", "dept": "02", "lat": 49.6228, "lon": 3.7182}, {"nom": "Monceau-sur-Oise", "cp": "02120", "dept": "02", "lat": 49.9099, "lon": 3.6979}, {"nom": "Mondrepuis", "cp": "02500", "dept": "02", "lat": 49.9629, "lon": 4.0587}, {"nom": "Monnes", "cp": "02470", "dept": "02", "lat": 49.1473, "lon": 3.2282}, {"nom": "Mons-en-Laonnois", "cp": "02000", "dept": "02", "lat": 49.5372, "lon": 3.5531}, {"nom": "Montaigu", "cp": "02820", "dept": "02", "lat": 49.555, "lon": 3.8447}, {"nom": "Montbavin", "cp": "02000", "dept": "02", "lat": 49.5301, "lon": 3.5135}, {"nom": "Montbrehain", "cp": "02110", "dept": "02", "lat": 49.9636, "lon": 3.3564}, {"nom": "Montchâlons", "cp": "02860", "dept": "02", "lat": 49.5137, "lon": 3.7228}, {"nom": "Montcornet", "cp": "02340", "dept": "02", "lat": 49.6897, "lon": 4.0262}, {"nom": "Mont-d'Origny", "cp": "02390", "dept": "02", "lat": 49.8531, "lon": 3.5261}, {"nom": "Montescourt-Lizerolles", "cp": "02440", "dept": "02", "lat": 49.7362, "lon": 3.2581}, {"nom": "Montfaucon", "cp": "02540", "dept": "02", "lat": 48.9501, "lon": 3.4312}, {"nom": "Montgobert", "cp": "02600", "dept": "02", "lat": 49.2892, "lon": 3.1764}, {"nom": "Montgru-Saint-Hilaire", "cp": "02210", "dept": "02", "lat": 49.177, "lon": 3.326}, {"nom": "Monthenault", "cp": "02860", "dept": "02", "lat": 49.49, "lon": 3.6555}, {"nom": "Monthiers", "cp": "02400", "dept": "02", "lat": 49.1087, "lon": 3.2952}, {"nom": "Monthurel", "cp": "02330", "dept": "02", "lat": 49.0286, "lon": 3.5505}, {"nom": "Montigny-en-Arrouaise", "cp": "02110", "dept": "02", "lat": 49.914, "lon": 3.4858}, {"nom": "Montigny-l'Allier", "cp": "02810", "dept": "02", "lat": 49.1245, "lon": 3.1053}, {"nom": "Montigny-le-Franc", "cp": "02250", "dept": "02", "lat": 49.6876, "lon": 3.9188}, {"nom": "Montigny-Lengrain", "cp": "02290", "dept": "02", "lat": 49.3741, "lon": 3.0975}, {"nom": "Montigny-lès-Condé", "cp": "02330", "dept": "02", "lat": 48.982, "lon": 3.5665}, {"nom": "Montigny-sous-Marle", "cp": "02250", "dept": "02", "lat": 49.74, "lon": 3.8051}, {"nom": "Montigny-sur-Crécy", "cp": "02270", "dept": "02", "lat": 49.7126, "lon": 3.5839}, {"nom": "Montlevon", "cp": "02330", "dept": "02", "lat": 48.9577, "lon": 3.5178}, {"nom": "Montloué", "cp": "02340", "dept": "02", "lat": 49.6644, "lon": 4.0652}, {"nom": "Mont-Notre-Dame", "cp": "02220", "dept": "02", "lat": 49.2933, "lon": 3.5806}, {"nom": "Montreuil-aux-Lions", "cp": "02310", "dept": "02", "lat": 49.0258, "lon": 3.1973}, {"nom": "Mont-Saint-Jean", "cp": "02360", "dept": "02", "lat": 49.7941, "lon": 4.2102}, {"nom": "Mont-Saint-Martin", "cp": "02220", "dept": "02", "lat": 49.2754, "lon": 3.6409}, {"nom": "Mont-Saint-Père", "cp": "02400", "dept": "02", "lat": 49.0809, "lon": 3.4776}, {"nom": "Morcourt", "cp": "02100", "dept": "02", "lat": 49.8783, "lon": 3.3378}, {"nom": "Morgny-en-Thiérache", "cp": "02360", "dept": "02", "lat": 49.7557, "lon": 4.0784}, {"nom": "Morsain", "cp": "02290", "dept": "02", "lat": 49.462, "lon": 3.1896}, {"nom": "Mortefontaine", "cp": "02600", "dept": "02", "lat": 49.3366, "lon": 3.08}, {"nom": "Mortiers", "cp": "02270", "dept": "02", "lat": 49.6966, "lon": 3.6658}, {"nom": "Moulins", "cp": "02160", "dept": "02", "lat": 49.4209, "lon": 3.6789}, {"nom": "Moussy-Verneuil", "cp": "02160", "dept": "02", "lat": 49.4145, "lon": 3.6403}, {"nom": "Moÿ-de-l'Aisne", "cp": "02610", "dept": "02", "lat": 49.7504, "lon": 3.3512}, {"nom": "Muret-et-Crouttes", "cp": "02210", "dept": "02", "lat": 49.2789, "lon": 3.4382}, {"nom": "Muscourt", "cp": "02160", "dept": "02", "lat": 49.3589, "lon": 3.7441}, {"nom": "Nampcelles-la-Cour", "cp": "02140", "dept": "02", "lat": 49.7775, "lon": 3.9999}, {"nom": "Nampteuil-sous-Muret", "cp": "02200", "dept": "02", "lat": 49.305, "lon": 3.4344}, {"nom": "Nanteuil-la-Fosse", "cp": "02880", "dept": "02", "lat": 49.4344, "lon": 3.4456}, {"nom": "Nanteuil-Notre-Dame", "cp": "02210", "dept": "02", "lat": 49.1912, "lon": 3.4105}, {"nom": "Nauroy", "cp": "02420", "dept": "02", "lat": 49.9514, "lon": 3.2589}, {"nom": "Nesles-la-Montagne", "cp": "02400", "dept": "02", "lat": 49.0008, "lon": 3.4486}, {"nom": "Neufchâtel-sur-Aisne", "cp": "02190", "dept": "02", "lat": 49.4382, "lon": 4.0242}, {"nom": "Neuflieux", "cp": "02300", "dept": "02", "lat": 49.6173, "lon": 3.1596}, {"nom": "Neuilly-Saint-Front", "cp": "02470", "dept": "02", "lat": 49.165, "lon": 3.2666}, {"nom": "Neuve-Maison", "cp": "02500", "dept": "02", "lat": 49.9281, "lon": 4.0394}, {"nom": "La Neuville-Bosmont", "cp": "02250", "dept": "02", "lat": 49.7152, "lon": 3.8346}, {"nom": "La Neuville-en-Beine", "cp": "02300", "dept": "02", "lat": 49.6759, "lon": 3.1583}, {"nom": "La Neuville-Housset", "cp": "02250", "dept": "02", "lat": 49.7899, "lon": 3.7291}, {"nom": "La Neuville-lès-Dorengt", "cp": "02450", "dept": "02", "lat": 49.9832, "lon": 3.6851}, {"nom": "Neuville-Saint-Amand", "cp": "02100", "dept": "02", "lat": 49.8201, "lon": 3.3395}, {"nom": "Neuville-sur-Ailette", "cp": "02860", "dept": "02", "lat": 49.4705, "lon": 3.6986}, {"nom": "Neuville-sur-Margival", "cp": "02880", "dept": "02", "lat": 49.4542, "lon": 3.3985}, {"nom": "Neuvillette", "cp": "02390", "dept": "02", "lat": 49.8553, "lon": 3.4695}, {"nom": "Nizy-le-Comte", "cp": "02150", "dept": "02", "lat": 49.5733, "lon": 4.0348}, {"nom": "Nogentel", "cp": "02400", "dept": "02", "lat": 49.0152, "lon": 3.4042}, {"nom": "Nogent-l'Artaud", "cp": "02310", "dept": "02", "lat": 48.9425, "lon": 3.3313}, {"nom": "Noircourt", "cp": "02340", "dept": "02", "lat": 49.6691, "lon": 4.0948}, {"nom": "Noroy-sur-Ourcq", "cp": "02600", "dept": "02", "lat": 49.2031, "lon": 3.207}, {"nom": "Le Nouvion-en-Thiérache", "cp": "02170", "dept": "02", "lat": 50.0097, "lon": 3.808}, {"nom": "Nouvion-et-Catillon", "cp": "02270", "dept": "02", "lat": 49.7069, "lon": 3.4954}, {"nom": "Nouvion-le-Comte", "cp": "02800", "dept": "02", "lat": 49.7086, "lon": 3.459}, {"nom": "Nouvion-le-Vineux", "cp": "02860", "dept": "02", "lat": 49.5108, "lon": 3.6052}, {"nom": "Nouvron-Vingré", "cp": "02290", "dept": "02", "lat": 49.4349, "lon": 3.1899}, {"nom": "Noyales", "cp": "02120", "dept": "02", "lat": 49.9056, "lon": 3.5367}, {"nom": "Bernoy-le-Château", "cp": "02200", "dept": "02", "lat": 49.32, "lon": 3.3067}, {"nom": "Œuilly", "cp": "02160", "dept": "02", "lat": 49.393, "lon": 3.6818}, {"nom": "Ognes", "cp": "02300", "dept": "02", "lat": 49.616, "lon": 3.1897}, {"nom": "Ohis", "cp": "02500", "dept": "02", "lat": 49.9216, "lon": 4.0078}, {"nom": "Oigny-en-Valois", "cp": "02600", "dept": "02", "lat": 49.213, "lon": 3.1287}, {"nom": "Oisy", "cp": "02450", "dept": "02", "lat": 50.0226, "lon": 3.6502}, {"nom": "Ollezy", "cp": "02480", "dept": "02", "lat": 49.7287, "lon": 3.1465}, {"nom": "Omissy", "cp": "02100", "dept": "02", "lat": 49.88, "lon": 3.2969}, {"nom": "Orainville", "cp": "02190", "dept": "02", "lat": 49.376, "lon": 4.0123}, {"nom": "Orgeval", "cp": "02860", "dept": "02", "lat": 49.5047, "lon": 3.7011}, {"nom": "Origny-en-Thiérache", "cp": "02550", "dept": "02", "lat": 49.8845, "lon": 4.0133}, {"nom": "Origny-Sainte-Benoite", "cp": "02390", "dept": "02", "lat": 49.827, "lon": 3.534}, {"nom": "Osly-Courtil", "cp": "02290", "dept": "02", "lat": 49.4, "lon": 3.2363}, {"nom": "Ostel", "cp": "02370", "dept": "02", "lat": 49.4294, "lon": 3.5659}, {"nom": "Oulches-la-Vallée-Foulon", "cp": "02160", "dept": "02", "lat": 49.4303, "lon": 3.7406}, {"nom": "Oulchy-la-Ville", "cp": "02210", "dept": "02", "lat": 49.2085, "lon": 3.342}, {"nom": "Oulchy-le-Château", "cp": "02210", "dept": "02", "lat": 49.2085, "lon": 3.3828}, {"nom": "Paars", "cp": "02220", "dept": "02", "lat": 49.3321, "lon": 3.6024}, {"nom": "Paissy", "cp": "02160", "dept": "02", "lat": 49.4256, "lon": 3.7}, {"nom": "Pancy-Courtecon", "cp": "02860", "dept": "02", "lat": 49.4631, "lon": 3.6495}, {"nom": "Papleux", "cp": "02260", "dept": "02", "lat": 50.0169, "lon": 3.8799}, {"nom": "Parcy-et-Tigny", "cp": "02210", "dept": "02", "lat": 49.2693, "lon": 3.3291}, {"nom": "Parfondeval", "cp": "02360", "dept": "02", "lat": 49.7431, "lon": 4.1624}, {"nom": "Parfondru", "cp": "02840", "dept": "02", "lat": 49.54, "lon": 3.7062}, {"nom": "Pargnan", "cp": "02160", "dept": "02", "lat": 49.3934, "lon": 3.7003}, {"nom": "Pargny-et-Filain", "cp": "02000", "dept": "02", "lat": 49.4583, "lon": 3.5491}, {"nom": "Pargny-la-Dhuys", "cp": "02330", "dept": "02", "lat": 48.9582, "lon": 3.562}, {"nom": "Pargny-les-Bois", "cp": "02270", "dept": "02", "lat": 49.7314, "lon": 3.6183}, {"nom": "Parpeville", "cp": "02240", "dept": "02", "lat": 49.7962, "lon": 3.5659}, {"nom": "Pasly", "cp": "02200", "dept": "02", "lat": 49.4017, "lon": 3.2969}, {"nom": "Passy-en-Valois", "cp": "02470", "dept": "02", "lat": 49.165, "lon": 3.1814}, {"nom": "Passy-sur-Marne", "cp": "02850", "dept": "02", "lat": 49.068, "lon": 3.5747}, {"nom": "Pavant", "cp": "02310", "dept": "02", "lat": 48.9552, "lon": 3.2843}, {"nom": "Pernant", "cp": "02200", "dept": "02", "lat": 49.3745, "lon": 3.2336}, {"nom": "Pierremande", "cp": "02300", "dept": "02", "lat": 49.5662, "lon": 3.2535}, {"nom": "Pierrepont", "cp": "02350", "dept": "02", "lat": 49.6472, "lon": 3.7843}, {"nom": "Pignicourt", "cp": "02190", "dept": "02", "lat": 49.4064, "lon": 4.0233}, {"nom": "Pinon", "cp": "02320", "dept": "02", "lat": 49.4873, "lon": 3.4646}, {"nom": "Pithon", "cp": "02480", "dept": "02", "lat": 49.7558, "lon": 3.1047}, {"nom": "Pleine-Selve", "cp": "02240", "dept": "02", "lat": 49.7952, "lon": 3.5263}, {"nom": "Le Plessier-Huleu", "cp": "02210", "dept": "02", "lat": 49.2391, "lon": 3.3481}, {"nom": "Ploisy", "cp": "02200", "dept": "02", "lat": 49.332, "lon": 3.2735}, {"nom": "Plomion", "cp": "02140", "dept": "02", "lat": 49.8143, "lon": 4.0273}, {"nom": "Ployart-et-Vaurseine", "cp": "02860", "dept": "02", "lat": 49.4952, "lon": 3.7358}, {"nom": "Pommiers", "cp": "02200", "dept": "02", "lat": 49.3936, "lon": 3.2805}, {"nom": "Pont-Arcy", "cp": "02160", "dept": "02", "lat": 49.3918, "lon": 3.6215}, {"nom": "Pontavert", "cp": "02160", "dept": "02", "lat": 49.4189, "lon": 3.8271}, {"nom": "Pontru", "cp": "02490", "dept": "02", "lat": 49.9216, "lon": 3.2007}, {"nom": "Pontruet", "cp": "02490", "dept": "02", "lat": 49.919, "lon": 3.2326}, {"nom": "Pont-Saint-Mard", "cp": "02380", "dept": "02", "lat": 49.4967, "lon": 3.2785}, {"nom": "Pouilly-sur-Serre", "cp": "02270", "dept": "02", "lat": 49.6784, "lon": 3.585}, {"nom": "Prémont", "cp": "02110", "dept": "02", "lat": 50.0157, "lon": 3.3928}, {"nom": "Prémontré", "cp": "02320", "dept": "02", "lat": 49.5493, "lon": 3.4153}, {"nom": "Presles-et-Boves", "cp": "02370", "dept": "02", "lat": 49.3873, "lon": 3.5379}, {"nom": "Presles-et-Thierny", "cp": "02860", "dept": "02", "lat": 49.513, "lon": 3.6231}, {"nom": "Priez", "cp": "02470", "dept": "02", "lat": 49.1308, "lon": 3.2616}, {"nom": "Prisces", "cp": "02140", "dept": "02", "lat": 49.7722, "lon": 3.8604}, {"nom": "Proisy", "cp": "02120", "dept": "02", "lat": 49.8891, "lon": 3.7548}, {"nom": "Proix", "cp": "02120", "dept": "02", "lat": 49.902, "lon": 3.5769}, {"nom": "Prouvais", "cp": "02190", "dept": "02", "lat": 49.48, "lon": 3.97}, {"nom": "Proviseux-et-Plesnoy", "cp": "02190", "dept": "02", "lat": 49.4765, "lon": 4.0177}, {"nom": "Puiseux-en-Retz", "cp": "02600", "dept": "02", "lat": 49.2939, "lon": 3.1357}, {"nom": "Puisieux-et-Clanlieu", "cp": "02120", "dept": "02", "lat": 49.8485, "lon": 3.6579}, {"nom": "Quierzy", "cp": "02300", "dept": "02", "lat": 49.5638, "lon": 3.1466}, {"nom": "Quincy-Basse", "cp": "02380", "dept": "02", "lat": 49.5091, "lon": 3.3824}, {"nom": "Quincy-sous-le-Mont", "cp": "02220", "dept": "02", "lat": 49.3082, "lon": 3.5576}, {"nom": "Raillimont", "cp": "02360", "dept": "02", "lat": 49.7028, "lon": 4.1612}, {"nom": "Ramicourt", "cp": "02110", "dept": "02", "lat": 49.9611, "lon": 3.334}, {"nom": "Regny", "cp": "02240", "dept": "02", "lat": 49.8336, "lon": 3.4202}, {"nom": "Remaucourt", "cp": "02100", "dept": "02", "lat": 49.8979, "lon": 3.3528}, {"nom": "Remies", "cp": "02270", "dept": "02", "lat": 49.6799, "lon": 3.5242}, {"nom": "Remigny", "cp": "02440", "dept": "02", "lat": 49.7122, "lon": 3.2925}, {"nom": "Renansart", "cp": "02240", "dept": "02", "lat": 49.7335, "lon": 3.4587}, {"nom": "Renneval", "cp": "02340", "dept": "02", "lat": 49.7379, "lon": 4.0411}, {"nom": "Résigny", "cp": "02360", "dept": "02", "lat": 49.7411, "lon": 4.2097}, {"nom": "Ressons-le-Long", "cp": "02290", "dept": "02", "lat": 49.3829, "lon": 3.1518}, {"nom": "Retheuil", "cp": "02600", "dept": "02", "lat": 49.3186, "lon": 3.001}, {"nom": "Reuilly-Sauvigny", "cp": "02850", "dept": "02", "lat": 49.0525, "lon": 3.5616}, {"nom": "Ribeauville", "cp": "02110", "dept": "02", "lat": 50.037, "lon": 3.5903}, {"nom": "Ribemont", "cp": "02240", "dept": "02", "lat": 49.7853, "lon": 3.4707}, {"nom": "Rocourt-Saint-Martin", "cp": "02210", "dept": "02", "lat": 49.1427, "lon": 3.3915}, {"nom": "Rocquigny", "cp": "02260", "dept": "02", "lat": 50.0168, "lon": 3.9724}, {"nom": "Rogécourt", "cp": "02800", "dept": "02", "lat": 49.6493, "lon": 3.4141}, {"nom": "Rogny", "cp": "02140", "dept": "02", "lat": 49.7682, "lon": 3.8258}, {"nom": "Romeny-sur-Marne", "cp": "02310", "dept": "02", "lat": 48.9849, "lon": 3.3343}, {"nom": "Romery", "cp": "02120", "dept": "02", "lat": 49.8899, "lon": 3.7362}, {"nom": "Ronchères", "cp": "02130", "dept": "02", "lat": 49.1389, "lon": 3.6031}, {"nom": "Roucy", "cp": "02160", "dept": "02", "lat": 49.3787, "lon": 3.8162}, {"nom": "Rougeries", "cp": "02140", "dept": "02", "lat": 49.806, "lon": 3.7896}, {"nom": "Roupy", "cp": "02590", "dept": "02", "lat": 49.8121, "lon": 3.1823}, {"nom": "Rouvroy", "cp": "02100", "dept": "02", "lat": 49.8583, "lon": 3.3315}, {"nom": "Rouvroy-sur-Serre", "cp": "02360", "dept": "02", "lat": 49.7163, "lon": 4.1776}, {"nom": "Royaucourt-et-Chailvet", "cp": "02000", "dept": "02", "lat": 49.5122, "lon": 3.539}, {"nom": "Rozet-Saint-Albin", "cp": "02210", "dept": "02", "lat": 49.1979, "lon": 3.2944}, {"nom": "Rozières-sur-Crise", "cp": "02200", "dept": "02", "lat": 49.3228, "lon": 3.3644}, {"nom": "Rozoy-Bellevalle", "cp": "02540", "dept": "02", "lat": 48.9269, "lon": 3.4482}, {"nom": "Grand-Rozoy", "cp": "02210", "dept": "02", "lat": 49.2415, "lon": 3.3813}, {"nom": "Rozoy-sur-Serre", "cp": "02360", "dept": "02", "lat": 49.7036, "lon": 4.1348}, {"nom": "Saconin-et-Breuil", "cp": "02200", "dept": "02", "lat": 49.3509, "lon": 3.2459}, {"nom": "Sains-Richaumont", "cp": "02120", "dept": "02", "lat": 49.8304, "lon": 3.7018}, {"nom": "Saint-Algis", "cp": "02260", "dept": "02", "lat": 49.8946, "lon": 3.8257}, {"nom": "Saint-Aubin", "cp": "02300", "dept": "02", "lat": 49.5085, "lon": 3.1891}, {"nom": "Saint-Bandry", "cp": "02290", "dept": "02", "lat": 49.3643, "lon": 3.1471}, {"nom": "Saint-Christophe-à-Berry", "cp": "02290", "dept": "02", "lat": 49.4296, "lon": 3.1302}, {"nom": "Saint-Clément", "cp": "02360", "dept": "02", "lat": 49.7741, "lon": 4.0702}, {"nom": "Sainte-Croix", "cp": "02820", "dept": "02", "lat": 49.4798, "lon": 3.7815}, {"nom": "Saint-Erme-Outre-et-Ramecourt", "cp": "02820", "dept": "02", "lat": 49.5219, "lon": 3.8564}, {"nom": "Saint-Eugène", "cp": "02330", "dept": "02", "lat": 49.0155, "lon": 3.5173}, {"nom": "Sainte-Geneviève", "cp": "02340", "dept": "02", "lat": 49.7248, "lon": 4.0744}, {"nom": "Saint-Gengoulph", "cp": "02810", "dept": "02", "lat": 49.1154, "lon": 3.2129}, {"nom": "Saint-Gobain", "cp": "02410", "dept": "02", "lat": 49.5966, "lon": 3.394}, {"nom": "Saint-Gobert", "cp": "02140", "dept": "02", "lat": 49.8047, "lon": 3.831}, {"nom": "Saint-Mard", "cp": "02220", "dept": "02", "lat": 49.3832, "lon": 3.5894}, {"nom": "Saint-Martin-Rivière", "cp": "02110", "dept": "02", "lat": 50.0438, "lon": 3.5541}, {"nom": "Saint-Michel", "cp": "02830", "dept": "02", "lat": 49.931, "lon": 4.15}, {"nom": "Saint-Nicolas-aux-Bois", "cp": "02410", "dept": "02", "lat": 49.6005, "lon": 3.4391}, {"nom": "Saint-Paul-aux-Bois", "cp": "02300", "dept": "02", "lat": 49.5463, "lon": 3.2004}, {"nom": "Saint-Pierre-Aigle", "cp": "02600", "dept": "02", "lat": 49.3137, "lon": 3.1992}, {"nom": "Saint-Pierre-lès-Franqueville", "cp": "02140", "dept": "02", "lat": 49.8246, "lon": 3.8189}, {"nom": "Saint-Pierremont", "cp": "02250", "dept": "02", "lat": 49.7178, "lon": 3.8755}, {"nom": "Sainte-Preuve", "cp": "02350", "dept": "02", "lat": 49.619, "lon": 3.9113}, {"nom": "Saint-Quentin", "cp": "02100", "dept": "02", "lat": 49.8475, "lon": 3.279}, {"nom": "Saint-Rémy-Blanzy", "cp": "02210", "dept": "02", "lat": 49.2472, "lon": 3.3034}, {"nom": "Saint-Simon", "cp": "02640", "dept": "02", "lat": 49.7457, "lon": 3.1818}, {"nom": "Saint-Thomas", "cp": "02820", "dept": "02", "lat": 49.5019, "lon": 3.819}, {"nom": "Samoussy", "cp": "02840", "dept": "02", "lat": 49.5906, "lon": 3.7432}, {"nom": "Sancy-les-Cheminots", "cp": "02880", "dept": "02", "lat": 49.4386, "lon": 3.4768}, {"nom": "Saponay", "cp": "02130", "dept": "02", "lat": 49.2117, "lon": 3.4896}, {"nom": "Saulchery", "cp": "02310", "dept": "02", "lat": 48.9819, "lon": 3.3116}, {"nom": "Savy", "cp": "02590", "dept": "02", "lat": 49.8336, "lon": 3.1977}, {"nom": "Seboncourt", "cp": "02110", "dept": "02", "lat": 49.9635, "lon": 3.4949}, {"nom": "Selens", "cp": "02300", "dept": "02", "lat": 49.4975, "lon": 3.2018}, {"nom": "La Selve", "cp": "02150", "dept": "02", "lat": 49.5706, "lon": 3.9946}, {"nom": "Septmonts", "cp": "02200", "dept": "02", "lat": 49.3375, "lon": 3.3641}, {"nom": "Septvaux", "cp": "02410", "dept": "02", "lat": 49.5704, "lon": 3.3856}, {"nom": "Sequehart", "cp": "02420", "dept": "02", "lat": 49.9301, "lon": 3.3419}, {"nom": "Serain", "cp": "02110", "dept": "02", "lat": 50.0239, "lon": 3.3649}, {"nom": "Seraucourt-le-Grand", "cp": "02790", "dept": "02", "lat": 49.7823, "lon": 3.216}, {"nom": "Serches", "cp": "02220", "dept": "02", "lat": 49.3322, "lon": 3.4492}, {"nom": "Sergy", "cp": "02130", "dept": "02", "lat": 49.182, "lon": 3.568}, {"nom": "Seringes-et-Nesles", "cp": "02130", "dept": "02", "lat": 49.2115, "lon": 3.5606}, {"nom": "Sermoise", "cp": "02220", "dept": "02", "lat": 49.3717, "lon": 3.4463}, {"nom": "Serval", "cp": "02160", "dept": "02", "lat": 49.3525, "lon": 3.6817}, {"nom": "Servais", "cp": "02700", "dept": "02", "lat": 49.6194, "lon": 3.3422}, {"nom": "Séry-lès-Mézières", "cp": "02240", "dept": "02", "lat": 49.7657, "lon": 3.4242}, {"nom": "Silly-la-Poterie", "cp": "02460", "dept": "02", "lat": 49.197, "lon": 3.1517}, {"nom": "Sinceny", "cp": "02300", "dept": "02", "lat": 49.5931, "lon": 3.2668}, {"nom": "Sissonne", "cp": "02150", "dept": "02", "lat": 49.5685, "lon": 3.9298}, {"nom": "Sissy", "cp": "02240", "dept": "02", "lat": 49.8089, "lon": 3.4206}, {"nom": "Soissons", "cp": "02200", "dept": "02", "lat": 49.3766, "lon": 3.3235}, {"nom": "Soize", "cp": "02340", "dept": "02", "lat": 49.6973, "lon": 4.0826}, {"nom": "Sommelans", "cp": "02470", "dept": "02", "lat": 49.1355, "lon": 3.2903}, {"nom": "Sommeron", "cp": "02260", "dept": "02", "lat": 49.9574, "lon": 3.9432}, {"nom": "Sommette-Eaucourt", "cp": "02480", "dept": "02", "lat": 49.7268, "lon": 3.1178}, {"nom": "Sons-et-Ronchères", "cp": "02270", "dept": "02", "lat": 49.7669, "lon": 3.6682}, {"nom": "Sorbais", "cp": "02580", "dept": "02", "lat": 49.9104, "lon": 3.8808}, {"nom": "Soucy", "cp": "02600", "dept": "02", "lat": 49.3229, "lon": 3.1229}, {"nom": "Soupir", "cp": "02160", "dept": "02", "lat": 49.4107, "lon": 3.599}, {"nom": "Le Sourd", "cp": "02140", "dept": "02", "lat": 49.8664, "lon": 3.7518}, {"nom": "Surfontaine", "cp": "02240", "dept": "02", "lat": 49.7472, "lon": 3.4783}, {"nom": "Taillefontaine", "cp": "02600", "dept": "02", "lat": 49.3108, "lon": 3.0502}, {"nom": "Tannières", "cp": "02220", "dept": "02", "lat": 49.2871, "lon": 3.5483}, {"nom": "Tartiers", "cp": "02290", "dept": "02", "lat": 49.4368, "lon": 3.2332}, {"nom": "Tavaux-et-Pontséricourt", "cp": "02250", "dept": "02", "lat": 49.7287, "lon": 3.924}, {"nom": "Tergnier", "cp": "02700", "dept": "02", "lat": 49.6562, "lon": 3.2949}, {"nom": "Terny-Sorny", "cp": "02880", "dept": "02", "lat": 49.4495, "lon": 3.3678}, {"nom": "Thenailles", "cp": "02140", "dept": "02", "lat": 49.812, "lon": 3.9474}, {"nom": "Thenelles", "cp": "02390", "dept": "02", "lat": 49.8329, "lon": 3.4593}, {"nom": "Thiernu", "cp": "02250", "dept": "02", "lat": 49.7653, "lon": 3.7795}, {"nom": "Le Thuel", "cp": "02340", "dept": "02", "lat": 49.643, "lon": 4.0834}, {"nom": "Torcy-en-Valois", "cp": "02810", "dept": "02", "lat": 49.0836, "lon": 3.2739}, {"nom": "Toulis-et-Attencourt", "cp": "02250", "dept": "02", "lat": 49.6951, "lon": 3.7464}, {"nom": "Travecy", "cp": "02800", "dept": "02", "lat": 49.685, "lon": 3.3454}, {"nom": "Trefcon", "cp": "02490", "dept": "02", "lat": 49.8622, "lon": 3.0888}, {"nom": "Trélou-sur-Marne", "cp": "02850", "dept": "02", "lat": 49.0903, "lon": 3.6055}, {"nom": "Troësnes", "cp": "02460", "dept": "02", "lat": 49.1984, "lon": 3.1773}, {"nom": "Trosly-Loire", "cp": "02300", "dept": "02", "lat": 49.5167, "lon": 3.2298}, {"nom": "Trucy", "cp": "02860", "dept": "02", "lat": 49.4721, "lon": 3.6111}, {"nom": "Tugny-et-Pont", "cp": "02640", "dept": "02", "lat": 49.7676, "lon": 3.1642}, {"nom": "Tupigny", "cp": "02120", "dept": "02", "lat": 49.9775, "lon": 3.5983}, {"nom": "Ugny-le-Gay", "cp": "02300", "dept": "02", "lat": 49.6623, "lon": 3.1569}, {"nom": "Urcel", "cp": "02000", "dept": "02", "lat": 49.4936, "lon": 3.5575}, {"nom": "Urvillers", "cp": "02690", "dept": "02", "lat": 49.7895, "lon": 3.3203}, {"nom": "Vadencourt", "cp": "02120", "dept": "02", "lat": 49.9248, "lon": 3.5774}, {"nom": "Vailly-sur-Aisne", "cp": "02370", "dept": "02", "lat": 49.4124, "lon": 3.5174}, {"nom": "La Vallée-au-Blé", "cp": "02140", "dept": "02", "lat": 49.8572, "lon": 3.794}, {"nom": "La Vallée-Mulâtre", "cp": "02110", "dept": "02", "lat": 50.0259, "lon": 3.561}, {"nom": "Variscourt", "cp": "02190", "dept": "02", "lat": 49.4152, "lon": 3.9828}, {"nom": "Vassens", "cp": "02290", "dept": "02", "lat": 49.4745, "lon": 3.1556}, {"nom": "Vasseny", "cp": "02220", "dept": "02", "lat": 49.3574, "lon": 3.4909}, {"nom": "Vassogne", "cp": "02160", "dept": "02", "lat": 49.4203, "lon": 3.729}, {"nom": "Vaucelles-et-Beffecourt", "cp": "02000", "dept": "02", "lat": 49.5215, "lon": 3.5584}, {"nom": "Vaudesson", "cp": "02320", "dept": "02", "lat": 49.4775, "lon": 3.4872}, {"nom": "Vauxrezis", "cp": "02200", "dept": "02", "lat": 49.4213, "lon": 3.2747}, {"nom": "Vauxaillon", "cp": "02320", "dept": "02", "lat": 49.4767, "lon": 3.4084}, {"nom": "Vaux-Andigny", "cp": "02110", "dept": "02", "lat": 50.009, "lon": 3.5248}, {"nom": "Vauxbuin", "cp": "02200", "dept": "02", "lat": 49.3577, "lon": 3.2957}, {"nom": "Vaux-en-Vermandois", "cp": "02590", "dept": "02", "lat": 49.8259, "lon": 3.138}, {"nom": "Vauxtin", "cp": "02220", "dept": "02", "lat": 49.3449, "lon": 3.6031}, {"nom": "Vendelles", "cp": "02490", "dept": "02", "lat": 49.9077, "lon": 3.139}, {"nom": "Vendeuil", "cp": "02800", "dept": "02", "lat": 49.7236, "lon": 3.3478}, {"nom": "Vendhuile", "cp": "02420", "dept": "02", "lat": 50.0124, "lon": 3.2076}, {"nom": "Vendières", "cp": "02540", "dept": "02", "lat": 48.8748, "lon": 3.4449}, {"nom": "Vendresse-Beaulne", "cp": "02160", "dept": "02", "lat": 49.4314, "lon": 3.6637}, {"nom": "Vénérolles", "cp": "02510", "dept": "02", "lat": 49.9898, "lon": 3.6287}, {"nom": "Venizel", "cp": "02200", "dept": "02", "lat": 49.369, "lon": 3.395}, {"nom": "Verdilly", "cp": "02400", "dept": "02", "lat": 49.0746, "lon": 3.4231}, {"nom": "Le Verguier", "cp": "02490", "dept": "02", "lat": 49.9257, "lon": 3.1726}, {"nom": "Grand-Verly", "cp": "02120", "dept": "02", "lat": 49.9446, "lon": 3.5814}, {"nom": "Petit-Verly", "cp": "02630", "dept": "02", "lat": 49.9609, "lon": 3.5646}, {"nom": "Vermand", "cp": "02490", "dept": "02", "lat": 49.884, "lon": 3.1555}, {"nom": "Verneuil-sous-Coucy", "cp": "02380", "dept": "02", "lat": 49.5446, "lon": 3.3188}, {"nom": "Verneuil-sur-Serre", "cp": "02000", "dept": "02", "lat": 49.6452, "lon": 3.6806}, {"nom": "Versigny", "cp": "02800", "dept": "02", "lat": 49.6571, "lon": 3.4435}, {"nom": "Vervins", "cp": "02140", "dept": "02", "lat": 49.8371, "lon": 3.9226}, {"nom": "Vesles-et-Caumont", "cp": "02350", "dept": "02", "lat": 49.6767, "lon": 3.7921}, {"nom": "Veslud", "cp": "02840", "dept": "02", "lat": 49.5402, "lon": 3.7301}, {"nom": "Veuilly-la-Poterie", "cp": "02810", "dept": "02", "lat": 49.0814, "lon": 3.2185}, {"nom": "Vézaponin", "cp": "02290", "dept": "02", "lat": 49.4666, "lon": 3.2235}, {"nom": "Vézilly", "cp": "02130", "dept": "02", "lat": 49.1877, "lon": 3.6817}, {"nom": "Vic-sur-Aisne", "cp": "02290", "dept": "02", "lat": 49.4125, "lon": 3.1108}, {"nom": "Vichel-Nanteuil", "cp": "02210", "dept": "02", "lat": 49.1821, "lon": 3.2965}, {"nom": "Viel-Arcy", "cp": "02160", "dept": "02", "lat": 49.3794, "lon": 3.6243}, {"nom": "Viels-Maisons", "cp": "02540", "dept": "02", "lat": 48.9035, "lon": 3.397}, {"nom": "Vierzy", "cp": "02210", "dept": "02", "lat": 49.2873, "lon": 3.2762}, {"nom": "Viffort", "cp": "02540", "dept": "02", "lat": 48.9555, "lon": 3.4663}, {"nom": "Vigneux-Hocquet", "cp": "02340", "dept": "02", "lat": 49.7424, "lon": 3.9931}, {"nom": "La Ville-aux-Bois-lès-Dizy", "cp": "02340", "dept": "02", "lat": 49.6629, "lon": 3.9882}, {"nom": "La Ville-aux-Bois-lès-Pontavert", "cp": "02160", "dept": "02", "lat": 49.4278, "lon": 3.8536}, {"nom": "Villemontoire", "cp": "02210", "dept": "02", "lat": 49.3004, "lon": 3.3204}, {"nom": "Villeneuve-Saint-Germain", "cp": "02200", "dept": "02", "lat": 49.3809, "lon": 3.3595}, {"nom": "Villeneuve-sur-Fère", "cp": "02130", "dept": "02", "lat": 49.171, "lon": 3.4775}, {"nom": "Villequier-Aumont", "cp": "02300", "dept": "02", "lat": 49.66, "lon": 3.1991}, {"nom": "Villeret", "cp": "02420", "dept": "02", "lat": 49.9501, "lon": 3.186}, {"nom": "Villers-Agron-Aiguizy", "cp": "02130", "dept": "02", "lat": 49.1609, "lon": 3.7143}, {"nom": "Villers-Cotterêts", "cp": "02600", "dept": "02", "lat": 49.2197, "lon": 3.1025}, {"nom": "Villers-Hélon", "cp": "02600", "dept": "02", "lat": 49.2649, "lon": 3.2681}, {"nom": "Villers-le-Sec", "cp": "02240", "dept": "02", "lat": 49.7701, "lon": 3.505}, {"nom": "Villers-lès-Guise", "cp": "02120", "dept": "02", "lat": 49.9251, "lon": 3.6827}, {"nom": "Villers-Saint-Christophe", "cp": "02590", "dept": "02", "lat": 49.7799, "lon": 3.092}, {"nom": "Villers-sur-Fère", "cp": "02130", "dept": "02", "lat": 49.1679, "lon": 3.5302}, {"nom": "Ville-Savoye", "cp": "02220", "dept": "02", "lat": 49.2942, "lon": 3.6403}, {"nom": "Villiers-Saint-Denis", "cp": "02310", "dept": "02", "lat": 48.9978, "lon": 3.2621}, {"nom": "Vincy-Reuil-et-Magny", "cp": "02340", "dept": "02", "lat": 49.7153, "lon": 4.0467}, {"nom": "Viry-Noureuil", "cp": "02300", "dept": "02", "lat": 49.6355, "lon": 3.2483}, {"nom": "Vivaise", "cp": "02870", "dept": "02", "lat": 49.6238, "lon": 3.5634}, {"nom": "Vivières", "cp": "02600", "dept": "02", "lat": 49.3093, "lon": 3.0877}, {"nom": "Voharies", "cp": "02140", "dept": "02", "lat": 49.7879, "lon": 3.7915}, {"nom": "Vorges", "cp": "02860", "dept": "02", "lat": 49.5182, "lon": 3.6527}, {"nom": "Voulpaix", "cp": "02140", "dept": "02", "lat": 49.8408, "lon": 3.8332}, {"nom": "Voyenne", "cp": "02250", "dept": "02", "lat": 49.7129, "lon": 3.7408}, {"nom": "Vregny", "cp": "02880", "dept": "02", "lat": 49.4142, "lon": 3.4189}, {"nom": "Vuillery", "cp": "02880", "dept": "02", "lat": 49.4292, "lon": 3.3872}, {"nom": "Wassigny", "cp": "02630", "dept": "02", "lat": 50.0177, "lon": 3.6018}, {"nom": "Watigny", "cp": "02830", "dept": "02", "lat": 49.9193, "lon": 4.199}, {"nom": "Wiège-Faty", "cp": "02120", "dept": "02", "lat": 49.8852, "lon": 3.7192}, {"nom": "Wimy", "cp": "02500", "dept": "02", "lat": 49.9485, "lon": 3.9972}, {"nom": "Wissignicourt", "cp": "02320", "dept": "02", "lat": 49.5288, "lon": 3.4451}]