[{"nom": "Abbéville-la-Rivière", "cp": "91150", "dept": "91", "lat": 48.3369, "lon": 2.197}, {"nom": "Angerville", "cp": "91670", "dept": "91", "lat": 48.3116, "lon": 2.0057}, {"nom": "Angervilliers", "cp": "91470", "dept": "91", "lat": 48.5916, "lon": 2.0593}, {"nom": "Arpajon", "cp": "91290", "dept": "91", "lat": 48.5894, "lon": 2.2462}, {"nom": "Arrancourt", "cp": "91690", "dept": "91", "lat": 48.3279, "lon": 2.1489}, {"nom": "Athis-Mons", "cp": "91200", "dept": "91", "lat": 48.7093, "lon": 2.3848}, {"nom": "Authon-la-Plaine", "cp": "91410", "dept": "91", "lat": 48.456, "lon": 1.9545}, {"nom": "Auvernaux", "cp": "91830", "dept": "91", "lat": 48.5274, "lon": 2.4898}, {"nom": "Auvers-Saint-Georges", "cp": "91580", "dept": "91", "lat": 48.4745, "lon": 2.2229}, {"nom": "Avrainville", "cp": "91630", "dept": "91", "lat": 48.5543, "lon": 2.2437}, {"nom": "Ballainvilliers", "cp": "91160", "dept": "91", "lat": 48.6718, "lon": 2.291}, {"nom": "Ballancourt-sur-Essonne", "cp": "91610", "dept": "91", "lat": 48.5246, "lon": 2.3882}, {"nom": "Baulne", "cp": "91590", "dept": "91", "lat": 48.495, "lon": 2.3809}, {"nom": "Bièvres", "cp": "91570", "dept": "91", "lat": 48.7565, "lon": 2.2079}, {"nom": "Blandy", "cp": "91150", "dept": "91", "lat": 48.3205, "lon": 2.2576}, {"nom": "Boigneville", "cp": "91720", "dept": "91", "lat": 48.328, "lon": 2.3655}, {"nom": "Bois-Herpin", "cp": "91150", "dept": "91", "lat": 48.375, "lon": 2.2393}, {"nom": "Boissy-la-Rivière", "cp": "91690", "dept": "91", "lat": 48.3801, "lon": 2.1715}, {"nom": "Boissy-le-Cutté", "cp": "91590", "dept": "91", "lat": 48.4711, "lon": 2.2841}, {"nom": "Boissy-le-Sec", "cp": "91870", "dept": "91", "lat": 48.4865, "lon": 2.0919}, {"nom": "Boissy-sous-Saint-Yon", "cp": "91790", "dept": "91", "lat": 48.5528, "lon": 2.2111}, {"nom": "Bondoufle", "cp": "91070", "dept": "91", "lat": 48.6155, "lon": 2.3795}, {"nom": "Boullay-les-Troux", "cp": "91470", "dept": "91", "lat": 48.6746, "lon": 2.0496}, {"nom": "Bouray-sur-Juine", "cp": "91850", "dept": "91", "lat": 48.5115, "lon": 2.2968}, {"nom": "Boussy-Saint-Antoine", "cp": "91800", "dept": "91", "lat": 48.6893, "lon": 2.5354}, {"nom": "Boutervilliers", "cp": "91150", "dept": "91", "lat": 48.4542, "lon": 2.0512}, {"nom": "Boutigny-sur-Essonne", "cp": "91820", "dept": "91", "lat": 48.4359, "lon": 2.3924}, {"nom": "Bouville", "cp": "91880", "dept": "91", "lat": 48.437, "lon": 2.2806}, {"nom": "Brétigny-sur-Orge", "cp": "91220", "dept": "91", "lat": 48.601, "lon": 2.2989}, {"nom": "Breuillet", "cp": "91650", "dept": "91", "lat": 48.5716, "lon": 2.1644}, {"nom": "Breux-Jouy", "cp": "91650", "dept": "91", "lat": 48.551, "lon": 2.1601}, {"nom": "Brières-les-Scellés", "cp": "91150", "dept": "91", "lat": 48.4646, "lon": 2.1427}, {"nom": "Briis-sous-Forges", "cp": "91640", "dept": "91", "lat": 48.6294, "lon": 2.1304}, {"nom": "Brouy", "cp": "91150", "dept": "91", "lat": 48.3268, "lon": 2.2927}, {"nom": "Brunoy", "cp": "91800", "dept": "91", "lat": 48.6948, "lon": 2.5059}, {"nom": "Bruyères-le-Châtel", "cp": "91680", "dept": "91", "lat": 48.6031, "lon": 2.1804}, {"nom": "Buno-Bonnevaux", "cp": "91720", "dept": "91", "lat": 48.36, "lon": 2.4131}, {"nom": "Bures-sur-Yvette", "cp": "91440", "dept": "91", "lat": 48.6913, "lon": 2.1589}, {"nom": "Cerny", "cp": "91590", "dept": "91", "lat": 48.4837, "lon": 2.309}, {"nom": "Chalo-Saint-Mars", "cp": "91780", "dept": "91", "lat": 48.4157, "lon": 2.0564}, {"nom": "Chalou-Moulineux", "cp": "91740", "dept": "91", "lat": 48.381, "lon": 2.0245}, {"nom": "Chamarande", "cp": "91730", "dept": "91", "lat": 48.5165, "lon": 2.2209}, {"nom": "Champcueil", "cp": "91750", "dept": "91", "lat": 48.5052, "lon": 2.4447}, {"nom": "Champlan", "cp": "91160", "dept": "91", "lat": 48.7083, "lon": 2.2775}, {"nom": "Champmotteux", "cp": "91150", "dept": "91", "lat": 48.3431, "lon": 2.3161}, {"nom": "Chatignonville", "cp": "91410", "dept": "91", "lat": 48.4675, "lon": 1.9351}, {"nom": "Chauffour-lès-Étréchy", "cp": "91580", "dept": "91", "lat": 48.5085, "lon": 2.1705}, {"nom": "Cheptainville", "cp": "91630", "dept": "91", "lat": 48.5472, "lon": 2.276}, {"nom": "Chevannes", "cp": "91750", "dept": "91", "lat": 48.534, "lon": 2.4386}, {"nom": "Chilly-Mazarin", "cp": "91380", "dept": "91", "lat": 48.7051, "lon": 2.3103}, {"nom": "Corbeil-Essonnes", "cp": "91100", "dept": "91", "lat": 48.5973, "lon": 2.4646}, {"nom": "Corbreuse", "cp": "91410", "dept": "91", "lat": 48.5007, "lon": 1.9638}, {"nom": "Le Coudray-Montceaux", "cp": "91830", "dept": "91", "lat": 48.5605, "lon": 2.4926}, {"nom": "Courances", "cp": "91490", "dept": "91", "lat": 48.4409, "lon": 2.4838}, {"nom": "Courdimanche-sur-Essonne", "cp": "91720", "dept": "91", "lat": 48.4202, "lon": 2.3591}, {"nom": "Courson-Monteloup", "cp": "91680", "dept": "91", "lat": 48.599, "lon": 2.1389}, {"nom": "Crosne", "cp": "91560", "dept": "91", "lat": 48.7202, "lon": 2.4621}, {"nom": "Dannemois", "cp": "91490", "dept": "91", "lat": 48.4602, "lon": 2.4708}, {"nom": "D'Huison-Longueville", "cp": "91590", "dept": "91", "lat": 48.4547, "lon": 2.323}, {"nom": "Dourdan", "cp": "91410", "dept": "91", "lat": 48.532, "lon": 1.9924}, {"nom": "Draveil", "cp": "91210", "dept": "91", "lat": 48.6777, "lon": 2.4249}, {"nom": "Écharcon", "cp": "91540", "dept": "91", "lat": 48.5747, "lon": 2.4023}, {"nom": "Égly", "cp": "91520", "dept": "91", "lat": 48.5778, "lon": 2.2183}, {"nom": "Épinay-sous-Sénart", "cp": "91860", "dept": "91", "lat": 48.6885, "lon": 2.5152}, {"nom": "Épinay-sur-Orge", "cp": "91360", "dept": "91", "lat": 48.6719, "lon": 2.3194}, {"nom": "Étampes", "cp": "91150", "dept": "91", "lat": 48.4227, "lon": 2.1524}, {"nom": "Étiolles", "cp": "91450", "dept": "91", "lat": 48.6485, "lon": 2.4852}, {"nom": "Étréchy", "cp": "91580", "dept": "91", "lat": 48.4956, "lon": 2.177}, {"nom": "Évry-Courcouronnes", "cp": "91000", "dept": "91", "lat": 48.6287, "lon": 2.4313}, {"nom": "La Ferté-Alais", "cp": "91590", "dept": "91", "lat": 48.4819, "lon": 2.3678}, {"nom": "Fleury-Mérogis", "cp": "91700", "dept": "91", "lat": 48.6327, "lon": 2.3712}, {"nom": "Fontaine-la-Rivière", "cp": "91690", "dept": "91", "lat": 48.359, "lon": 2.1674}, {"nom": "Fontenay-lès-Briis", "cp": "91640", "dept": "91", "lat": 48.6112, "lon": 2.171}, {"nom": "Fontenay-le-Vicomte", "cp": "91540", "dept": "91", "lat": 48.5474, "lon": 2.3997}, {"nom": "La Forêt-le-Roi", "cp": "91410", "dept": "91", "lat": 48.4775, "lon": 2.0457}, {"nom": "La Forêt-Sainte-Croix", "cp": "91150", "dept": "91", "lat": 48.3832, "lon": 2.2308}, {"nom": "Forges-les-Bains", "cp": "91470", "dept": "91", "lat": 48.6182, "lon": 2.0811}, {"nom": "Gif-sur-Yvette", "cp": "91190", "dept": "91", "lat": 48.6964, "lon": 2.1342}, {"nom": "Gironville-sur-Essonne", "cp": "91720", "dept": "91", "lat": 48.3655, "lon": 2.3451}, {"nom": "Gometz-la-Ville", "cp": "91400", "dept": "91", "lat": 48.675, "lon": 2.1127}, {"nom": "Gometz-le-Châtel", "cp": "91940", "dept": "91", "lat": 48.6729, "lon": 2.142}, {"nom": "Les Granges-le-Roi", "cp": "91410", "dept": "91", "lat": 48.4994, "lon": 2.0124}, {"nom": "Grigny", "cp": "91350", "dept": "91", "lat": 48.6584, "lon": 2.3861}, {"nom": "Guibeville", "cp": "91630", "dept": "91", "lat": 48.567, "lon": 2.2714}, {"nom": "Guigneville-sur-Essonne", "cp": "91590", "dept": "91", "lat": 48.4636, "lon": 2.3755}, {"nom": "Guillerval", "cp": "91690", "dept": "91", "lat": 48.3662, "lon": 2.0802}, {"nom": "Igny", "cp": "91430", "dept": "91", "lat": 48.7375, "lon": 2.2229}, {"nom": "Itteville", "cp": "91760", "dept": "91", "lat": 48.5144, "lon": 2.3398}, {"nom": "Janville-sur-Juine", "cp": "91510", "dept": "91", "lat": 48.4991, "lon": 2.2493}, {"nom": "Janvry", "cp": "91640", "dept": "91", "lat": 48.6456, "lon": 2.1564}, {"nom": "Juvisy-sur-Orge", "cp": "91260", "dept": "91", "lat": 48.6917, "lon": 2.3722}, {"nom": "Lardy", "cp": "91510", "dept": "91", "lat": 48.5284, "lon": 2.2707}, {"nom": "Leudeville", "cp": "91630", "dept": "91", "lat": 48.5726, "lon": 2.3291}, {"nom": "Leuville-sur-Orge", "cp": "91310", "dept": "91", "lat": 48.6135, "lon": 2.2695}, {"nom": "Limours", "cp": "91470", "dept": "91", "lat": 48.6463, "lon": 2.0823}, {"nom": "Linas", "cp": "91310", "dept": "91", "lat": 48.6261, "lon": 2.2525}, {"nom": "Lisses", "cp": "91090", "dept": "91", "lat": 48.5935, "lon": 2.4259}, {"nom": "Longjumeau", "cp": "91160", "dept": "91", "lat": 48.6923, "lon": 2.3057}, {"nom": "Longpont-sur-Orge", "cp": "91310", "dept": "91", "lat": 48.639, "lon": 2.2859}, {"nom": "Maisse", "cp": "91720", "dept": "91", "lat": 48.3961, "lon": 2.3744}, {"nom": "Marcoussis", "cp": "91460", "dept": "91", "lat": 48.6491, "lon": 2.2078}, {"nom": "Marolles-en-Beauce", "cp": "91150", "dept": "91", "lat": 48.3713, "lon": 2.2067}, {"nom": "Marolles-en-Hurepoix", "cp": "91630", "dept": "91", "lat": 48.5641, "lon": 2.2992}, {"nom": "Massy", "cp": "91300", "dept": "91", "lat": 48.7263, "lon": 2.2696}, {"nom": "Mauchamps", "cp": "91730", "dept": "91", "lat": 48.5287, "lon": 2.1976}, {"nom": "Mennecy", "cp": "91540", "dept": "91", "lat": 48.5592, "lon": 2.4362}, {"nom": "Le Mérévillois", "cp": "91660", "dept": "91", "lat": 48.3201, "lon": 2.0963}, {"nom": "Mérobert", "cp": "91780", "dept": "91", "lat": 48.4191, "lon": 1.9919}, {"nom": "Mespuits", "cp": "91150", "dept": "91", "lat": 48.3574, "lon": 2.2802}, {"nom": "Milly-la-Forêt", "cp": "91490", "dept": "91", "lat": 48.3966, "lon": 2.4771}, {"nom": "Moigny-sur-École", "cp": "91490", "dept": "91", "lat": 48.4367, "lon": 2.4412}, {"nom": "Les Molières", "cp": "91470", "dept": "91", "lat": 48.6736, "lon": 2.0682}, {"nom": "Mondeville", "cp": "91590", "dept": "91", "lat": 48.4924, "lon": 2.4227}, {"nom": "Monnerville", "cp": "91930", "dept": "91", "lat": 48.3471, "lon": 2.0379}, {"nom": "Montgeron", "cp": "91230", "dept": "91", "lat": 48.6952, "lon": 2.4638}, {"nom": "Montlhéry", "cp": "91310", "dept": "91", "lat": 48.6392, "lon": 2.266}, {"nom": "Morangis", "cp": "91420", "dept": "91", "lat": 48.7022, "lon": 2.3361}, {"nom": "Morigny-Champigny", "cp": "91150", "dept": "91", "lat": 48.4383, "lon": 2.2025}, {"nom": "Morsang-sur-Orge", "cp": "91390", "dept": "91", "lat": 48.6564, "lon": 2.3513}, {"nom": "Morsang-sur-Seine", "cp": "91250", "dept": "91", "lat": 48.5775, "lon": 2.5013}, {"nom": "Nainville-les-Roches", "cp": "91750", "dept": "91", "lat": 48.5053, "lon": 2.4943}, {"nom": "La Norville", "cp": "91290", "dept": "91", "lat": 48.583, "lon": 2.266}, {"nom": "Nozay", "cp": "91620", "dept": "91", "lat": 48.6594, "lon": 2.2366}, {"nom": "Ollainville", "cp": "91340", "dept": "91", "lat": 48.6068, "lon": 2.2204}, {"nom": "Oncy-sur-École", "cp": "91490", "dept": "91", "lat": 48.3803, "lon": 2.4564}, {"nom": "Ormoy", "cp": "91540", "dept": "91", "lat": 48.5714, "lon": 2.4576}, {"nom": "Ormoy-la-Rivière", "cp": "91150", "dept": "91", "lat": 48.4024, "lon": 2.1652}, {"nom": "Orsay", "cp": "91400", "dept": "91", "lat": 48.6972, "lon": 2.1896}, {"nom": "Orveau", "cp": "91590", "dept": "91", "lat": 48.4489, "lon": 2.297}, {"nom": "Palaiseau", "cp": "91120", "dept": "91", "lat": 48.7155, "lon": 2.2293}, {"nom": "Paray-Vieille-Poste", "cp": "91550", "dept": "91", "lat": 48.7239, "lon": 2.3577}, {"nom": "Pecqueuse", "cp": "91470", "dept": "91", "lat": 48.646, "lon": 2.0361}, {"nom": "Le Plessis-Pâté", "cp": "91220", "dept": "91", "lat": 48.6054, "lon": 2.3404}, {"nom": "Plessis-Saint-Benoist", "cp": "91410", "dept": "91", "lat": 48.445, "lon": 2.0052}, {"nom": "Prunay-sur-Essonne", "cp": "91720", "dept": "91", "lat": 48.3524, "lon": 2.3562}, {"nom": "Puiselet-le-Marais", "cp": "91150", "dept": "91", "lat": 48.3947, "lon": 2.2635}, {"nom": "Pussay", "cp": "91740", "dept": "91", "lat": 48.3501, "lon": 1.9981}, {"nom": "Quincy-sous-Sénart", "cp": "91480", "dept": "91", "lat": 48.6722, "lon": 2.5259}, {"nom": "Richarville", "cp": "91410", "dept": "91", "lat": 48.4696, "lon": 2.0006}, {"nom": "Ris-Orangis", "cp": "91130", "dept": "91", "lat": 48.6457, "lon": 2.4104}, {"nom": "Roinville", "cp": "91410", "dept": "91", "lat": 48.5183, "lon": 2.0534}, {"nom": "Roinvilliers", "cp": "91150", "dept": "91", "lat": 48.3461, "lon": 2.2321}, {"nom": "Saclas", "cp": "91690", "dept": "91", "lat": 48.3576, "lon": 2.1103}, {"nom": "Saclay", "cp": "91400", "dept": "91", "lat": 48.7367, "lon": 2.1693}, {"nom": "Saint-Aubin", "cp": "91190", "dept": "91", "lat": 48.7148, "lon": 2.1384}, {"nom": "Saint-Chéron", "cp": "91530", "dept": "91", "lat": 48.5499, "lon": 2.1249}, {"nom": "Saint-Cyr-la-Rivière", "cp": "91690", "dept": "91", "lat": 48.3508, "lon": 2.1377}, {"nom": "Saint-Cyr-sous-Dourdan", "cp": "91410", "dept": "91", "lat": 48.5675, "lon": 2.0361}, {"nom": "Saint-Escobille", "cp": "91410", "dept": "91", "lat": 48.4223, "lon": 1.9605}, {"nom": "Sainte-Geneviève-des-Bois", "cp": "91700", "dept": "91", "lat": 48.643, "lon": 2.3272}, {"nom": "Saint-Germain-lès-Arpajon", "cp": "91180", "dept": "91", "lat": 48.5982, "lon": 2.2644}, {"nom": "Saint-Germain-lès-Corbeil", "cp": "91250", "dept": "91", "lat": 48.6275, "lon": 2.4919}, {"nom": "Saint-Hilaire", "cp": "91780", "dept": "91", "lat": 48.4429, "lon": 2.0872}, {"nom": "Saint-Jean-de-Beauregard", "cp": "91940", "dept": "91", "lat": 48.6666, "lon": 2.1723}, {"nom": "Saint-Maurice-Montcouronne", "cp": "91530", "dept": "91", "lat": 48.5746, "lon": 2.1229}, {"nom": "Saint-Michel-sur-Orge", "cp": "91240", "dept": "91", "lat": 48.6326, "lon": 2.313}, {"nom": "Saint-Pierre-du-Perray", "cp": "91280", "dept": "91", "lat": 48.6075, "lon": 2.5152}, {"nom": "Saintry-sur-Seine", "cp": "91250", "dept": "91", "lat": 48.5946, "lon": 2.4955}, {"nom": "Saint-Sulpice-de-Favières", "cp": "91910", "dept": "91", "lat": 48.5344, "lon": 2.1766}, {"nom": "Saint-Vrain", "cp": "91770", "dept": "91", "lat": 48.5361, "lon": 2.3254}, {"nom": "Saint-Yon", "cp": "91650", "dept": "91", "lat": 48.5612, "lon": 2.192}, {"nom": "Saulx-les-Chartreux", "cp": "91160", "dept": "91", "lat": 48.6869, "lon": 2.2648}, {"nom": "Savigny-sur-Orge", "cp": "91600", "dept": "91", "lat": 48.6851, "lon": 2.3493}, {"nom": "Sermaise", "cp": "91530", "dept": "91", "lat": 48.5308, "lon": 2.0915}, {"nom": "Soisy-sur-École", "cp": "91840", "dept": "91", "lat": 48.4783, "lon": 2.474}, {"nom": "Soisy-sur-Seine", "cp": "91450", "dept": "91", "lat": 48.6593, "lon": 2.4666}, {"nom": "Souzy-la-Briche", "cp": "91580", "dept": "91", "lat": 48.525, "lon": 2.149}, {"nom": "Congerville-Thionville", "cp": "91740", "dept": "91", "lat": 48.3833, "lon": 1.9912}, {"nom": "Tigery", "cp": "91250", "dept": "91", "lat": 48.6459, "lon": 2.5189}, {"nom": "Torfou", "cp": "91730", "dept": "91", "lat": 48.5314, "lon": 2.2335}, {"nom": "Valpuiseaux", "cp": "91720", "dept": "91", "lat": 48.3963, "lon": 2.2996}, {"nom": "Le Val-Saint-Germain", "cp": "91530", "dept": "91", "lat": 48.5712, "lon": 2.0808}, {"nom": "Varennes-Jarcy", "cp": "91480", "dept": "91", "lat": 48.6793, "lon": 2.5631}, {"nom": "Vaugrigneuse", "cp": "91640", "dept": "91", "lat": 48.6012, "lon": 2.1041}, {"nom": "Vauhallan", "cp": "91430", "dept": "91", "lat": 48.7302, "lon": 2.1996}, {"nom": "Vayres-sur-Essonne", "cp": "91820", "dept": "91", "lat": 48.4323, "lon": 2.349}, {"nom": "Verrières-le-Buisson", "cp": "91370", "dept": "91", "lat": 48.7511, "lon": 2.2545}, {"nom": "Vert-le-Grand", "cp": "91810", "dept": "91", "lat": 48.583, "lon": 2.3711}, {"nom": "Vert-le-Petit", "cp": "91710", "dept": "91", "lat": 48.5508, "lon": 2.3668}, {"nom": "Videlles", "cp": "91890", "dept": "91", "lat": 48.467, "lon": 2.4171}, {"nom": "Vigneux-sur-Seine", "cp": "91270", "dept": "91", "lat": 48.7021, "lon": 2.4274}, {"nom": "Villabé", "cp": "91100", "dept": "91", "lat": 48.5864, "lon": 2.4516}, {"nom": "Villebon-sur-Yvette", "cp": "91140", "dept": "91", "lat": 48.6965, "lon": 2.2366}, {"nom": "Villeconin", "cp": "91580", "dept": "91", "lat": 48.4981, "lon": 2.1258}, {"nom": "La Ville-du-Bois", "cp": "91620", "dept": "91", "lat": 48.6601, "lon": 2.2644}, {"nom": "Villejust", "cp": "91140", "dept": "91", "lat": 48.6788, "lon": 2.2207}, {"nom": "Villemoisson-sur-Orge", "cp": "91360", "dept": "91", "lat": 48.6599, "lon": 2.3298}, {"nom": "Villeneuve-sur-Auvers", "cp": "91580", "dept": "91", "lat": 48.4646, "lon": 2.2524}, {"nom": "Villiers-le-Bâcle", "cp": "91190", "dept": "91", "lat": 48.7282, "lon": 2.1224}, {"nom": "Villiers-sur-Orge", "cp": "91700", "dept": "91", "lat": 48.6601, "lon": 2.2995}, {"nom": "Viry-Châtillon", "cp": "91170", "dept": "91", "lat": 48.6662, "lon": 2.3758}, {"nom": "Wissous", "cp": "91320", "dept": "91", "lat": 48.7308, "lon": 2.3278}, {"nom": "Yerres", "cp": "91330", "dept": "91", "lat": 48.7129, "lon": 2.4932}, {"nom": "Les Ulis", "cp": "91940", "dept": "91", "lat": 48.6817, "lon": 2.1864}]