[{"nom": "Aigues-Vives", "cp": "11800", "dept": "11", "lat": 43.234, "lon": 2.5359}, {"nom": "Airoux", "cp": "11320", "dept": "11", "lat": 43.3667, "lon": 1.8739}, {"nom": "Ajac", "cp": "11300", "dept": "11", "lat": 43.0448, "lon": 2.1373}, {"nom": "Alaigne", "cp": "11240", "dept": "11", "lat": 43.0949, "lon": 2.0887}, {"nom": "Alairac", "cp": "11290", "dept": "11", "lat": 43.1848, "lon": 2.2387}, {"nom": "Albas", "cp": "11360", "dept": "11", "lat": 43.0046, "lon": 2.7328}, {"nom": "Albières", "cp": "11330", "dept": "11", "lat": 42.9452, "lon": 2.447}, {"nom": "Alet-les-Bains", "cp": "11580", "dept": "11", "lat": 42.9914, "lon": 2.2618}, {"nom": "Alzonne", "cp": "11170", "dept": "11", "lat": 43.2646, "lon": 2.1665}, {"nom": "Antugnac", "cp": "11190", "dept": "11", "lat": 42.9627, "lon": 2.2174}, {"nom": "Aragon", "cp": "11600", "dept": "11", "lat": 43.2974, "lon": 2.303}, {"nom": "Argeliers", "cp": "11120", "dept": "11", "lat": 43.309, "lon": 2.9137}, {"nom": "Argens-Minervois", "cp": "11200", "dept": "11", "lat": 43.2458, "lon": 2.7692}, {"nom": "Armissan", "cp": "11110", "dept": "11", "lat": 43.1888, "lon": 3.0888}, {"nom": "Arques", "cp": "11190", "dept": "11", "lat": 42.9445, "lon": 2.3878}, {"nom": "Arquettes-en-Val", "cp": "11220", "dept": "11", "lat": 43.1061, "lon": 2.4938}, {"nom": "Artigues", "cp": "11140", "dept": "11", "lat": 42.7895, "lon": 2.2044}, {"nom": "Arzens", "cp": "11290", "dept": "11", "lat": 43.1968, "lon": 2.2082}, {"nom": "Aunat", "cp": "11140", "dept": "11", "lat": 42.79, "lon": 2.1018}, {"nom": "Auriac", "cp": "11330", "dept": "11", "lat": 42.9259, "lon": 2.4916}, {"nom": "Axat", "cp": "11140", "dept": "11", "lat": 42.7958, "lon": 2.2412}, {"nom": "Azille", "cp": "11700", "dept": "11", "lat": 43.2763, "lon": 2.6581}, {"nom": "Badens", "cp": "11800", "dept": "11", "lat": 43.2229, "lon": 2.5073}, {"nom": "Bages", "cp": "11100", "dept": "11", "lat": 43.1163, "lon": 2.9702}, {"nom": "Bagnoles", "cp": "11600", "dept": "11", "lat": 43.2668, "lon": 2.4466}, {"nom": "Baraigne", "cp": "11410", "dept": "11", "lat": 43.3293, "lon": 1.8191}, {"nom": "Barbaira", "cp": "11800", "dept": "11", "lat": 43.1774, "lon": 2.5162}, {"nom": "Belcaire", "cp": "11340", "dept": "11", "lat": 42.8289, "lon": 1.9368}, {"nom": "Belcastel-et-Buc", "cp": "11580", "dept": "11", "lat": 43.0251, "lon": 2.3528}, {"nom": "Belflou", "cp": "11410", "dept": "11", "lat": 43.3214, "lon": 1.796}, {"nom": "Belfort-sur-Rebenty", "cp": "11140", "dept": "11", "lat": 42.8304, "lon": 2.0497}, {"nom": "Bellegarde-du-Razès", "cp": "11240", "dept": "11", "lat": 43.1059, "lon": 2.0508}, {"nom": "Belpech", "cp": "11420", "dept": "11", "lat": 43.2018, "lon": 1.7624}, {"nom": "Belvèze-du-Razès", "cp": "11240", "dept": "11", "lat": 43.1236, "lon": 2.0891}, {"nom": "Belvianes-et-Cavirac", "cp": "11500", "dept": "11", "lat": 42.8473, "lon": 2.2139}, {"nom": "Belvis", "cp": "11340", "dept": "11", "lat": 42.8573, "lon": 2.0798}, {"nom": "Berriac", "cp": "11000", "dept": "11", "lat": 43.2153, "lon": 2.4053}, {"nom": "Bessède-de-Sault", "cp": "11140", "dept": "11", "lat": 42.7915, "lon": 2.1419}, {"nom": "La Bezole", "cp": "11300", "dept": "11", "lat": 43.0249, "lon": 2.0952}, {"nom": "Bizanet", "cp": "11200", "dept": "11", "lat": 43.1445, "lon": 2.8704}, {"nom": "Bize-Minervois", "cp": "11120", "dept": "11", "lat": 43.3364, "lon": 2.8719}, {"nom": "Blomac", "cp": "11700", "dept": "11", "lat": 43.2134, "lon": 2.5889}, {"nom": "Bouilhonnac", "cp": "11800", "dept": "11", "lat": 43.233, "lon": 2.4462}, {"nom": "Bouisse", "cp": "11330", "dept": "11", "lat": 42.9899, "lon": 2.4259}, {"nom": "Bouriège", "cp": "11300", "dept": "11", "lat": 42.9938, "lon": 2.1575}, {"nom": "Bourigeole", "cp": "11300", "dept": "11", "lat": 42.9864, "lon": 2.1206}, {"nom": "Le Bousquet", "cp": "11140", "dept": "11", "lat": 42.7074, "lon": 2.1771}, {"nom": "Boutenac", "cp": "11200", "dept": "11", "lat": 43.1469, "lon": 2.7993}, {"nom": "Bram", "cp": "11150", "dept": "11", "lat": 43.2511, "lon": 2.1108}, {"nom": "Brézilhac", "cp": "11270", "dept": "11", "lat": 43.1666, "lon": 2.0746}, {"nom": "Brousses-et-Villaret", "cp": "11390", "dept": "11", "lat": 43.3433, "lon": 2.2454}, {"nom": "Brugairolles", "cp": "11300", "dept": "11", "lat": 43.1331, "lon": 2.165}, {"nom": "Les Brunels", "cp": "11400", "dept": "11", "lat": 43.4109, "lon": 2.0466}, {"nom": "Bugarach", "cp": "11190", "dept": "11", "lat": 42.8735, "lon": 2.3554}, {"nom": "Cabrespine", "cp": "11160", "dept": "11", "lat": 43.3746, "lon": 2.4771}, {"nom": "Cahuzac", "cp": "11420", "dept": "11", "lat": 43.1909, "lon": 1.8548}, {"nom": "Cailhau", "cp": "11240", "dept": "11", "lat": 43.1448, "lon": 2.1325}, {"nom": "Cailhavel", "cp": "11240", "dept": "11", "lat": 43.1669, "lon": 2.1234}, {"nom": "Cailla", "cp": "11140", "dept": "11", "lat": 42.809, "lon": 2.2008}, {"nom": "Cambieure", "cp": "11240", "dept": "11", "lat": 43.1268, "lon": 2.1267}, {"nom": "Campagna-de-Sault", "cp": "11140", "dept": "11", "lat": 42.7564, "lon": 2.0512}, {"nom": "Campagne-sur-Aude", "cp": "11260", "dept": "11", "lat": 42.9134, "lon": 2.2021}, {"nom": "Camplong-d'Aude", "cp": "11200", "dept": "11", "lat": 43.1303, "lon": 2.6495}, {"nom": "Camps-sur-l'Agly", "cp": "11190", "dept": "11", "lat": 42.8659, "lon": 2.4179}, {"nom": "Camurac", "cp": "11340", "dept": "11", "lat": 42.8015, "lon": 1.9252}, {"nom": "Canet", "cp": "11200", "dept": "11", "lat": 43.2248, "lon": 2.8291}, {"nom": "Capendu", "cp": "11700", "dept": "11", "lat": 43.1821, "lon": 2.5554}, {"nom": "Carcassonne", "cp": "11000", "dept": "11", "lat": 43.2078, "lon": 2.3491}, {"nom": "Carlipa", "cp": "11170", "dept": "11", "lat": 43.3071, "lon": 2.1222}, {"nom": "Cascastel-des-Corbières", "cp": "11360", "dept": "11", "lat": 42.9779, "lon": 2.7521}, {"nom": "La Cassaigne", "cp": "11270", "dept": "11", "lat": 43.1942, "lon": 1.9914}, {"nom": "Cassaignes", "cp": "11190", "dept": "11", "lat": 42.948, "lon": 2.2942}, {"nom": "Les Cassés", "cp": "11320", "dept": "11", "lat": 43.429, "lon": 1.8701}, {"nom": "Castans", "cp": "11160", "dept": "11", "lat": 43.4098, "lon": 2.489}, {"nom": "Castelnaudary", "cp": "11400", "dept": "11", "lat": 43.3201, "lon": 1.9613}, {"nom": "Castelnau-d'Aude", "cp": "11700", "dept": "11", "lat": 43.2345, "lon": 2.6779}, {"nom": "Castelreng", "cp": "11300", "dept": "11", "lat": 43.0208, "lon": 2.1254}, {"nom": "Caudebronde", "cp": "11390", "dept": "11", "lat": 43.3866, "lon": 2.2989}, {"nom": "Val de Lambronne", "cp": "11230", "dept": "11", "lat": 43.0747, "lon": 1.9899}, {"nom": "Caunes-Minervois", "cp": "11160", "dept": "11", "lat": 43.3419, "lon": 2.5179}, {"nom": "Caunette-sur-Lauquet", "cp": "11250", "dept": "11", "lat": 43.0279, "lon": 2.4218}, {"nom": "Caunettes-en-Val", "cp": "11220", "dept": "11", "lat": 43.0657, "lon": 2.5629}, {"nom": "Caux-et-Sauzens", "cp": "11170", "dept": "11", "lat": 43.227, "lon": 2.2575}, {"nom": "Cavanac", "cp": "11570", "dept": "11", "lat": 43.1699, "lon": 2.3353}, {"nom": "Caves", "cp": "11510", "dept": "11", "lat": 42.9392, "lon": 2.9624}, {"nom": "Cazalrenoux", "cp": "11270", "dept": "11", "lat": 43.1897, "lon": 1.9485}, {"nom": "Cazilhac", "cp": "11570", "dept": "11", "lat": 43.1781, "lon": 2.3594}, {"nom": "Cenne-Monestiés", "cp": "11170", "dept": "11", "lat": 43.3216, "lon": 2.1294}, {"nom": "Cépie", "cp": "11300", "dept": "11", "lat": 43.1074, "lon": 2.2397}, {"nom": "Chalabre", "cp": "11230", "dept": "11", "lat": 42.9813, "lon": 2.0183}, {"nom": "Citou", "cp": "11160", "dept": "11", "lat": 43.3726, "lon": 2.5311}, {"nom": "Le Clat", "cp": "11140", "dept": "11", "lat": 42.7877, "lon": 2.1733}, {"nom": "Clermont-sur-Lauquet", "cp": "11250", "dept": "11", "lat": 43.0484, "lon": 2.4296}, {"nom": "Comigne", "cp": "11700", "dept": "11", "lat": 43.1651, "lon": 2.5851}, {"nom": "Comus", "cp": "11340", "dept": "11", "lat": 42.8266, "lon": 1.8862}, {"nom": "Conilhac-Corbières", "cp": "11200", "dept": "11", "lat": 43.1856, "lon": 2.7115}, {"nom": "Conques-sur-Orbiel", "cp": "11600", "dept": "11", "lat": 43.2815, "lon": 2.38}, {"nom": "Corbières", "cp": "11230", "dept": "11", "lat": 43.0481, "lon": 2.0013}, {"nom": "Coudons", "cp": "11500", "dept": "11", "lat": 42.8637, "lon": 2.1217}, {"nom": "Couffoulens", "cp": "11250", "dept": "11", "lat": 43.1494, "lon": 2.3056}, {"nom": "Couiza", "cp": "11190", "dept": "11", "lat": 42.9324, "lon": 2.2714}, {"nom": "Counozouls", "cp": "11140", "dept": "11", "lat": 42.7007, "lon": 2.2284}, {"nom": "Cournanel", "cp": "11300", "dept": "11", "lat": 43.0308, "lon": 2.2343}, {"nom": "Coursan", "cp": "11110", "dept": "11", "lat": 43.2458, "lon": 3.062}, {"nom": "Courtauly", "cp": "11230", "dept": "11", "lat": 43.0387, "lon": 2.0492}, {"nom": "La Courtète", "cp": "11240", "dept": "11", "lat": 43.1425, "lon": 2.0317}, {"nom": "Coustaussa", "cp": "11190", "dept": "11", "lat": 42.9379, "lon": 2.2884}, {"nom": "Coustouge", "cp": "11220", "dept": "11", "lat": 43.0549, "lon": 2.7425}, {"nom": "Cruscades", "cp": "11200", "dept": "11", "lat": 43.2011, "lon": 2.8179}, {"nom": "Cubières-sur-Cinoble", "cp": "11190", "dept": "11", "lat": 42.864, "lon": 2.4712}, {"nom": "Cucugnan", "cp": "11350", "dept": "11", "lat": 42.8593, "lon": 2.6179}, {"nom": "Cumiès", "cp": "11410", "dept": "11", "lat": 43.2983, "lon": 1.8309}, {"nom": "Cuxac-Cabardès", "cp": "11390", "dept": "11", "lat": 43.3972, "lon": 2.2803}, {"nom": "Cuxac-d'Aude", "cp": "11590", "dept": "11", "lat": 43.2571, "lon": 3.0093}, {"nom": "Davejean", "cp": "11330", "dept": "11", "lat": 42.9597, "lon": 2.6096}, {"nom": "Dernacueillette", "cp": "11330", "dept": "11", "lat": 42.9292, "lon": 2.5967}, {"nom": "La Digne-d'Amont", "cp": "11300", "dept": "11", "lat": 43.0387, "lon": 2.1619}, {"nom": "La Digne-d'Aval", "cp": "11300", "dept": "11", "lat": 43.0456, "lon": 2.1762}, {"nom": "Donazac", "cp": "11240", "dept": "11", "lat": 43.0788, "lon": 2.1283}, {"nom": "Douzens", "cp": "11700", "dept": "11", "lat": 43.1757, "lon": 2.6096}, {"nom": "Duilhac-sous-Peyrepertuse", "cp": "11350", "dept": "11", "lat": 42.8703, "lon": 2.5624}, {"nom": "Durban-Corbières", "cp": "11360", "dept": "11", "lat": 42.9975, "lon": 2.8116}, {"nom": "Embres-et-Castelmaure", "cp": "11360", "dept": "11", "lat": 42.9278, "lon": 2.8142}, {"nom": "Escales", "cp": "11200", "dept": "11", "lat": 43.2232, "lon": 2.7033}, {"nom": "Escouloubre", "cp": "11140", "dept": "11", "lat": 42.7145, "lon": 2.1343}, {"nom": "Escueillens-et-Saint-Just-de-Bélengard", "cp": "11240", "dept": "11", "lat": 43.0987, "lon": 2.0168}, {"nom": "Espéraza", "cp": "11260", "dept": "11", "lat": 42.9297, "lon": 2.2204}, {"nom": "Espezel", "cp": "11340", "dept": "11", "lat": 42.8455, "lon": 2.0256}, {"nom": "Val-du-Faby", "cp": "11260", "dept": "11", "lat": 42.9263, "lon": 2.1573}, {"nom": "Fabrezan", "cp": "11200", "dept": "11", "lat": 43.1282, "lon": 2.7139}, {"nom": "Fajac-en-Val", "cp": "11220", "dept": "11", "lat": 43.1203, "lon": 2.4663}, {"nom": "Fajac-la-Relenque", "cp": "11410", "dept": "11", "lat": 43.284, "lon": 1.7244}, {"nom": "La Fajolle", "cp": "11140", "dept": "11", "lat": 42.7548, "lon": 1.9642}, {"nom": "Fanjeaux", "cp": "11270", "dept": "11", "lat": 43.1921, "lon": 2.0359}, {"nom": "Félines-Termenès", "cp": "11330", "dept": "11", "lat": 42.9851, "lon": 2.6148}, {"nom": "Fendeille", "cp": "11400", "dept": "11", "lat": 43.2707, "lon": 1.9503}, {"nom": "Fenouillet-du-Razès", "cp": "11240", "dept": "11", "lat": 43.1551, "lon": 2.0259}, {"nom": "Ferrals-les-Corbières", "cp": "11200", "dept": "11", "lat": 43.1432, "lon": 2.7383}, {"nom": "Ferran", "cp": "11240", "dept": "11", "lat": 43.1522, "lon": 2.0854}, {"nom": "Festes-et-Saint-André", "cp": "11300", "dept": "11", "lat": 42.9616, "lon": 2.1167}, {"nom": "Feuilla", "cp": "11510", "dept": "11", "lat": 42.9273, "lon": 2.9025}, {"nom": "Fitou", "cp": "11510", "dept": "11", "lat": 42.8992, "lon": 2.9572}, {"nom": "Fleury", "cp": "11560", "dept": "11", "lat": 43.2141, "lon": 3.1766}, {"nom": "Floure", "cp": "11800", "dept": "11", "lat": 43.176, "lon": 2.484}, {"nom": "Fontanès-de-Sault", "cp": "11140", "dept": "11", "lat": 42.7659, "lon": 2.0818}, {"nom": "Fontcouverte", "cp": "11700", "dept": "11", "lat": 43.1693, "lon": 2.6904}, {"nom": "Fonters-du-Razès", "cp": "11400", "dept": "11", "lat": 43.2389, "lon": 1.923}, {"nom": "Fontiers-Cabardès", "cp": "11390", "dept": "11", "lat": 43.3735, "lon": 2.2502}, {"nom": "Fontiès-d'Aude", "cp": "11800", "dept": "11", "lat": 43.188, "lon": 2.4561}, {"nom": "Fontjoncouse", "cp": "11360", "dept": "11", "lat": 43.0424, "lon": 2.7945}, {"nom": "La Force", "cp": "11270", "dept": "11", "lat": 43.1992, "lon": 2.0864}, {"nom": "Fournes-Cabardès", "cp": "11600", "dept": "11", "lat": 43.3546, "lon": 2.4111}, {"nom": "Fourtou", "cp": "11190", "dept": "11", "lat": 42.9106, "lon": 2.443}, {"nom": "Fraisse-Cabardès", "cp": "11600", "dept": "11", "lat": 43.3323, "lon": 2.2718}, {"nom": "Fraissé-des-Corbières", "cp": "11360", "dept": "11", "lat": 42.9553, "lon": 2.8711}, {"nom": "Gaja-et-Villedieu", "cp": "11300", "dept": "11", "lat": 43.0794, "lon": 2.1842}, {"nom": "Gaja-la-Selve", "cp": "11270", "dept": "11", "lat": 43.2024, "lon": 1.8856}, {"nom": "Galinagues", "cp": "11140", "dept": "11", "lat": 42.8044, "lon": 2.0477}, {"nom": "Gardie", "cp": "11250", "dept": "11", "lat": 43.0743, "lon": 2.2993}, {"nom": "Generville", "cp": "11270", "dept": "11", "lat": 43.211, "lon": 1.9309}, {"nom": "Gincla", "cp": "11140", "dept": "11", "lat": 42.7658, "lon": 2.3298}, {"nom": "Ginestas", "cp": "11120", "dept": "11", "lat": 43.2779, "lon": 2.883}, {"nom": "Ginoles", "cp": "11500", "dept": "11", "lat": 42.8637, "lon": 2.153}, {"nom": "Gourvieille", "cp": "11410", "dept": "11", "lat": 43.3366, "lon": 1.7879}, {"nom": "Gramazie", "cp": "11240", "dept": "11", "lat": 43.1376, "lon": 2.0989}, {"nom": "Granès", "cp": "11500", "dept": "11", "lat": 42.8966, "lon": 2.256}, {"nom": "Greffeil", "cp": "11250", "dept": "11", "lat": 43.0752, "lon": 2.3983}, {"nom": "Gruissan", "cp": "11430", "dept": "11", "lat": 43.1042, "lon": 3.0871}, {"nom": "Homps", "cp": "11200", "dept": "11", "lat": 43.2685, "lon": 2.7247}, {"nom": "Hounoux", "cp": "11240", "dept": "11", "lat": 43.137, "lon": 2.0065}, {"nom": "Les Ilhes", "cp": "11380", "dept": "11", "lat": 43.3557, "lon": 2.3726}, {"nom": "Issel", "cp": "11400", "dept": "11", "lat": 43.3681, "lon": 2.0012}, {"nom": "Jonquières", "cp": "11220", "dept": "11", "lat": 43.0421, "lon": 2.7265}, {"nom": "Joucou", "cp": "11140", "dept": "11", "lat": 42.8244, "lon": 2.0854}, {"nom": "Labastide-d'Anjou", "cp": "11320", "dept": "11", "lat": 43.3462, "lon": 1.8538}, {"nom": "Labastide-en-Val", "cp": "11220", "dept": "11", "lat": 43.066, "lon": 2.4668}, {"nom": "Labastide-Esparbairenque", "cp": "11380", "dept": "11", "lat": 43.3953, "lon": 2.4085}, {"nom": "Labécède-Lauragais", "cp": "11400", "dept": "11", "lat": 43.398, "lon": 2.0105}, {"nom": "Lacombe", "cp": "11310", "dept": "11", "lat": 43.4076, "lon": 2.2415}, {"nom": "Ladern-sur-Lauquet", "cp": "11250", "dept": "11", "lat": 43.1021, "lon": 2.3908}, {"nom": "Lafage", "cp": "11420", "dept": "11", "lat": 43.1651, "lon": 1.8659}, {"nom": "Lagrasse", "cp": "11220", "dept": "11", "lat": 43.1048, "lon": 2.5914}, {"nom": "Lairière", "cp": "11330", "dept": "11", "lat": 43.028, "lon": 2.481}, {"nom": "Lanet", "cp": "11330", "dept": "11", "lat": 42.965, "lon": 2.4868}, {"nom": "La Palme", "cp": "11480", "dept": "11", "lat": 42.9672, "lon": 2.9946}, {"nom": "Laprade", "cp": "11390", "dept": "11", "lat": 43.4405, "lon": 2.2522}, {"nom": "La Redorte", "cp": "11700", "dept": "11", "lat": 43.2422, "lon": 2.6515}, {"nom": "Laroque-de-Fa", "cp": "11330", "dept": "11", "lat": 42.9545, "lon": 2.5547}, {"nom": "Lasbordes", "cp": "11400", "dept": "11", "lat": 43.3008, "lon": 2.0616}, {"nom": "Lasserre-de-Prouille", "cp": "11270", "dept": "11", "lat": 43.1816, "lon": 2.0837}, {"nom": "Lastours", "cp": "11600", "dept": "11", "lat": 43.3273, "lon": 2.3794}, {"nom": "Laurabuc", "cp": "11400", "dept": "11", "lat": 43.2625, "lon": 1.9919}, {"nom": "Laurac", "cp": "11270", "dept": "11", "lat": 43.2304, "lon": 1.9681}, {"nom": "Lauraguel", "cp": "11300", "dept": "11", "lat": 43.0964, "lon": 2.1698}, {"nom": "Laure-Minervois", "cp": "11800", "dept": "11", "lat": 43.2678, "lon": 2.5144}, {"nom": "Lavalette", "cp": "11290", "dept": "11", "lat": 43.1932, "lon": 2.2717}, {"nom": "Lespinassière", "cp": "11160", "dept": "11", "lat": 43.4075, "lon": 2.5533}, {"nom": "Leuc", "cp": "11250", "dept": "11", "lat": 43.1402, "lon": 2.3394}, {"nom": "Leucate", "cp": "11370", "dept": "11", "lat": 42.9076, "lon": 3.0232}, {"nom": "Lézignan-Corbières", "cp": "11200", "dept": "11", "lat": 43.1983, "lon": 2.7649}, {"nom": "Lignairolles", "cp": "11240", "dept": "11", "lat": 43.0944, "lon": 2.0037}, {"nom": "Limousis", "cp": "11600", "dept": "11", "lat": 43.3262, "lon": 2.4074}, {"nom": "Limoux", "cp": "11300", "dept": "11", "lat": 43.0464, "lon": 2.2452}, {"nom": "Loupia", "cp": "11300", "dept": "11", "lat": 43.0621, "lon": 2.1267}, {"nom": "La Louvière-Lauragais", "cp": "11410", "dept": "11", "lat": 43.2684, "lon": 1.7502}, {"nom": "Luc-sur-Aude", "cp": "11190", "dept": "11", "lat": 42.9636, "lon": 2.285}, {"nom": "Luc-sur-Orbieu", "cp": "11200", "dept": "11", "lat": 43.1743, "lon": 2.7886}, {"nom": "Magrie", "cp": "11300", "dept": "11", "lat": 43.0271, "lon": 2.2071}, {"nom": "Mailhac", "cp": "11120", "dept": "11", "lat": 43.3067, "lon": 2.8283}, {"nom": "Maisons", "cp": "11330", "dept": "11", "lat": 42.9292, "lon": 2.6406}, {"nom": "Malras", "cp": "11300", "dept": "11", "lat": 43.0611, "lon": 2.1702}, {"nom": "Malves-en-Minervois", "cp": "11600", "dept": "11", "lat": 43.2496, "lon": 2.4512}, {"nom": "Malviès", "cp": "11300", "dept": "11", "lat": 43.1178, "lon": 2.188}, {"nom": "Marcorignan", "cp": "11120", "dept": "11", "lat": 43.2233, "lon": 2.9141}, {"nom": "Marquein", "cp": "11410", "dept": "11", "lat": 43.2978, "lon": 1.7238}, {"nom": "Marsa", "cp": "11140", "dept": "11", "lat": 42.8211, "lon": 2.1411}, {"nom": "Marseillette", "cp": "11800", "dept": "11", "lat": 43.2119, "lon": 2.5438}, {"nom": "Les Martys", "cp": "11390", "dept": "11", "lat": 43.4222, "lon": 2.3106}, {"nom": "Mas-Cabardès", "cp": "11380", "dept": "11", "lat": 43.3973, "lon": 2.3613}, {"nom": "Mas-des-Cours", "cp": "11570", "dept": "11", "lat": 43.13, "lon": 2.4259}, {"nom": "Massac", "cp": "11330", "dept": "11", "lat": 42.9174, "lon": 2.5558}, {"nom": "Mas-Saintes-Puelles", "cp": "11400", "dept": "11", "lat": 43.3119, "lon": 1.8808}, {"nom": "Mayreville", "cp": "11420", "dept": "11", "lat": 43.2297, "lon": 1.8473}, {"nom": "Mayronnes", "cp": "11220", "dept": "11", "lat": 43.0487, "lon": 2.528}, {"nom": "Mazerolles-du-Razès", "cp": "11240", "dept": "11", "lat": 43.1371, "lon": 2.0656}, {"nom": "Mazuby", "cp": "11140", "dept": "11", "lat": 42.7886, "lon": 2.0346}, {"nom": "Mérial", "cp": "11140", "dept": "11", "lat": 42.7702, "lon": 1.9528}, {"nom": "Mézerville", "cp": "11410", "dept": "11", "lat": 43.2513, "lon": 1.7851}, {"nom": "Miraval-Cabardès", "cp": "11380", "dept": "11", "lat": 43.3848, "lon": 2.3377}, {"nom": "Mirepeisset", "cp": "11120", "dept": "11", "lat": 43.2846, "lon": 2.8966}, {"nom": "Mireval-Lauragais", "cp": "11400", "dept": "11", "lat": 43.2671, "lon": 1.966}, {"nom": "Missègre", "cp": "11580", "dept": "11", "lat": 43.0036, "lon": 2.3743}, {"nom": "Molandier", "cp": "11420", "dept": "11", "lat": 43.251, "lon": 1.7248}, {"nom": "Molleville", "cp": "11410", "dept": "11", "lat": 43.3121, "lon": 1.8354}, {"nom": "Montauriol", "cp": "11410", "dept": "11", "lat": 43.2755, "lon": 1.834}, {"nom": "Montazels", "cp": "11190", "dept": "11", "lat": 42.9551, "lon": 2.2435}, {"nom": "Montbrun-des-Corbières", "cp": "11700", "dept": "11", "lat": 43.2011, "lon": 2.6843}, {"nom": "Montclar", "cp": "11250", "dept": "11", "lat": 43.1411, "lon": 2.2456}, {"nom": "Montferrand", "cp": "11320", "dept": "11", "lat": 43.3665, "lon": 1.833}, {"nom": "Montfort-sur-Boulzane", "cp": "11140", "dept": "11", "lat": 42.7288, "lon": 2.3112}, {"nom": "Montgaillard", "cp": "11330", "dept": "11", "lat": 42.9018, "lon": 2.6311}, {"nom": "Montgradail", "cp": "11240", "dept": "11", "lat": 43.1233, "lon": 2.0307}, {"nom": "Monthaut", "cp": "11240", "dept": "11", "lat": 43.0849, "lon": 2.0584}, {"nom": "Montirat", "cp": "11800", "dept": "11", "lat": 43.1703, "lon": 2.4372}, {"nom": "Montjardin", "cp": "11230", "dept": "11", "lat": 42.9794, "lon": 2.0489}, {"nom": "Montjoi", "cp": "11330", "dept": "11", "lat": 42.9941, "lon": 2.4789}, {"nom": "Val-de-Dagne", "cp": "11220", "dept": "11", "lat": 43.1283, "lon": 2.5498}, {"nom": "Montmaur", "cp": "11320", "dept": "11", "lat": 43.3985, "lon": 1.8437}, {"nom": "Montolieu", "cp": "11170", "dept": "11", "lat": 43.3139, "lon": 2.2183}, {"nom": "Montréal", "cp": "11290", "dept": "11", "lat": 43.1967, "lon": 2.1448}, {"nom": "Montredon-des-Corbières", "cp": "11100", "dept": "11", "lat": 43.1817, "lon": 2.9237}, {"nom": "Montséret", "cp": "11200", "dept": "11", "lat": 43.1049, "lon": 2.8101}, {"nom": "Monze", "cp": "11800", "dept": "11", "lat": 43.1539, "lon": 2.4624}, {"nom": "Moussan", "cp": "11120", "dept": "11", "lat": 43.2303, "lon": 2.9583}, {"nom": "Moussoulens", "cp": "11170", "dept": "11", "lat": 43.2847, "lon": 2.2343}, {"nom": "Mouthoumet", "cp": "11330", "dept": "11", "lat": 42.9631, "lon": 2.5315}, {"nom": "Moux", "cp": "11700", "dept": "11", "lat": 43.1741, "lon": 2.6475}, {"nom": "Narbonne", "cp": "11100", "dept": "11", "lat": 43.1493, "lon": 3.0337}, {"nom": "Nébias", "cp": "11500", "dept": "11", "lat": 42.8927, "lon": 2.0964}, {"nom": "Névian", "cp": "11200", "dept": "11", "lat": 43.2059, "lon": 2.8836}, {"nom": "Niort-de-Sault", "cp": "11140", "dept": "11", "lat": 42.7731, "lon": 1.9885}, {"nom": "Port-la-Nouvelle", "cp": "11210", "dept": "11", "lat": 43.0225, "lon": 3.0363}, {"nom": "Ornaisons", "cp": "11200", "dept": "11", "lat": 43.1735, "lon": 2.8374}, {"nom": "Orsans", "cp": "11270", "dept": "11", "lat": 43.1516, "lon": 1.9792}, {"nom": "Ouveillan", "cp": "11590", "dept": "11", "lat": 43.2926, "lon": 2.9687}, {"nom": "Padern", "cp": "11350", "dept": "11", "lat": 42.8673, "lon": 2.6493}, {"nom": "Palairac", "cp": "11330", "dept": "11", "lat": 42.9584, "lon": 2.6574}, {"nom": "Palaja", "cp": "11570", "dept": "11", "lat": 43.169, "lon": 2.3905}, {"nom": "Paraza", "cp": "11200", "dept": "11", "lat": 43.2561, "lon": 2.8133}, {"nom": "Pauligne", "cp": "11300", "dept": "11", "lat": 43.0767, "lon": 2.1486}, {"nom": "Payra-sur-l'Hers", "cp": "11410", "dept": "11", "lat": 43.264, "lon": 1.8692}, {"nom": "Paziols", "cp": "11350", "dept": "11", "lat": 42.8552, "lon": 2.7135}, {"nom": "Pécharic-et-le-Py", "cp": "11420", "dept": "11", "lat": 43.1923, "lon": 1.8254}, {"nom": "Pech-Luna", "cp": "11420", "dept": "11", "lat": 43.2105, "lon": 1.8381}, {"nom": "Pennautier", "cp": "11610", "dept": "11", "lat": 43.2522, "lon": 2.3083}, {"nom": "Pépieux", "cp": "11700", "dept": "11", "lat": 43.2987, "lon": 2.6829}, {"nom": "Pexiora", "cp": "11150", "dept": "11", "lat": 43.2692, "lon": 2.0407}, {"nom": "Peyrefitte-du-Razès", "cp": "11230", "dept": "11", "lat": 43.0582, "lon": 2.0243}, {"nom": "Peyrefitte-sur-l'Hers", "cp": "11420", "dept": "11", "lat": 43.2491, "lon": 1.8156}, {"nom": "Peyrens", "cp": "11400", "dept": "11", "lat": 43.3612, "lon": 1.9607}, {"nom": "Peyriac-de-Mer", "cp": "11440", "dept": "11", "lat": 43.0899, "lon": 2.9547}, {"nom": "Peyriac-Minervois", "cp": "11160", "dept": "11", "lat": 43.2951, "lon": 2.5714}, {"nom": "Peyrolles", "cp": "11190", "dept": "11", "lat": 42.9602, "lon": 2.3363}, {"nom": "Pezens", "cp": "11170", "dept": "11", "lat": 43.2557, "lon": 2.244}, {"nom": "Pieusse", "cp": "11300", "dept": "11", "lat": 43.0812, "lon": 2.2525}, {"nom": "Plaigne", "cp": "11420", "dept": "11", "lat": 43.1697, "lon": 1.8059}, {"nom": "Plavilla", "cp": "11270", "dept": "11", "lat": 43.1378, "lon": 1.9094}, {"nom": "La Pomarède", "cp": "11400", "dept": "11", "lat": 43.4077, "lon": 1.9426}, {"nom": "Pomas", "cp": "11250", "dept": "11", "lat": 43.1054, "lon": 2.2811}, {"nom": "Pomy", "cp": "11300", "dept": "11", "lat": 43.0598, "lon": 2.057}, {"nom": "Portel-des-Corbières", "cp": "11490", "dept": "11", "lat": 43.0515, "lon": 2.9056}, {"nom": "Pouzols-Minervois", "cp": "11120", "dept": "11", "lat": 43.2858, "lon": 2.8158}, {"nom": "Pradelles-Cabardès", "cp": "11380", "dept": "11", "lat": 43.4077, "lon": 2.4374}, {"nom": "Preixan", "cp": "11250", "dept": "11", "lat": 43.1437, "lon": 2.2781}, {"nom": "Puginier", "cp": "11400", "dept": "11", "lat": 43.3811, "lon": 1.9272}, {"nom": "Puichéric", "cp": "11700", "dept": "11", "lat": 43.2243, "lon": 2.6078}, {"nom": "Puilaurens", "cp": "11140", "dept": "11", "lat": 42.8119, "lon": 2.2941}, {"nom": "Puivert", "cp": "11230", "dept": "11", "lat": 42.9074, "lon": 2.0634}, {"nom": "Quillan", "cp": "11500", "dept": "11", "lat": 42.8833, "lon": 2.1733}, {"nom": "Quintillan", "cp": "11360", "dept": "11", "lat": 42.9585, "lon": 2.6968}, {"nom": "Quirbajou", "cp": "11500", "dept": "11", "lat": 42.8374, "lon": 2.1669}, {"nom": "Raissac-d'Aude", "cp": "11200", "dept": "11", "lat": 43.2292, "lon": 2.878}, {"nom": "Raissac-sur-Lampy", "cp": "11170", "dept": "11", "lat": 43.2802, "lon": 2.1614}, {"nom": "Rennes-le-Château", "cp": "11190", "dept": "11", "lat": 42.9154, "lon": 2.2782}, {"nom": "Rennes-les-Bains", "cp": "11190", "dept": "11", "lat": 42.9227, "lon": 2.3468}, {"nom": "Ribaute", "cp": "11220", "dept": "11", "lat": 43.1055, "lon": 2.6434}, {"nom": "Ribouisse", "cp": "11270", "dept": "11", "lat": 43.1663, "lon": 1.91}, {"nom": "Ricaud", "cp": "11400", "dept": "11", "lat": 43.3478, "lon": 1.8958}, {"nom": "Rieux-en-Val", "cp": "11220", "dept": "11", "lat": 43.0805, "lon": 2.5444}, {"nom": "Rieux-Minervois", "cp": "11160", "dept": "11", "lat": 43.2667, "lon": 2.5906}, {"nom": "Rivel", "cp": "11230", "dept": "11", "lat": 42.9188, "lon": 2.0062}, {"nom": "Rodome", "cp": "11140", "dept": "11", "lat": 42.7981, "lon": 2.0665}, {"nom": "Roquecourbe-Minervois", "cp": "11700", "dept": "11", "lat": 43.2124, "lon": 2.6506}, {"nom": "Roquefère", "cp": "11380", "dept": "11", "lat": 43.3965, "lon": 2.379}, {"nom": "Roquefeuil", "cp": "11340", "dept": "11", "lat": 42.8454, "lon": 1.9895}, {"nom": "Roquefort-de-Sault", "cp": "11140", "dept": "11", "lat": 42.7375, "lon": 2.2004}, {"nom": "Roquefort-des-Corbières", "cp": "11540", "dept": "11", "lat": 42.9963, "lon": 2.9371}, {"nom": "Roquetaillade-et-Conilhac", "cp": "11190", "dept": "11", "lat": 42.9904, "lon": 2.2075}, {"nom": "Roubia", "cp": "11200", "dept": "11", "lat": 43.2507, "lon": 2.7977}, {"nom": "Rouffiac-d'Aude", "cp": "11250", "dept": "11", "lat": 43.1249, "lon": 2.283}, {"nom": "Rouffiac-des-Corbières", "cp": "11350", "dept": "11", "lat": 42.8881, "lon": 2.5595}, {"nom": "Roullens", "cp": "11290", "dept": "11", "lat": 43.1666, "lon": 2.2672}, {"nom": "Routier", "cp": "11240", "dept": "11", "lat": 43.1042, "lon": 2.136}, {"nom": "Rustiques", "cp": "11800", "dept": "11", "lat": 43.2174, "lon": 2.4784}, {"nom": "Saint-Amans", "cp": "11270", "dept": "11", "lat": 43.2306, "lon": 1.8842}, {"nom": "Saint-André-de-Roquelongue", "cp": "11200", "dept": "11", "lat": 43.0929, "lon": 2.8501}, {"nom": "Saint-Benoît", "cp": "11230", "dept": "11", "lat": 43.0038, "lon": 2.0619}, {"nom": "Sainte-Camelle", "cp": "11410", "dept": "11", "lat": 43.2713, "lon": 1.7885}, {"nom": "Sainte-Colombe-sur-Guette", "cp": "11140", "dept": "11", "lat": 42.7441, "lon": 2.2494}, {"nom": "Sainte-Colombe-sur-l'Hers", "cp": "11230", "dept": "11", "lat": 42.947, "lon": 1.9614}, {"nom": "Saint-Couat-d'Aude", "cp": "11700", "dept": "11", "lat": 43.2108, "lon": 2.6384}, {"nom": "Saint-Couat-du-Razès", "cp": "11300", "dept": "11", "lat": 42.9964, "lon": 2.1105}, {"nom": "Saint-Denis", "cp": "11310", "dept": "11", "lat": 43.357, "lon": 2.2181}, {"nom": "Sainte-Eulalie", "cp": "11170", "dept": "11", "lat": 43.2439, "lon": 2.2061}, {"nom": "Saint-Ferriol", "cp": "11500", "dept": "11", "lat": 42.8965, "lon": 2.2245}, {"nom": "Saint-Frichoux", "cp": "11800", "dept": "11", "lat": 43.245, "lon": 2.5561}, {"nom": "Saint-Gaudéric", "cp": "11270", "dept": "11", "lat": 43.1278, "lon": 1.9595}, {"nom": "Saint-Hilaire", "cp": "11250", "dept": "11", "lat": 43.0756, "lon": 2.3371}, {"nom": "Saint-Jean-de-Barrou", "cp": "11360", "dept": "11", "lat": 42.9623, "lon": 2.8262}, {"nom": "Saint-Jean-de-Paracol", "cp": "11260", "dept": "11", "lat": 42.937, "lon": 2.1047}, {"nom": "Saint-Julia-de-Bec", "cp": "11500", "dept": "11", "lat": 42.8616, "lon": 2.2556}, {"nom": "Saint-Julien-de-Briola", "cp": "11270", "dept": "11", "lat": 43.1628, "lon": 1.941}, {"nom": "Saint-Just-et-le-Bézu", "cp": "11500", "dept": "11", "lat": 42.8796, "lon": 2.2917}, {"nom": "Saint-Laurent-de-la-Cabrerisse", "cp": "11220", "dept": "11", "lat": 43.0851, "lon": 2.7156}, {"nom": "Saint-Louis-et-Parahou", "cp": "11500", "dept": "11", "lat": 42.851, "lon": 2.3253}, {"nom": "Saint-Marcel-sur-Aude", "cp": "11120", "dept": "11", "lat": 43.252, "lon": 2.929}, {"nom": "Saint-Martin-des-Puits", "cp": "11220", "dept": "11", "lat": 43.036, "lon": 2.5768}, {"nom": "Saint-Martin-de-Villereglan", "cp": "11300", "dept": "11", "lat": 43.1034, "lon": 2.2082}, {"nom": "Saint-Martin-Lalande", "cp": "11400", "dept": "11", "lat": 43.3022, "lon": 2.0143}, {"nom": "Saint-Martin-le-Vieil", "cp": "11170", "dept": "11", "lat": 43.2931, "lon": 2.1556}, {"nom": "Saint-Martin-Lys", "cp": "11500", "dept": "11", "lat": 42.8242, "lon": 2.2367}, {"nom": "Saint-Michel-de-Lanès", "cp": "11410", "dept": "11", "lat": 43.3269, "lon": 1.7516}, {"nom": "Saint-Nazaire-d'Aude", "cp": "11120", "dept": "11", "lat": 43.2505, "lon": 2.8898}, {"nom": "Saint-Papoul", "cp": "11400", "dept": "11", "lat": 43.3376, "lon": 2.0437}, {"nom": "Saint-Paulet", "cp": "11320", "dept": "11", "lat": 43.4028, "lon": 1.8813}, {"nom": "Saint-Pierre-des-Champs", "cp": "11220", "dept": "11", "lat": 43.0477, "lon": 2.6052}, {"nom": "Saint-Polycarpe", "cp": "11300", "dept": "11", "lat": 43.0311, "lon": 2.3091}, {"nom": "Saint-Sernin", "cp": "11420", "dept": "11", "lat": 43.2276, "lon": 1.8032}, {"nom": "Sainte-Valière", "cp": "11120", "dept": "11", "lat": 43.2772, "lon": 2.8446}, {"nom": "Saissac", "cp": "11310", "dept": "11", "lat": 43.3622, "lon": 2.1618}, {"nom": "Sallèles-Cabardès", "cp": "11600", "dept": "11", "lat": 43.3217, "lon": 2.4109}, {"nom": "Sallèles-d'Aude", "cp": "11590", "dept": "11", "lat": 43.2712, "lon": 2.9342}, {"nom": "Salles-d'Aude", "cp": "11110", "dept": "11", "lat": 43.2349, "lon": 3.1082}, {"nom": "Salles-sur-l'Hers", "cp": "11410", "dept": "11", "lat": 43.2963, "lon": 1.7803}, {"nom": "Salsigne", "cp": "11600", "dept": "11", "lat": 43.3243, "lon": 2.3605}, {"nom": "Salvezines", "cp": "11140", "dept": "11", "lat": 42.7727, "lon": 2.2799}, {"nom": "Salza", "cp": "11330", "dept": "11", "lat": 42.9877, "lon": 2.5064}, {"nom": "Seignalens", "cp": "11240", "dept": "11", "lat": 43.098, "lon": 1.9673}, {"nom": "La Serpent", "cp": "11190", "dept": "11", "lat": 42.9651, "lon": 2.1753}, {"nom": "Serres", "cp": "11190", "dept": "11", "lat": 42.9447, "lon": 2.3277}, {"nom": "Serviès-en-Val", "cp": "11220", "dept": "11", "lat": 43.0955, "lon": 2.5261}, {"nom": "Sigean", "cp": "11130", "dept": "11", "lat": 43.0344, "lon": 2.9793}, {"nom": "Sonnac-sur-l'Hers", "cp": "11230", "dept": "11", "lat": 43.0154, "lon": 2.0013}, {"nom": "Sougraigne", "cp": "11190", "dept": "11", "lat": 42.906, "lon": 2.3639}, {"nom": "Souilhanels", "cp": "11400", "dept": "11", "lat": 43.3552, "lon": 1.9178}, {"nom": "Souilhe", "cp": "11400", "dept": "11", "lat": 43.3683, "lon": 1.9185}, {"nom": "Soulatgé", "cp": "11330", "dept": "11", "lat": 42.8766, "lon": 2.4993}, {"nom": "Soupex", "cp": "11320", "dept": "11", "lat": 43.3792, "lon": 1.8871}, {"nom": "Talairan", "cp": "11220", "dept": "11", "lat": 43.0204, "lon": 2.6654}, {"nom": "Taurize", "cp": "11220", "dept": "11", "lat": 43.0641, "lon": 2.5102}, {"nom": "Termes", "cp": "11330", "dept": "11", "lat": 43.0052, "lon": 2.5673}, {"nom": "Terroles", "cp": "11580", "dept": "11", "lat": 42.9927, "lon": 2.3428}, {"nom": "Thézan-des-Corbières", "cp": "11200", "dept": "11", "lat": 43.0947, "lon": 2.7918}, {"nom": "La Tourette-Cabardès", "cp": "11380", "dept": "11", "lat": 43.3815, "lon": 2.3277}, {"nom": "Tournissan", "cp": "11220", "dept": "11", "lat": 43.0847, "lon": 2.6612}, {"nom": "Tourouzelle", "cp": "11200", "dept": "11", "lat": 43.2451, "lon": 2.7241}, {"nom": "Tourreilles", "cp": "11300", "dept": "11", "lat": 43.0216, "lon": 2.1677}, {"nom": "Trassanel", "cp": "11160", "dept": "11", "lat": 43.3474, "lon": 2.4439}, {"nom": "Trausse", "cp": "11160", "dept": "11", "lat": 43.3202, "lon": 2.5675}, {"nom": "Trèbes", "cp": "11800", "dept": "11", "lat": 43.209, "lon": 2.4653}, {"nom": "Treilles", "cp": "11510", "dept": "11", "lat": 42.9181, "lon": 2.9492}, {"nom": "Tréville", "cp": "11400", "dept": "11", "lat": 43.3835, "lon": 1.9533}, {"nom": "Tréziers", "cp": "11230", "dept": "11", "lat": 43.054, "lon": 1.9628}, {"nom": "Tuchan", "cp": "11350", "dept": "11", "lat": 42.9114, "lon": 2.7366}, {"nom": "Valmigère", "cp": "11580", "dept": "11", "lat": 42.9823, "lon": 2.3868}, {"nom": "Ventenac-Cabardès", "cp": "11610", "dept": "11", "lat": 43.2777, "lon": 2.2787}, {"nom": "Ventenac-en-Minervois", "cp": "11120", "dept": "11", "lat": 43.2512, "lon": 2.8544}, {"nom": "Véraza", "cp": "11580", "dept": "11", "lat": 42.9936, "lon": 2.3047}, {"nom": "Verdun-en-Lauragais", "cp": "11400", "dept": "11", "lat": 43.3667, "lon": 2.0785}, {"nom": "Verzeille", "cp": "11250", "dept": "11", "lat": 43.1209, "lon": 2.3306}, {"nom": "Vignevieille", "cp": "11330", "dept": "11", "lat": 43.011, "lon": 2.5339}, {"nom": "Villalier", "cp": "11600", "dept": "11", "lat": 43.2507, "lon": 2.4191}, {"nom": "Villanière", "cp": "11600", "dept": "11", "lat": 43.3505, "lon": 2.3392}, {"nom": "Villardebelle", "cp": "11580", "dept": "11", "lat": 43.0124, "lon": 2.4057}, {"nom": "Villardonnel", "cp": "11600", "dept": "11", "lat": 43.336, "lon": 2.314}, {"nom": "Villar-en-Val", "cp": "11220", "dept": "11", "lat": 43.0807, "lon": 2.442}, {"nom": "Villar-Saint-Anselme", "cp": "11250", "dept": "11", "lat": 43.0572, "lon": 2.2979}, {"nom": "Villarzel-Cabardès", "cp": "11600", "dept": "11", "lat": 43.2844, "lon": 2.4686}, {"nom": "Villarzel-du-Razès", "cp": "11300", "dept": "11", "lat": 43.1447, "lon": 2.2009}, {"nom": "Villasavary", "cp": "11150", "dept": "11", "lat": 43.2294, "lon": 2.0341}, {"nom": "Villautou", "cp": "11420", "dept": "11", "lat": 43.1635, "lon": 1.8388}, {"nom": "Villebazy", "cp": "11250", "dept": "11", "lat": 43.058, "lon": 2.3426}, {"nom": "Villedaigne", "cp": "11200", "dept": "11", "lat": 43.2108, "lon": 2.8574}, {"nom": "Villedubert", "cp": "11800", "dept": "11", "lat": 43.2306, "lon": 2.4175}, {"nom": "Villefloure", "cp": "11570", "dept": "11", "lat": 43.1281, "lon": 2.3887}, {"nom": "Villefort", "cp": "11230", "dept": "11", "lat": 42.9517, "lon": 2.0496}, {"nom": "Villegailhenc", "cp": "11600", "dept": "11", "lat": 43.2728, "lon": 2.3484}, {"nom": "Villegly", "cp": "11600", "dept": "11", "lat": 43.2929, "lon": 2.4369}, {"nom": "Villelongue-d'Aude", "cp": "11300", "dept": "11", "lat": 43.0619, "lon": 2.0959}, {"nom": "Villemagne", "cp": "11310", "dept": "11", "lat": 43.3664, "lon": 2.1088}, {"nom": "Villemoustaussou", "cp": "11620", "dept": "11", "lat": 43.2491, "lon": 2.3712}, {"nom": "Villeneuve-la-Comptal", "cp": "11400", "dept": "11", "lat": 43.284, "lon": 1.9175}, {"nom": "Villeneuve-les-Corbières", "cp": "11360", "dept": "11", "lat": 42.9624, "lon": 2.765}, {"nom": "Villeneuve-lès-Montréal", "cp": "11290", "dept": "11", "lat": 43.1787, "lon": 2.1139}, {"nom": "Villeneuve-Minervois", "cp": "11160", "dept": "11", "lat": 43.333, "lon": 2.4702}, {"nom": "Villepinte", "cp": "11150", "dept": "11", "lat": 43.2809, "lon": 2.0967}, {"nom": "Villerouge-Termenès", "cp": "11330", "dept": "11", "lat": 43.0038, "lon": 2.6344}, {"nom": "Villesèque-des-Corbières", "cp": "11360", "dept": "11", "lat": 43.0174, "lon": 2.8585}, {"nom": "Villesèquelande", "cp": "11170", "dept": "11", "lat": 43.2317, "lon": 2.2286}, {"nom": "Villesiscle", "cp": "11150", "dept": "11", "lat": 43.2284, "lon": 2.0896}, {"nom": "Villespy", "cp": "11170", "dept": "11", "lat": 43.321, "lon": 2.0974}, {"nom": "Villetritouls", "cp": "11220", "dept": "11", "lat": 43.0722, "lon": 2.4913}, {"nom": "Vinassan", "cp": "11110", "dept": "11", "lat": 43.207, "lon": 3.0969}]