[{"nom": "Allineuc", "cp": "22460", "dept": "22", "lat": 48.3147, "lon": -2.8693}, {"nom": "Andel", "cp": "22400", "dept": "22", "lat": 48.493, "lon": -2.5549}, {"nom": "Aucaleuc", "cp": "22100", "dept": "22", "lat": 48.452, "lon": -2.1237}, {"nom": "Bégard", "cp": "22140", "dept": "22", "lat": 48.6365, "lon": -3.2921}, {"nom": "Belle-Isle-en-Terre", "cp": "22810", "dept": "22", "lat": 48.538, "lon": -3.3793}, {"nom": "Berhet", "cp": "22140", "dept": "22", "lat": 48.6975, "lon": -3.3089}, {"nom": "Bobital", "cp": "22100", "dept": "22", "lat": 48.4133, "lon": -2.098}, {"nom": "Le Bodéo", "cp": "22320", "dept": "22", "lat": 48.3266, "lon": -2.9196}, {"nom": "Boqueho", "cp": "22170", "dept": "22", "lat": 48.4666, "lon": -2.986}, {"nom": "La Bouillie", "cp": "22240", "dept": "22", "lat": 48.5875, "lon": -2.4398}, {"nom": "Bourbriac", "cp": "22390", "dept": "22", "lat": 48.4649, "lon": -3.1973}, {"nom": "Bourseul", "cp": "22130", "dept": "22", "lat": 48.4662, "lon": -2.2606}, {"nom": "Bréhand", "cp": "22510", "dept": "22", "lat": 48.3954, "lon": -2.5899}, {"nom": "Île-de-Bréhat", "cp": "22870", "dept": "22", "lat": 48.8501, "lon": -3.0083}, {"nom": "Brélidy", "cp": "22140", "dept": "22", "lat": 48.6504, "lon": -3.2277}, {"nom": "Bringolo", "cp": "22170", "dept": "22", "lat": 48.5806, "lon": -3.0101}, {"nom": "Broons", "cp": "22250", "dept": "22", "lat": 48.3135, "lon": -2.2418}, {"nom": "Brusvily", "cp": "22100", "dept": "22", "lat": 48.3922, "lon": -2.1174}, {"nom": "Bulat-Pestivien", "cp": "22160", "dept": "22", "lat": 48.4317, "lon": -3.3347}, {"nom": "Calanhel", "cp": "22160", "dept": "22", "lat": 48.4377, "lon": -3.4679}, {"nom": "Callac", "cp": "22160", "dept": "22", "lat": 48.4192, "lon": -3.4138}, {"nom": "Calorguen", "cp": "22100", "dept": "22", "lat": 48.4061, "lon": -2.0248}, {"nom": "Camlez", "cp": "22450", "dept": "22", "lat": 48.7827, "lon": -3.3174}, {"nom": "Canihuel", "cp": "22480", "dept": "22", "lat": 48.337, "lon": -3.0861}, {"nom": "Caouënnec-Lanvézéac", "cp": "22300", "dept": "22", "lat": 48.7067, "lon": -3.368}, {"nom": "Carnoët", "cp": "22160", "dept": "22", "lat": 48.3569, "lon": -3.5424}, {"nom": "Caulnes", "cp": "22350", "dept": "22", "lat": 48.3032, "lon": -2.1598}, {"nom": "Caurel", "cp": "22530", "dept": "22", "lat": 48.2199, "lon": -3.0375}, {"nom": "Cavan", "cp": "22140", "dept": "22", "lat": 48.6832, "lon": -3.3563}, {"nom": "Les Champs-Géraux", "cp": "22630", "dept": "22", "lat": 48.4271, "lon": -1.9759}, {"nom": "La Chapelle-Blanche", "cp": "22350", "dept": "22", "lat": 48.2676, "lon": -2.1251}, {"nom": "La Chapelle-Neuve", "cp": "22160", "dept": "22", "lat": 48.466, "lon": -3.4389}, {"nom": "La Chèze", "cp": "22210", "dept": "22", "lat": 48.1319, "lon": -2.6618}, {"nom": "Coadout", "cp": "22970", "dept": "22", "lat": 48.5154, "lon": -3.1728}, {"nom": "Coatascorn", "cp": "22140", "dept": "22", "lat": 48.6692, "lon": -3.2601}, {"nom": "Coatréven", "cp": "22450", "dept": "22", "lat": 48.7641, "lon": -3.3235}, {"nom": "Coëtmieux", "cp": "22400", "dept": "22", "lat": 48.4868, "lon": -2.5904}, {"nom": "Cohiniac", "cp": "22800", "dept": "22", "lat": 48.4513, "lon": -2.9464}, {"nom": "Le Mené", "cp": "22330", "dept": "22", "lat": 48.2837, "lon": -2.5144}, {"nom": "Corlay", "cp": "22320", "dept": "22", "lat": 48.307, "lon": -3.0419}, {"nom": "Corseul", "cp": "22130", "dept": "22", "lat": 48.4846, "lon": -2.1675}, {"nom": "Créhen", "cp": "22130", "dept": "22", "lat": 48.5447, "lon": -2.1869}, {"nom": "Dinan", "cp": "22100", "dept": "22", "lat": 48.4471, "lon": -2.0533}, {"nom": "Duault", "cp": "22160", "dept": "22", "lat": 48.3638, "lon": -3.4361}, {"nom": "Éréac", "cp": "22250", "dept": "22", "lat": 48.2714, "lon": -2.3426}, {"nom": "Erquy", "cp": "22430", "dept": "22", "lat": 48.618, "lon": -2.4571}, {"nom": "Binic-Étables-sur-Mer", "cp": "22520", "dept": "22", "lat": 48.6167, "lon": -2.8372}, {"nom": "Évran", "cp": "22630", "dept": "22", "lat": 48.3771, "lon": -1.9773}, {"nom": "Le Faouët", "cp": "22290", "dept": "22", "lat": 48.6798, "lon": -3.0726}, {"nom": "Le Fœil", "cp": "22800", "dept": "22", "lat": 48.4153, "lon": -2.9055}, {"nom": "Gausson", "cp": "22150", "dept": "22", "lat": 48.2916, "lon": -2.7615}, {"nom": "Glomel", "cp": "22110", "dept": "22", "lat": 48.2055, "lon": -3.3808}, {"nom": "Gomené", "cp": "22230", "dept": "22", "lat": 48.1835, "lon": -2.4935}, {"nom": "Gommenec'h", "cp": "22290", "dept": "22", "lat": 48.6362, "lon": -3.0481}, {"nom": "Gouarec", "cp": "22570", "dept": "22", "lat": 48.236, "lon": -3.1937}, {"nom": "Goudelin", "cp": "22290", "dept": "22", "lat": 48.606, "lon": -3.0245}, {"nom": "Grâces", "cp": "22200", "dept": "22", "lat": 48.5478, "lon": -3.1847}, {"nom": "Grâce-Uzel", "cp": "22460", "dept": "22", "lat": 48.252, "lon": -2.7951}, {"nom": "Guenroc", "cp": "22350", "dept": "22", "lat": 48.3141, "lon": -2.0823}, {"nom": "Guingamp", "cp": "22200", "dept": "22", "lat": 48.5608, "lon": -3.1533}, {"nom": "Guitté", "cp": "22350", "dept": "22", "lat": 48.2917, "lon": -2.1008}, {"nom": "Gurunhuel", "cp": "22390", "dept": "22", "lat": 48.5114, "lon": -3.2883}, {"nom": "La Harmoye", "cp": "22320", "dept": "22", "lat": 48.3472, "lon": -2.9737}, {"nom": "Le Haut-Corlay", "cp": "22320", "dept": "22", "lat": 48.343, "lon": -3.0347}, {"nom": "Hémonstoir", "cp": "22600", "dept": "22", "lat": 48.1573, "lon": -2.85}, {"nom": "Hénanbihen", "cp": "22550", "dept": "22", "lat": 48.559, "lon": -2.3861}, {"nom": "Hénansal", "cp": "22400", "dept": "22", "lat": 48.5373, "lon": -2.451}, {"nom": "Hénon", "cp": "22150", "dept": "22", "lat": 48.3885, "lon": -2.6898}, {"nom": "Hillion", "cp": "22120", "dept": "22", "lat": 48.5042, "lon": -2.6453}, {"nom": "Le Hinglé", "cp": "22100", "dept": "22", "lat": 48.3993, "lon": -2.0815}, {"nom": "Illifaut", "cp": "22230", "dept": "22", "lat": 48.1418, "lon": -2.3297}, {"nom": "Jugon-les-Lacs", "cp": "22270", "dept": "22", "lat": 48.4014, "lon": -2.3217}, {"nom": "Kerbors", "cp": "22610", "dept": "22", "lat": 48.8254, "lon": -3.1829}, {"nom": "Kerfot", "cp": "22500", "dept": "22", "lat": 48.7357, "lon": -3.033}, {"nom": "Kergrist-Moëlou", "cp": "22110", "dept": "22", "lat": 48.2945, "lon": -3.3194}, {"nom": "Kerien", "cp": "22480", "dept": "22", "lat": 48.4097, "lon": -3.2274}, {"nom": "Kermaria-Sulard", "cp": "22450", "dept": "22", "lat": 48.7753, "lon": -3.3748}, {"nom": "Kermoroc'h", "cp": "22140", "dept": "22", "lat": 48.6141, "lon": -3.2029}, {"nom": "Kerpert", "cp": "22480", "dept": "22", "lat": 48.389, "lon": -3.1359}, {"nom": "Lamballe-Armor", "cp": "22400", "dept": "22", "lat": 48.4859, "lon": -2.5201}, {"nom": "Lancieux", "cp": "22770", "dept": "22", "lat": 48.6034, "lon": -2.1479}, {"nom": "Landebaëron", "cp": "22140", "dept": "22", "lat": 48.6394, "lon": -3.2067}, {"nom": "Landébia", "cp": "22130", "dept": "22", "lat": 48.5171, "lon": -2.3349}, {"nom": "La Landec", "cp": "22980", "dept": "22", "lat": 48.4256, "lon": -2.1809}, {"nom": "Landéhen", "cp": "22400", "dept": "22", "lat": 48.4188, "lon": -2.5441}, {"nom": "Lanfains", "cp": "22800", "dept": "22", "lat": 48.3699, "lon": -2.912}, {"nom": "Langoat", "cp": "22450", "dept": "22", "lat": 48.7325, "lon": -3.3001}, {"nom": "Langrolay-sur-Rance", "cp": "22490", "dept": "22", "lat": 48.5547, "lon": -2.0151}, {"nom": "Languédias", "cp": "22980", "dept": "22", "lat": 48.3936, "lon": -2.2064}, {"nom": "Languenan", "cp": "22130", "dept": "22", "lat": 48.5127, "lon": -2.1344}, {"nom": "Langueux", "cp": "22360", "dept": "22", "lat": 48.502, "lon": -2.7087}, {"nom": "Bon Repos sur Blavet", "cp": "22570", "dept": "22", "lat": 48.2147, "lon": -3.1161}, {"nom": "Lanleff", "cp": "22290", "dept": "22", "lat": 48.6928, "lon": -3.0447}, {"nom": "Lanloup", "cp": "22580", "dept": "22", "lat": 48.7096, "lon": -2.9706}, {"nom": "Lanmérin", "cp": "22300", "dept": "22", "lat": 48.7394, "lon": -3.3539}, {"nom": "Lanmodez", "cp": "22610", "dept": "22", "lat": 48.8486, "lon": -3.0778}, {"nom": "Lannebert", "cp": "22290", "dept": "22", "lat": 48.6498, "lon": -3.0118}, {"nom": "Lannion", "cp": "22300", "dept": "22", "lat": 48.7454, "lon": -3.4697}, {"nom": "Lanrelas", "cp": "22250", "dept": "22", "lat": 48.2518, "lon": -2.296}, {"nom": "Lanrivain", "cp": "22480", "dept": "22", "lat": 48.351, "lon": -3.2086}, {"nom": "Lanrodec", "cp": "22170", "dept": "22", "lat": 48.4977, "lon": -3.0434}, {"nom": "Lantic", "cp": "22410", "dept": "22", "lat": 48.6057, "lon": -2.8969}, {"nom": "Lanvallay", "cp": "22100", "dept": "22", "lat": 48.4533, "lon": -2.0018}, {"nom": "Lanvellec", "cp": "22420", "dept": "22", "lat": 48.6069, "lon": -3.5285}, {"nom": "Lanvollon", "cp": "22290", "dept": "22", "lat": 48.6342, "lon": -2.9913}, {"nom": "Laurenan", "cp": "22230", "dept": "22", "lat": 48.214, "lon": -2.5092}, {"nom": "Lescouët-Gouarec", "cp": "22570", "dept": "22", "lat": 48.17, "lon": -3.2064}, {"nom": "Le Leslay", "cp": "22800", "dept": "22", "lat": 48.4222, "lon": -2.9629}, {"nom": "Lézardrieux", "cp": "22740", "dept": "22", "lat": 48.8048, "lon": -3.1051}, {"nom": "Locarn", "cp": "22340", "dept": "22", "lat": 48.3317, "lon": -3.4177}, {"nom": "Loc-Envel", "cp": "22810", "dept": "22", "lat": 48.5095, "lon": -3.4107}, {"nom": "Loguivy-Plougras", "cp": "22780", "dept": "22", "lat": 48.511, "lon": -3.4824}, {"nom": "Lohuec", "cp": "22160", "dept": "22", "lat": 48.4627, "lon": -3.5294}, {"nom": "Loscouët-sur-Meu", "cp": "22230", "dept": "22", "lat": 48.1792, "lon": -2.2559}, {"nom": "Louannec", "cp": "22700", "dept": "22", "lat": 48.7791, "lon": -3.4104}, {"nom": "Louargat", "cp": "22540", "dept": "22", "lat": 48.5631, "lon": -3.3359}, {"nom": "Loudéac", "cp": "22600", "dept": "22", "lat": 48.1737, "lon": -2.7442}, {"nom": "Maël-Carhaix", "cp": "22340", "dept": "22", "lat": 48.2902, "lon": -3.4168}, {"nom": "Maël-Pestivien", "cp": "22160", "dept": "22", "lat": 48.4101, "lon": -3.2949}, {"nom": "Magoar", "cp": "22480", "dept": "22", "lat": 48.4017, "lon": -3.176}, {"nom": "La Malhoure", "cp": "22640", "dept": "22", "lat": 48.3957, "lon": -2.4957}, {"nom": "Mantallot", "cp": "22450", "dept": "22", "lat": 48.7081, "lon": -3.291}, {"nom": "Matignon", "cp": "22550", "dept": "22", "lat": 48.6023, "lon": -2.2916}, {"nom": "La Méaugon", "cp": "22440", "dept": "22", "lat": 48.5036, "lon": -2.8472}, {"nom": "Mégrit", "cp": "22270", "dept": "22", "lat": 48.3883, "lon": -2.2714}, {"nom": "Mellionnec", "cp": "22110", "dept": "22", "lat": 48.168, "lon": -3.296}, {"nom": "Merdrignac", "cp": "22230", "dept": "22", "lat": 48.1961, "lon": -2.3946}, {"nom": "Mérillac", "cp": "22230", "dept": "22", "lat": 48.2511, "lon": -2.3873}, {"nom": "Merléac", "cp": "22460", "dept": "22", "lat": 48.2721, "lon": -2.9112}, {"nom": "Le Merzer", "cp": "22200", "dept": "22", "lat": 48.5804, "lon": -3.0778}, {"nom": "Minihy-Tréguier", "cp": "22220", "dept": "22", "lat": 48.7696, "lon": -3.2578}, {"nom": "Moncontour", "cp": "22510", "dept": "22", "lat": 48.3585, "lon": -2.6348}, {"nom": "La Motte", "cp": "22600", "dept": "22", "lat": 48.2342, "lon": -2.7052}, {"nom": "Moustéru", "cp": "22200", "dept": "22", "lat": 48.5282, "lon": -3.2329}, {"nom": "Le Moustoir", "cp": "22340", "dept": "22", "lat": 48.2729, "lon": -3.4855}, {"nom": "Guerlédan", "cp": "22530", "dept": "22", "lat": 48.1955, "lon": -2.9481}, {"nom": "Noyal", "cp": "22400", "dept": "22", "lat": 48.4513, "lon": -2.4641}, {"nom": "Pabu", "cp": "22200", "dept": "22", "lat": 48.5861, "lon": -3.1445}, {"nom": "Paimpol", "cp": "22500", "dept": "22", "lat": 48.7789, "lon": -3.0472}, {"nom": "Paule", "cp": "22340", "dept": "22", "lat": 48.2242, "lon": -3.461}, {"nom": "Pédernec", "cp": "22540", "dept": "22", "lat": 48.5869, "lon": -3.2754}, {"nom": "Penguily", "cp": "22510", "dept": "22", "lat": 48.3755, "lon": -2.4949}, {"nom": "Penvénan", "cp": "22710", "dept": "22", "lat": 48.8223, "lon": -3.3016}, {"nom": "Perros-Guirec", "cp": "22700", "dept": "22", "lat": 48.8376, "lon": -3.476}, {"nom": "Peumerit-Quintin", "cp": "22480", "dept": "22", "lat": 48.368, "lon": -3.2923}, {"nom": "Plaine-Haute", "cp": "22800", "dept": "22", "lat": 48.4458, "lon": -2.861}, {"nom": "Plaintel", "cp": "22940", "dept": "22", "lat": 48.4054, "lon": -2.8072}, {"nom": "Plancoët", "cp": "22130", "dept": "22", "lat": 48.5176, "lon": -2.2184}, {"nom": "Pléboulle", "cp": "22550", "dept": "22", "lat": 48.5951, "lon": -2.33}, {"nom": "Plédéliac", "cp": "22270", "dept": "22", "lat": 48.4645, "lon": -2.3675}, {"nom": "Plédran", "cp": "22960", "dept": "22", "lat": 48.4426, "lon": -2.7381}, {"nom": "Pléguien", "cp": "22290", "dept": "22", "lat": 48.6351, "lon": -2.9527}, {"nom": "Pléhédel", "cp": "22290", "dept": "22", "lat": 48.6969, "lon": -3.0068}, {"nom": "Fréhel", "cp": "22240", "dept": "22", "lat": 48.6334, "lon": -2.3713}, {"nom": "Plélan-le-Petit", "cp": "22980", "dept": "22", "lat": 48.4274, "lon": -2.2256}, {"nom": "Plélauff", "cp": "22570", "dept": "22", "lat": 48.1954, "lon": -3.1933}, {"nom": "Plélo", "cp": "22170", "dept": "22", "lat": 48.5567, "lon": -2.9183}, {"nom": "Plémet", "cp": "22210", "dept": "22", "lat": 48.1732, "lon": -2.596}, {"nom": "Plémy", "cp": "22150", "dept": "22", "lat": 48.337, "lon": -2.6716}, {"nom": "Plénée-Jugon", "cp": "22640", "dept": "22", "lat": 48.3537, "lon": -2.412}, {"nom": "Pléneuf-Val-André", "cp": "22370", "dept": "22", "lat": 48.5854, "lon": -2.5351}, {"nom": "Plérin", "cp": "22190", "dept": "22", "lat": 48.5467, "lon": -2.7818}, {"nom": "Plerneuf", "cp": "22170", "dept": "22", "lat": 48.5051, "lon": -2.8824}, {"nom": "Plésidy", "cp": "22720", "dept": "22", "lat": 48.4444, "lon": -3.1292}, {"nom": "Pleslin-Trigavou", "cp": "22490", "dept": "22", "lat": 48.5285, "lon": -2.0706}, {"nom": "Plestan", "cp": "22640", "dept": "22", "lat": 48.4135, "lon": -2.428}, {"nom": "Plestin-les-Grèves", "cp": "22310", "dept": "22", "lat": 48.6508, "lon": -3.6197}, {"nom": "Pleubian", "cp": "22610", "dept": "22", "lat": 48.8537, "lon": -3.1176}, {"nom": "Pleudaniel", "cp": "22740", "dept": "22", "lat": 48.7617, "lon": -3.1537}, {"nom": "Pleudihen-sur-Rance", "cp": "22690", "dept": "22", "lat": 48.5138, "lon": -1.9451}, {"nom": "Pleumeur-Bodou", "cp": "22560", "dept": "22", "lat": 48.7895, "lon": -3.5389}, {"nom": "Pleumeur-Gautier", "cp": "22740", "dept": "22", "lat": 48.7986, "lon": -3.148}, {"nom": "Plévenon", "cp": "22240", "dept": "22", "lat": 48.6581, "lon": -2.3171}, {"nom": "Plévin", "cp": "22340", "dept": "22", "lat": 48.22, "lon": -3.5191}, {"nom": "Plœuc-L'Hermitage", "cp": "22150", "dept": "22", "lat": 48.3353, "lon": -2.8172}, {"nom": "Ploëzal", "cp": "22260", "dept": "22", "lat": 48.7179, "lon": -3.1805}, {"nom": "Plorec-sur-Arguenon", "cp": "22130", "dept": "22", "lat": 48.4653, "lon": -2.3024}, {"nom": "Châtelaudren-Plouagat", "cp": "22170", "dept": "22", "lat": 48.5311, "lon": -2.9872}, {"nom": "Plouaret", "cp": "22420", "dept": "22", "lat": 48.6161, "lon": -3.4832}, {"nom": "Plouasne", "cp": "22830", "dept": "22", "lat": 48.3118, "lon": -2.0102}, {"nom": "Beaussais-sur-Mer", "cp": "22650", "dept": "22", "lat": 48.5627, "lon": -2.1383}, {"nom": "Ploubazlanec", "cp": "22620", "dept": "22", "lat": 48.8047, "lon": -3.0308}, {"nom": "Ploubezre", "cp": "22300", "dept": "22", "lat": 48.6877, "lon": -3.4509}, {"nom": "Plouëc-du-Trieux", "cp": "22260", "dept": "22", "lat": 48.6719, "lon": -3.1889}, {"nom": "Plouër-sur-Rance", "cp": "22490", "dept": "22", "lat": 48.5254, "lon": -2.0064}, {"nom": "Plouézec", "cp": "22470", "dept": "22", "lat": 48.745, "lon": -2.976}, {"nom": "Ploufragan", "cp": "22440", "dept": "22", "lat": 48.4915, "lon": -2.8001}, {"nom": "Plougonver", "cp": "22810", "dept": "22", "lat": 48.4848, "lon": -3.3859}, {"nom": "Plougras", "cp": "22780", "dept": "22", "lat": 48.5031, "lon": -3.5655}, {"nom": "Plougrescant", "cp": "22820", "dept": "22", "lat": 48.8423, "lon": -3.2275}, {"nom": "Plouguenast-Langast", "cp": "22150", "dept": "22", "lat": 48.2802, "lon": -2.6933}, {"nom": "Plouguernével", "cp": "22110", "dept": "22", "lat": 48.2296, "lon": -3.2395}, {"nom": "Plouguiel", "cp": "22220", "dept": "22", "lat": 48.8065, "lon": -3.2455}, {"nom": "Plouha", "cp": "22580", "dept": "22", "lat": 48.6855, "lon": -2.9335}, {"nom": "Plouisy", "cp": "22200", "dept": "22", "lat": 48.5775, "lon": -3.1885}, {"nom": "Ploulec'h", "cp": "22300", "dept": "22", "lat": 48.7182, "lon": -3.5001}, {"nom": "Ploumagoar", "cp": "22970", "dept": "22", "lat": 48.5295, "lon": -3.1096}, {"nom": "Ploumilliau", "cp": "22300", "dept": "22", "lat": 48.6869, "lon": -3.5116}, {"nom": "Plounérin", "cp": "22780", "dept": "22", "lat": 48.5667, "lon": -3.5472}, {"nom": "Plounévez-Moëdec", "cp": "22810", "dept": "22", "lat": 48.55, "lon": -3.4499}, {"nom": "Plounévez-Quintin", "cp": "22110", "dept": "22", "lat": 48.2898, "lon": -3.2384}, {"nom": "Plourac'h", "cp": "22160", "dept": "22", "lat": 48.416, "lon": -3.5531}, {"nom": "Plourhan", "cp": "22410", "dept": "22", "lat": 48.6303, "lon": -2.8839}, {"nom": "Plourivo", "cp": "22860", "dept": "22", "lat": 48.7388, "lon": -3.0972}, {"nom": "Plouvara", "cp": "22170", "dept": "22", "lat": 48.4962, "lon": -2.9259}, {"nom": "Plouzélambre", "cp": "22420", "dept": "22", "lat": 48.6476, "lon": -3.5346}, {"nom": "Pludual", "cp": "22290", "dept": "22", "lat": 48.6653, "lon": -2.9868}, {"nom": "Val-d'Arguenon", "cp": "22130", "dept": "22", "lat": 48.516, "lon": -2.2946}, {"nom": "Plufur", "cp": "22310", "dept": "22", "lat": 48.6141, "lon": -3.5756}, {"nom": "Plumaudan", "cp": "22350", "dept": "22", "lat": 48.3542, "lon": -2.1179}, {"nom": "Plumaugat", "cp": "22250", "dept": "22", "lat": 48.2451, "lon": -2.2322}, {"nom": "Plumieux", "cp": "22210", "dept": "22", "lat": 48.0957, "lon": -2.5885}, {"nom": "Plurien", "cp": "22240", "dept": "22", "lat": 48.6115, "lon": -2.3959}, {"nom": "Plusquellec", "cp": "22160", "dept": "22", "lat": 48.3968, "lon": -3.4821}, {"nom": "Plussulien", "cp": "22320", "dept": "22", "lat": 48.2763, "lon": -3.0608}, {"nom": "Pluzunet", "cp": "22140", "dept": "22", "lat": 48.6368, "lon": -3.3765}, {"nom": "Pommeret", "cp": "22120", "dept": "22", "lat": 48.4599, "lon": -2.6215}, {"nom": "Pommerit-le-Vicomte", "cp": "22200", "dept": "22", "lat": 48.6182, "lon": -3.0959}, {"nom": "Pont-Melvez", "cp": "22390", "dept": "22", "lat": 48.475, "lon": -3.2837}, {"nom": "Pontrieux", "cp": "22260", "dept": "22", "lat": 48.7, "lon": -3.1602}, {"nom": "Pordic", "cp": "22590", "dept": "22", "lat": 48.5695, "lon": -2.825}, {"nom": "Prat", "cp": "22140", "dept": "22", "lat": 48.6804, "lon": -3.2922}, {"nom": "La Prénessaye", "cp": "22210", "dept": "22", "lat": 48.1852, "lon": -2.6479}, {"nom": "Quemper-Guézennec", "cp": "22260", "dept": "22", "lat": 48.7011, "lon": -3.1023}, {"nom": "Quemperven", "cp": "22450", "dept": "22", "lat": 48.7267, "lon": -3.3357}, {"nom": "Quessoy", "cp": "22120", "dept": "22", "lat": 48.4273, "lon": -2.6587}, {"nom": "Quévert", "cp": "22100", "dept": "22", "lat": 48.466, "lon": -2.0852}, {"nom": "Le Quillio", "cp": "22460", "dept": "22", "lat": 48.2439, "lon": -2.9033}, {"nom": "Quintenic", "cp": "22400", "dept": "22", "lat": 48.5104, "lon": -2.4249}, {"nom": "Quintin", "cp": "22800", "dept": "22", "lat": 48.4029, "lon": -2.9132}, {"nom": "Le Quiou", "cp": "22630", "dept": "22", "lat": 48.3464, "lon": -1.9963}, {"nom": "La Roche-Jaudy", "cp": "22450", "dept": "22", "lat": 48.7304, "lon": -3.23}, {"nom": "Rospez", "cp": "22300", "dept": "22", "lat": 48.7385, "lon": -3.3862}, {"nom": "Rostrenen", "cp": "22110", "dept": "22", "lat": 48.2223, "lon": -3.3105}, {"nom": "Rouillac", "cp": "22250", "dept": "22", "lat": 48.308, "lon": -2.3661}, {"nom": "Ruca", "cp": "22550", "dept": "22", "lat": 48.5598, "lon": -2.336}, {"nom": "Runan", "cp": "22260", "dept": "22", "lat": 48.6857, "lon": -3.2284}, {"nom": "Saint-Adrien", "cp": "22390", "dept": "22", "lat": 48.4931, "lon": -3.1318}, {"nom": "Saint-Agathon", "cp": "22200", "dept": "22", "lat": 48.5664, "lon": -3.0995}, {"nom": "Saint-Alban", "cp": "22400", "dept": "22", "lat": 48.5556, "lon": -2.5174}, {"nom": "Saint-André-des-Eaux", "cp": "22630", "dept": "22", "lat": 48.3745, "lon": -2.0131}, {"nom": "Saint-Barnabé", "cp": "22600", "dept": "22", "lat": 48.1387, "lon": -2.6995}, {"nom": "Saint-Bihy", "cp": "22800", "dept": "22", "lat": 48.3763, "lon": -2.9697}, {"nom": "Saint-Brandan", "cp": "22800", "dept": "22", "lat": 48.3904, "lon": -2.8736}, {"nom": "Saint-Brieuc", "cp": "22000", "dept": "22", "lat": 48.5108, "lon": -2.7657}, {"nom": "Saint-Caradec", "cp": "22600", "dept": "22", "lat": 48.1993, "lon": -2.8653}, {"nom": "Saint-Carné", "cp": "22100", "dept": "22", "lat": 48.4193, "lon": -2.0517}, {"nom": "Saint-Carreuc", "cp": "22150", "dept": "22", "lat": 48.4017, "lon": -2.7471}, {"nom": "Saint-Cast-le-Guildo", "cp": "22380", "dept": "22", "lat": 48.6077, "lon": -2.2499}, {"nom": "Saint-Clet", "cp": "22260", "dept": "22", "lat": 48.6694, "lon": -3.1348}, {"nom": "Saint-Connan", "cp": "22480", "dept": "22", "lat": 48.4108, "lon": -3.0786}, {"nom": "Saint-Connec", "cp": "22530", "dept": "22", "lat": 48.1821, "lon": -2.9259}, {"nom": "Saint-Denoual", "cp": "22400", "dept": "22", "lat": 48.5193, "lon": -2.3811}, {"nom": "Saint-Donan", "cp": "22800", "dept": "22", "lat": 48.4633, "lon": -2.8856}, {"nom": "Saint-Étienne-du-Gué-de-l'Isle", "cp": "22210", "dept": "22", "lat": 48.0816, "lon": -2.6398}, {"nom": "Saint-Fiacre", "cp": "22720", "dept": "22", "lat": 48.456, "lon": -3.0546}, {"nom": "Saint-Gildas", "cp": "22800", "dept": "22", "lat": 48.4255, "lon": -3.0014}, {"nom": "Saint-Gilles-les-Bois", "cp": "22290", "dept": "22", "lat": 48.6569, "lon": -3.0884}, {"nom": "Saint-Gilles-Pligeaux", "cp": "22480", "dept": "22", "lat": 48.3767, "lon": -3.0836}, {"nom": "Saint-Gilles-Vieux-Marché", "cp": "22530", "dept": "22", "lat": 48.2481, "lon": -2.973}, {"nom": "Saint-Glen", "cp": "22510", "dept": "22", "lat": 48.3468, "lon": -2.5266}, {"nom": "Saint-Hélen", "cp": "22100", "dept": "22", "lat": 48.466, "lon": -1.9639}, {"nom": "Saint-Hervé", "cp": "22460", "dept": "22", "lat": 48.2761, "lon": -2.8122}, {"nom": "Saint-Jacut-de-la-Mer", "cp": "22750", "dept": "22", "lat": 48.6001, "lon": -2.1943}, {"nom": "Saint-Jean-Kerdaniel", "cp": "22170", "dept": "22", "lat": 48.5513, "lon": -3.0334}, {"nom": "Saint-Jouan-de-l'Isle", "cp": "22350", "dept": "22", "lat": 48.2645, "lon": -2.1788}, {"nom": "Saint-Judoce", "cp": "22630", "dept": "22", "lat": 48.3646, "lon": -1.952}, {"nom": "Saint-Julien", "cp": "22940", "dept": "22", "lat": 48.4486, "lon": -2.8177}, {"nom": "Saint-Juvat", "cp": "22630", "dept": "22", "lat": 48.3663, "lon": -2.0573}, {"nom": "Saint-Laurent", "cp": "22140", "dept": "22", "lat": 48.6204, "lon": -3.2472}, {"nom": "Saint-Lormel", "cp": "22130", "dept": "22", "lat": 48.5494, "lon": -2.2375}, {"nom": "Saint-Maden", "cp": "22350", "dept": "22", "lat": 48.3363, "lon": -2.0655}, {"nom": "Saint-Martin-des-Prés", "cp": "22320", "dept": "22", "lat": 48.3031, "lon": -2.9674}, {"nom": "Saint-Maudan", "cp": "22600", "dept": "22", "lat": 48.1071, "lon": -2.7672}, {"nom": "Saint-Maudez", "cp": "22980", "dept": "22", "lat": 48.4549, "lon": -2.1798}, {"nom": "Saint-Mayeux", "cp": "22320", "dept": "22", "lat": 48.264, "lon": -3.021}, {"nom": "Saint-Méloir-des-Bois", "cp": "22980", "dept": "22", "lat": 48.4376, "lon": -2.2559}, {"nom": "Saint-Michel-de-Plélan", "cp": "22980", "dept": "22", "lat": 48.4617, "lon": -2.219}, {"nom": "Saint-Michel-en-Grève", "cp": "22300", "dept": "22", "lat": 48.6758, "lon": -3.5563}, {"nom": "Saint-Nicodème", "cp": "22160", "dept": "22", "lat": 48.3602, "lon": -3.342}, {"nom": "Saint-Nicolas-du-Pélem", "cp": "22480", "dept": "22", "lat": 48.3265, "lon": -3.166}, {"nom": "Saint-Péver", "cp": "22720", "dept": "22", "lat": 48.4819, "lon": -3.0878}, {"nom": "Saint-Pôtan", "cp": "22550", "dept": "22", "lat": 48.5589, "lon": -2.2977}, {"nom": "Saint-Quay-Perros", "cp": "22700", "dept": "22", "lat": 48.7787, "lon": -3.4493}, {"nom": "Saint-Quay-Portrieux", "cp": "22410", "dept": "22", "lat": 48.6552, "lon": -2.8403}, {"nom": "Saint-Rieul", "cp": "22270", "dept": "22", "lat": 48.4413, "lon": -2.4235}, {"nom": "Saint-Samson-sur-Rance", "cp": "22100", "dept": "22", "lat": 48.49, "lon": -2.0172}, {"nom": "Saint-Servais", "cp": "22160", "dept": "22", "lat": 48.3819, "lon": -3.3753}, {"nom": "Saint-Thélo", "cp": "22460", "dept": "22", "lat": 48.246, "lon": -2.8381}, {"nom": "Sainte-Tréphine", "cp": "22480", "dept": "22", "lat": 48.2632, "lon": -3.1687}, {"nom": "Saint-Trimoël", "cp": "22510", "dept": "22", "lat": 48.3928, "lon": -2.5427}, {"nom": "Saint-Vran", "cp": "22230", "dept": "22", "lat": 48.2428, "lon": -2.459}, {"nom": "Saint-Igeaux", "cp": "22570", "dept": "22", "lat": 48.278, "lon": -3.118}, {"nom": "Senven-Léhart", "cp": "22720", "dept": "22", "lat": 48.4356, "lon": -3.0609}, {"nom": "Sévignac", "cp": "22250", "dept": "22", "lat": 48.3312, "lon": -2.3244}, {"nom": "Squiffiec", "cp": "22200", "dept": "22", "lat": 48.6385, "lon": -3.1659}, {"nom": "Taden", "cp": "22100", "dept": "22", "lat": 48.4867, "lon": -2.0536}, {"nom": "Tonquédec", "cp": "22140", "dept": "22", "lat": 48.6782, "lon": -3.3962}, {"nom": "Tramain", "cp": "22640", "dept": "22", "lat": 48.4001, "lon": -2.3877}, {"nom": "Trébédan", "cp": "22980", "dept": "22", "lat": 48.4056, "lon": -2.1622}, {"nom": "Trébeurden", "cp": "22560", "dept": "22", "lat": 48.772, "lon": -3.5653}, {"nom": "Trébrivan", "cp": "22340", "dept": "22", "lat": 48.3116, "lon": -3.4806}, {"nom": "Trébry", "cp": "22510", "dept": "22", "lat": 48.343, "lon": -2.5589}, {"nom": "Trédaniel", "cp": "22510", "dept": "22", "lat": 48.3482, "lon": -2.6039}, {"nom": "Trédarzec", "cp": "22220", "dept": "22", "lat": 48.7922, "lon": -3.2008}, {"nom": "Trédias", "cp": "22250", "dept": "22", "lat": 48.367, "lon": -2.2243}, {"nom": "Trédrez-Locquémeau", "cp": "22300", "dept": "22", "lat": 48.7094, "lon": -3.5623}, {"nom": "Tréduder", "cp": "22310", "dept": "22", "lat": 48.6559, "lon": -3.5663}, {"nom": "Treffrin", "cp": "22340", "dept": "22", "lat": 48.3001, "lon": -3.5308}, {"nom": "Tréfumel", "cp": "22630", "dept": "22", "lat": 48.3401, "lon": -2.0236}, {"nom": "Trégastel", "cp": "22730", "dept": "22", "lat": 48.8166, "lon": -3.512}, {"nom": "Tréglamus", "cp": "22540", "dept": "22", "lat": 48.5534, "lon": -3.2523}, {"nom": "Trégomeur", "cp": "22590", "dept": "22", "lat": 48.5666, "lon": -2.8857}, {"nom": "Trégonneau", "cp": "22200", "dept": "22", "lat": 48.6144, "lon": -3.1644}, {"nom": "Trégrom", "cp": "22420", "dept": "22", "lat": 48.5962, "lon": -3.4042}, {"nom": "Trégueux", "cp": "22950", "dept": "22", "lat": 48.4769, "lon": -2.7454}, {"nom": "Tréguidel", "cp": "22290", "dept": "22", "lat": 48.5996, "lon": -2.9436}, {"nom": "Tréguier", "cp": "22220", "dept": "22", "lat": 48.7848, "lon": -3.2326}, {"nom": "Trélévern", "cp": "22660", "dept": "22", "lat": 48.8014, "lon": -3.3689}, {"nom": "Trélivan", "cp": "22100", "dept": "22", "lat": 48.427, "lon": -2.1025}, {"nom": "Trémargat", "cp": "22110", "dept": "22", "lat": 48.3265, "lon": -3.268}, {"nom": "Trémel", "cp": "22310", "dept": "22", "lat": 48.6052, "lon": -3.6219}, {"nom": "Tréméreuc", "cp": "22490", "dept": "22", "lat": 48.5601, "lon": -2.0634}, {"nom": "Trémeur", "cp": "22250", "dept": "22", "lat": 48.3535, "lon": -2.2668}, {"nom": "Tréméven", "cp": "22290", "dept": "22", "lat": 48.6709, "lon": -3.0323}, {"nom": "Trémorel", "cp": "22230", "dept": "22", "lat": 48.1891, "lon": -2.3007}, {"nom": "Trémuson", "cp": "22440", "dept": "22", "lat": 48.5246, "lon": -2.8476}, {"nom": "Tréogan", "cp": "22340", "dept": "22", "lat": 48.1879, "lon": -3.5316}, {"nom": "Tressignaux", "cp": "22290", "dept": "22", "lat": 48.6085, "lon": -2.9743}, {"nom": "Trévé", "cp": "22600", "dept": "22", "lat": 48.2139, "lon": -2.8074}, {"nom": "Tréveneuc", "cp": "22410", "dept": "22", "lat": 48.6599, "lon": -2.8733}, {"nom": "Trévérec", "cp": "22290", "dept": "22", "lat": 48.6619, "lon": -3.0572}, {"nom": "Trévou-Tréguignec", "cp": "22660", "dept": "22", "lat": 48.811, "lon": -3.3451}, {"nom": "Trévron", "cp": "22100", "dept": "22", "lat": 48.3909, "lon": -2.0682}, {"nom": "Trézény", "cp": "22450", "dept": "22", "lat": 48.7546, "lon": -3.361}, {"nom": "Troguéry", "cp": "22450", "dept": "22", "lat": 48.7612, "lon": -3.2262}, {"nom": "Uzel", "cp": "22460", "dept": "22", "lat": 48.2794, "lon": -2.8487}, {"nom": "La Vicomté-sur-Rance", "cp": "22690", "dept": "22", "lat": 48.4882, "lon": -1.9834}, {"nom": "Le Vieux-Bourg", "cp": "22800", "dept": "22", "lat": 48.3902, "lon": -2.997}, {"nom": "Le Vieux-Marché", "cp": "22420", "dept": "22", "lat": 48.6148, "lon": -3.44}, {"nom": "Vildé-Guingalan", "cp": "22980", "dept": "22", "lat": 48.4351, "lon": -2.1532}, {"nom": "Yffiniac", "cp": "22120", "dept": "22", "lat": 48.4692, "lon": -2.6862}, {"nom": "Yvias", "cp": "22930", "dept": "22", "lat": 48.7193, "lon": -3.0449}, {"nom": "Yvignac-la-Tour", "cp": "22350", "dept": "22", "lat": 48.3496, "lon": -2.1661}]