[{"nom": "Aigremont", "cp": "89800", "dept": "89", "lat": 47.7171, "lon": 3.8866}, {"nom": "Montholon", "cp": "89110", "dept": "89", "lat": 47.9004, "lon": 3.3211}, {"nom": "Aisy-sur-Armançon", "cp": "89390", "dept": "89", "lat": 47.6551, "lon": 4.2134}, {"nom": "Ancy-le-Franc", "cp": "89160", "dept": "89", "lat": 47.7718, "lon": 4.1635}, {"nom": "Ancy-le-Libre", "cp": "89160", "dept": "89", "lat": 47.8034, "lon": 4.1492}, {"nom": "Andryes", "cp": "89480", "dept": "89", "lat": 47.5346, "lon": 3.4539}, {"nom": "Angely", "cp": "89440", "dept": "89", "lat": 47.5603, "lon": 4.0112}, {"nom": "Annay-la-Côte", "cp": "89200", "dept": "89", "lat": 47.5515, "lon": 3.8699}, {"nom": "Annay-sur-Serein", "cp": "89310", "dept": "89", "lat": 47.7324, "lon": 3.9563}, {"nom": "Annéot", "cp": "89200", "dept": "89", "lat": 47.5198, "lon": 3.8808}, {"nom": "Annoux", "cp": "89440", "dept": "89", "lat": 47.6267, "lon": 4.0518}, {"nom": "Appoigny", "cp": "89380", "dept": "89", "lat": 47.8669, "lon": 3.5206}, {"nom": "Arces-Dilo", "cp": "89320", "dept": "89", "lat": 48.1047, "lon": 3.5877}, {"nom": "Arcy-sur-Cure", "cp": "89270", "dept": "89", "lat": 47.5909, "lon": 3.7658}, {"nom": "Argentenay", "cp": "89160", "dept": "89", "lat": 47.8202, "lon": 4.1159}, {"nom": "Argenteuil-sur-Armançon", "cp": "89160", "dept": "89", "lat": 47.7421, "lon": 4.0928}, {"nom": "Armeau", "cp": "89500", "dept": "89", "lat": 48.0474, "lon": 3.3336}, {"nom": "Arthonnay", "cp": "89740", "dept": "89", "lat": 47.9357, "lon": 4.2403}, {"nom": "Asnières-sous-Bois", "cp": "89660", "dept": "89", "lat": 47.4788, "lon": 3.6429}, {"nom": "Asquins", "cp": "89450", "dept": "89", "lat": 47.491, "lon": 3.7436}, {"nom": "Athie", "cp": "89440", "dept": "89", "lat": 47.5399, "lon": 3.9925}, {"nom": "Augy", "cp": "89290", "dept": "89", "lat": 47.7712, "lon": 3.6214}, {"nom": "Auxerre", "cp": "89000", "dept": "89", "lat": 47.7939, "lon": 3.5821}, {"nom": "Avallon", "cp": "89200", "dept": "89", "lat": 47.4808, "lon": 3.9197}, {"nom": "Bagneaux", "cp": "89190", "dept": "89", "lat": 48.2513, "lon": 3.593}, {"nom": "Baon", "cp": "89430", "dept": "89", "lat": 47.8611, "lon": 4.1377}, {"nom": "Bassou", "cp": "89400", "dept": "89", "lat": 47.9245, "lon": 3.5082}, {"nom": "Bazarnes", "cp": "89460", "dept": "89", "lat": 47.6634, "lon": 3.6431}, {"nom": "Beaumont", "cp": "89250", "dept": "89", "lat": 47.9121, "lon": 3.5506}, {"nom": "Beauvilliers", "cp": "89630", "dept": "89", "lat": 47.4135, "lon": 4.0362}, {"nom": "Beauvoir", "cp": "89240", "dept": "89", "lat": 47.7902, "lon": 3.3823}, {"nom": "Beine", "cp": "89800", "dept": "89", "lat": 47.8158, "lon": 3.7252}, {"nom": "Bellechaume", "cp": "89210", "dept": "89", "lat": 48.0533, "lon": 3.5797}, {"nom": "La Belliole", "cp": "89150", "dept": "89", "lat": 48.1436, "lon": 3.0835}, {"nom": "Béon", "cp": "89410", "dept": "89", "lat": 47.9468, "lon": 3.3161}, {"nom": "Bernouil", "cp": "89360", "dept": "89", "lat": 47.9049, "lon": 3.8974}, {"nom": "Béru", "cp": "89700", "dept": "89", "lat": 47.8054, "lon": 3.8855}, {"nom": "Bessy-sur-Cure", "cp": "89270", "dept": "89", "lat": 47.6212, "lon": 3.7277}, {"nom": "Beugnon", "cp": "89570", "dept": "89", "lat": 48.0199, "lon": 3.7924}, {"nom": "Bierry-les-Belles-Fontaines", "cp": "89420", "dept": "89", "lat": 47.6137, "lon": 4.1786}, {"nom": "Blacy", "cp": "89440", "dept": "89", "lat": 47.5814, "lon": 4.0401}, {"nom": "Blannay", "cp": "89200", "dept": "89", "lat": 47.5335, "lon": 3.7628}, {"nom": "Bleigny-le-Carreau", "cp": "89230", "dept": "89", "lat": 47.8302, "lon": 3.6759}, {"nom": "Bléneau", "cp": "89220", "dept": "89", "lat": 47.6993, "lon": 2.9539}, {"nom": "Bœurs-en-Othe", "cp": "89770", "dept": "89", "lat": 48.1442, "lon": 3.7041}, {"nom": "Bois-d'Arcy", "cp": "89660", "dept": "89", "lat": 47.5513, "lon": 3.7237}, {"nom": "Bonnard", "cp": "89400", "dept": "89", "lat": 47.9318, "lon": 3.5363}, {"nom": "Les Bordes", "cp": "89500", "dept": "89", "lat": 48.1082, "lon": 3.3914}, {"nom": "Branches", "cp": "89113", "dept": "89", "lat": 47.8745, "lon": 3.4839}, {"nom": "Brannay", "cp": "89150", "dept": "89", "lat": 48.2306, "lon": 3.127}, {"nom": "Brienon-sur-Armançon", "cp": "89210", "dept": "89", "lat": 48.001, "lon": 3.6183}, {"nom": "Brion", "cp": "89400", "dept": "89", "lat": 48.0027, "lon": 3.4787}, {"nom": "Brosses", "cp": "89660", "dept": "89", "lat": 47.5318, "lon": 3.6928}, {"nom": "Bussières", "cp": "89630", "dept": "89", "lat": 47.4259, "lon": 4.0466}, {"nom": "Bussy-en-Othe", "cp": "89400", "dept": "89", "lat": 48.0411, "lon": 3.5128}, {"nom": "Bussy-le-Repos", "cp": "89500", "dept": "89", "lat": 48.0613, "lon": 3.217}, {"nom": "Butteaux", "cp": "89360", "dept": "89", "lat": 47.9838, "lon": 3.822}, {"nom": "Carisey", "cp": "89360", "dept": "89", "lat": 47.9229, "lon": 3.8433}, {"nom": "La Celle-Saint-Cyr", "cp": "89116", "dept": "89", "lat": 47.9796, "lon": 3.2788}, {"nom": "Censy", "cp": "89310", "dept": "89", "lat": 47.7006, "lon": 4.0476}, {"nom": "Cérilly", "cp": "89320", "dept": "89", "lat": 48.1777, "lon": 3.6223}, {"nom": "Cerisiers", "cp": "89320", "dept": "89", "lat": 48.1245, "lon": 3.5135}, {"nom": "Cézy", "cp": "89410", "dept": "89", "lat": 47.9977, "lon": 3.3166}, {"nom": "Chablis", "cp": "89800", "dept": "89", "lat": 47.806, "lon": 3.7932}, {"nom": "Chailley", "cp": "89770", "dept": "89", "lat": 48.0911, "lon": 3.6795}, {"nom": "Chamoux", "cp": "89660", "dept": "89", "lat": 47.4596, "lon": 3.6584}, {"nom": "Champcevrais", "cp": "89220", "dept": "89", "lat": 47.754, "lon": 2.9716}, {"nom": "Champignelles", "cp": "89350", "dept": "89", "lat": 47.7773, "lon": 3.0939}, {"nom": "Champigny", "cp": "89340", "dept": "89", "lat": 48.3045, "lon": 3.1348}, {"nom": "Champlay", "cp": "89300", "dept": "89", "lat": 47.9455, "lon": 3.4153}, {"nom": "Champlost", "cp": "89210", "dept": "89", "lat": 48.046, "lon": 3.6475}, {"nom": "Champs-sur-Yonne", "cp": "89290", "dept": "89", "lat": 47.7496, "lon": 3.6047}, {"nom": "Chamvres", "cp": "89300", "dept": "89", "lat": 47.9593, "lon": 3.3553}, {"nom": "La Chapelle-sur-Oreuse", "cp": "89260", "dept": "89", "lat": 48.2955, "lon": 3.3016}, {"nom": "La Chapelle-Vaupelteigne", "cp": "89800", "dept": "89", "lat": 47.8444, "lon": 3.7725}, {"nom": "Charbuy", "cp": "89113", "dept": "89", "lat": 47.8286, "lon": 3.4609}, {"nom": "Charentenay", "cp": "89580", "dept": "89", "lat": 47.6444, "lon": 3.5541}, {"nom": "Charmoy", "cp": "89400", "dept": "89", "lat": 47.9424, "lon": 3.4947}, {"nom": "Charny Orée de Puisaye", "cp": "89120", "dept": "89", "lat": 47.8786, "lon": 3.1073}, {"nom": "Chassignelles", "cp": "89160", "dept": "89", "lat": 47.7735, "lon": 4.1967}, {"nom": "Chassy", "cp": "89110", "dept": "89", "lat": 47.8503, "lon": 3.3281}, {"nom": "Chastellux-sur-Cure", "cp": "89630", "dept": "89", "lat": 47.3876, "lon": 3.8847}, {"nom": "Châtel-Censoir", "cp": "89660", "dept": "89", "lat": 47.5264, "lon": 3.6335}, {"nom": "Châtel-Gérard", "cp": "89310", "dept": "89", "lat": 47.631, "lon": 4.1054}, {"nom": "Chaumont", "cp": "89340", "dept": "89", "lat": 48.3095, "lon": 3.1023}, {"nom": "Chaumot", "cp": "89500", "dept": "89", "lat": 48.0813, "lon": 3.2062}, {"nom": "Chemilly-sur-Serein", "cp": "89800", "dept": "89", "lat": 47.7671, "lon": 3.8595}, {"nom": "Chemilly-sur-Yonne", "cp": "89250", "dept": "89", "lat": 47.8957, "lon": 3.5547}, {"nom": "Cheney", "cp": "89700", "dept": "89", "lat": 47.9152, "lon": 3.9591}, {"nom": "Cheny", "cp": "89400", "dept": "89", "lat": 47.9446, "lon": 3.534}, {"nom": "Chéroy", "cp": "89690", "dept": "89", "lat": 48.2042, "lon": 3.005}, {"nom": "Chéu", "cp": "89600", "dept": "89", "lat": 47.9749, "lon": 3.7552}, {"nom": "Chevannes", "cp": "89240", "dept": "89", "lat": 47.7487, "lon": 3.4893}, {"nom": "Chichée", "cp": "89800", "dept": "89", "lat": 47.7806, "lon": 3.8392}, {"nom": "Chichery", "cp": "89400", "dept": "89", "lat": 47.9051, "lon": 3.5096}, {"nom": "Chitry", "cp": "89530", "dept": "89", "lat": 47.7703, "lon": 3.6982}, {"nom": "Les Clérimois", "cp": "89190", "dept": "89", "lat": 48.2295, "lon": 3.4591}, {"nom": "Collan", "cp": "89700", "dept": "89", "lat": 47.8402, "lon": 3.8724}, {"nom": "Collemiers", "cp": "89100", "dept": "89", "lat": 48.1548, "lon": 3.2163}, {"nom": "Compigny", "cp": "89140", "dept": "89", "lat": 48.3671, "lon": 3.2815}, {"nom": "Cornant", "cp": "89500", "dept": "89", "lat": 48.1342, "lon": 3.1893}, {"nom": "Coulangeron", "cp": "89580", "dept": "89", "lat": 47.6818, "lon": 3.47}, {"nom": "Coulanges-la-Vineuse", "cp": "89580", "dept": "89", "lat": 47.6988, "lon": 3.5849}, {"nom": "Coulanges-sur-Yonne", "cp": "89480", "dept": "89", "lat": 47.5418, "lon": 3.5236}, {"nom": "Coulours", "cp": "89320", "dept": "89", "lat": 48.1619, "lon": 3.5956}, {"nom": "Courgenay", "cp": "89190", "dept": "89", "lat": 48.2877, "lon": 3.5517}, {"nom": "Courgis", "cp": "89800", "dept": "89", "lat": 47.7781, "lon": 3.7443}, {"nom": "Courlon-sur-Yonne", "cp": "89140", "dept": "89", "lat": 48.3436, "lon": 3.1787}, {"nom": "Courson-les-Carrières", "cp": "89560", "dept": "89", "lat": 47.5992, "lon": 3.5002}, {"nom": "Courtoin", "cp": "89150", "dept": "89", "lat": 48.1225, "lon": 3.1124}, {"nom": "Courtois-sur-Yonne", "cp": "89100", "dept": "89", "lat": 48.2301, "lon": 3.2491}, {"nom": "Coutarnoux", "cp": "89440", "dept": "89", "lat": 47.6011, "lon": 3.9445}, {"nom": "Crain", "cp": "89480", "dept": "89", "lat": 47.5403, "lon": 3.5734}, {"nom": "Deux Rivières", "cp": "89460", "dept": "89", "lat": 47.6742, "lon": 3.721}, {"nom": "Cruzy-le-Châtel", "cp": "89740", "dept": "89", "lat": 47.8725, "lon": 4.2254}, {"nom": "Cry", "cp": "89390", "dept": "89", "lat": 47.7046, "lon": 4.2261}, {"nom": "Cudot", "cp": "89116", "dept": "89", "lat": 47.9807, "lon": 3.1759}, {"nom": "Cussy-les-Forges", "cp": "89420", "dept": "89", "lat": 47.4635, "lon": 4.0264}, {"nom": "Cuy", "cp": "89140", "dept": "89", "lat": 48.2562, "lon": 3.2666}, {"nom": "Dannemoine", "cp": "89700", "dept": "89", "lat": 47.8978, "lon": 3.9818}, {"nom": "Diges", "cp": "89240", "dept": "89", "lat": 47.7193, "lon": 3.3886}, {"nom": "Dissangis", "cp": "89440", "dept": "89", "lat": 47.5945, "lon": 3.9788}, {"nom": "Dixmont", "cp": "89500", "dept": "89", "lat": 48.0773, "lon": 3.4215}, {"nom": "Dollot", "cp": "89150", "dept": "89", "lat": 48.2101, "lon": 3.0645}, {"nom": "Domats", "cp": "89150", "dept": "89", "lat": 48.1166, "lon": 3.0611}, {"nom": "Domecy-sur-Cure", "cp": "89450", "dept": "89", "lat": 47.4085, "lon": 3.8133}, {"nom": "Domecy-sur-le-Vault", "cp": "89200", "dept": "89", "lat": 47.4901, "lon": 3.8097}, {"nom": "Dracy", "cp": "89130", "dept": "89", "lat": 47.7476, "lon": 3.2331}, {"nom": "Druyes-les-Belles-Fontaines", "cp": "89560", "dept": "89", "lat": 47.5538, "lon": 3.4147}, {"nom": "Dyé", "cp": "89360", "dept": "89", "lat": 47.8888, "lon": 3.8675}, {"nom": "Égleny", "cp": "89240", "dept": "89", "lat": 47.8099, "lon": 3.3761}, {"nom": "Égriselles-le-Bocage", "cp": "89500", "dept": "89", "lat": 48.1108, "lon": 3.1818}, {"nom": "Épineau-les-Voves", "cp": "89400", "dept": "89", "lat": 47.9443, "lon": 3.4718}, {"nom": "Épineuil", "cp": "89700", "dept": "89", "lat": 47.8809, "lon": 3.9907}, {"nom": "Escamps", "cp": "89240", "dept": "89", "lat": 47.7219, "lon": 3.4736}, {"nom": "Escolives-Sainte-Camille", "cp": "89290", "dept": "89", "lat": 47.7212, "lon": 3.6001}, {"nom": "Esnon", "cp": "89210", "dept": "89", "lat": 48.0104, "lon": 3.5676}, {"nom": "Étais-la-Sauvin", "cp": "89480", "dept": "89", "lat": 47.5094, "lon": 3.3494}, {"nom": "Étaule", "cp": "89200", "dept": "89", "lat": 47.53, "lon": 3.9136}, {"nom": "Étigny", "cp": "89510", "dept": "89", "lat": 48.1379, "lon": 3.2777}, {"nom": "Étivey", "cp": "89310", "dept": "89", "lat": 47.6685, "lon": 4.1413}, {"nom": "Évry", "cp": "89140", "dept": "89", "lat": 48.2681, "lon": 3.2611}, {"nom": "La Ferté-Loupière", "cp": "89110", "dept": "89", "lat": 47.8874, "lon": 3.2414}, {"nom": "Festigny", "cp": "89480", "dept": "89", "lat": 47.5614, "lon": 3.5333}, {"nom": "Flacy", "cp": "89190", "dept": "89", "lat": 48.2102, "lon": 3.59}, {"nom": "Fleury-la-Vallée", "cp": "89113", "dept": "89", "lat": 47.8642, "lon": 3.4463}, {"nom": "Fleys", "cp": "89800", "dept": "89", "lat": 47.8172, "lon": 3.8629}, {"nom": "Flogny-la-Chapelle", "cp": "89360", "dept": "89", "lat": 47.9621, "lon": 3.8786}, {"nom": "Foissy-lès-Vézelay", "cp": "89450", "dept": "89", "lat": 47.4379, "lon": 3.763}, {"nom": "Foissy-sur-Vanne", "cp": "89190", "dept": "89", "lat": 48.2234, "lon": 3.5055}, {"nom": "Fontaine-la-Gaillarde", "cp": "89100", "dept": "89", "lat": 48.2241, "lon": 3.401}, {"nom": "Fontaines", "cp": "89130", "dept": "89", "lat": 47.6909, "lon": 3.2665}, {"nom": "Fontenay-près-Chablis", "cp": "89800", "dept": "89", "lat": 47.8435, "lon": 3.8129}, {"nom": "Fontenay-près-Vézelay", "cp": "89450", "dept": "89", "lat": 47.4171, "lon": 3.7331}, {"nom": "Fontenay-sous-Fouronnes", "cp": "89660", "dept": "89", "lat": 47.6234, "lon": 3.6015}, {"nom": "Fontenoy", "cp": "89520", "dept": "89", "lat": 47.6498, "lon": 3.2941}, {"nom": "Fouchères", "cp": "89150", "dept": "89", "lat": 48.1786, "lon": 3.1464}, {"nom": "Fournaudin", "cp": "89320", "dept": "89", "lat": 48.148, "lon": 3.646}, {"nom": "Fouronnes", "cp": "89560", "dept": "89", "lat": 47.6078, "lon": 3.5542}, {"nom": "Fresnes", "cp": "89310", "dept": "89", "lat": 47.763, "lon": 3.9931}, {"nom": "Fulvy", "cp": "89160", "dept": "89", "lat": 47.7415, "lon": 4.1633}, {"nom": "Germigny", "cp": "89600", "dept": "89", "lat": 47.9958, "lon": 3.7937}, {"nom": "Gigny", "cp": "89160", "dept": "89", "lat": 47.8297, "lon": 4.303}, {"nom": "Girolles", "cp": "89200", "dept": "89", "lat": 47.547, "lon": 3.8385}, {"nom": "Gisy-les-Nobles", "cp": "89140", "dept": "89", "lat": 48.2863, "lon": 3.2543}, {"nom": "Givry", "cp": "89200", "dept": "89", "lat": 47.512, "lon": 3.7957}, {"nom": "Gland", "cp": "89740", "dept": "89", "lat": 47.817, "lon": 4.2211}, {"nom": "Grimault", "cp": "89310", "dept": "89", "lat": 47.6612, "lon": 3.9694}, {"nom": "Gron", "cp": "89100", "dept": "89", "lat": 48.1558, "lon": 3.2542}, {"nom": "Valravillon", "cp": "89110", "dept": "89", "lat": 47.9025, "lon": 3.4344}, {"nom": "Guillon-Terre-Plaine", "cp": "89420", "dept": "89", "lat": 47.5243, "lon": 4.0701}, {"nom": "Gurgy", "cp": "89250", "dept": "89", "lat": 47.8805, "lon": 3.5675}, {"nom": "Gy-l'Évêque", "cp": "89580", "dept": "89", "lat": 47.7108, "lon": 3.5289}, {"nom": "Hauterive", "cp": "89250", "dept": "89", "lat": 47.9338, "lon": 3.6086}, {"nom": "Héry", "cp": "89550", "dept": "89", "lat": 47.8984, "lon": 3.6357}, {"nom": "Irancy", "cp": "89290", "dept": "89", "lat": 47.7117, "lon": 3.7016}, {"nom": "Island", "cp": "89200", "dept": "89", "lat": 47.4567, "lon": 3.8534}, {"nom": "L'Isle-sur-Serein", "cp": "89440", "dept": "89", "lat": 47.5868, "lon": 4.0215}, {"nom": "Jaulges", "cp": "89360", "dept": "89", "lat": 47.9594, "lon": 3.7898}, {"nom": "Joigny", "cp": "89300", "dept": "89", "lat": 48.0093, "lon": 3.4092}, {"nom": "Jouancy", "cp": "89310", "dept": "89", "lat": 47.6719, "lon": 4.039}, {"nom": "Joux-la-Ville", "cp": "89440", "dept": "89", "lat": 47.6171, "lon": 3.8576}, {"nom": "Jouy", "cp": "89150", "dept": "89", "lat": 48.1671, "lon": 2.9701}, {"nom": "Jully", "cp": "89160", "dept": "89", "lat": 47.7731, "lon": 4.2983}, {"nom": "Junay", "cp": "89700", "dept": "89", "lat": 47.8802, "lon": 3.9395}, {"nom": "Jussy", "cp": "89290", "dept": "89", "lat": 47.7136, "lon": 3.5715}, {"nom": "Lailly", "cp": "89190", "dept": "89", "lat": 48.2637, "lon": 3.5034}, {"nom": "Lain", "cp": "89560", "dept": "89", "lat": 47.6128, "lon": 3.3432}, {"nom": "Lainsecq", "cp": "89520", "dept": "89", "lat": 47.5462, "lon": 3.28}, {"nom": "Lalande", "cp": "89130", "dept": "89", "lat": 47.6807, "lon": 3.3088}, {"nom": "Laroche-Saint-Cydroine", "cp": "89400", "dept": "89", "lat": 47.9743, "lon": 3.4682}, {"nom": "Lasson", "cp": "89570", "dept": "89", "lat": 48.0641, "lon": 3.8097}, {"nom": "Lavau", "cp": "89170", "dept": "89", "lat": 47.6011, "lon": 3.0021}, {"nom": "Leugny", "cp": "89130", "dept": "89", "lat": 47.6854, "lon": 3.3762}, {"nom": "Levis", "cp": "89520", "dept": "89", "lat": 47.6577, "lon": 3.3307}, {"nom": "Lézinnes", "cp": "89160", "dept": "89", "lat": 47.8026, "lon": 4.0638}, {"nom": "Lichères-près-Aigremont", "cp": "89800", "dept": "89", "lat": 47.7185, "lon": 3.8389}, {"nom": "Lichères-sur-Yonne", "cp": "89660", "dept": "89", "lat": 47.4901, "lon": 3.5955}, {"nom": "Lignorelles", "cp": "89800", "dept": "89", "lat": 47.862, "lon": 3.7295}, {"nom": "Ligny-le-Châtel", "cp": "89144", "dept": "89", "lat": 47.9223, "lon": 3.7594}, {"nom": "Lindry", "cp": "89240", "dept": "89", "lat": 47.7998, "lon": 3.425}, {"nom": "Lixy", "cp": "89140", "dept": "89", "lat": 48.248, "lon": 3.1104}, {"nom": "Looze", "cp": "89300", "dept": "89", "lat": 48.0025, "lon": 3.4415}, {"nom": "Lucy-le-Bois", "cp": "89200", "dept": "89", "lat": 47.5653, "lon": 3.8883}, {"nom": "Lucy-sur-Cure", "cp": "89270", "dept": "89", "lat": 47.6365, "lon": 3.772}, {"nom": "Lucy-sur-Yonne", "cp": "89480", "dept": "89", "lat": 47.5143, "lon": 3.5668}, {"nom": "Magny", "cp": "89200", "dept": "89", "lat": 47.4685, "lon": 3.9757}, {"nom": "Maillot", "cp": "89100", "dept": "89", "lat": 48.1629, "lon": 3.314}, {"nom": "Mailly-la-Ville", "cp": "89270", "dept": "89", "lat": 47.5839, "lon": 3.6881}, {"nom": "Mailly-le-Château", "cp": "89660", "dept": "89", "lat": 47.5788, "lon": 3.5972}, {"nom": "Malay-le-Grand", "cp": "89100", "dept": "89", "lat": 48.1657, "lon": 3.3511}, {"nom": "Malay-le-Petit", "cp": "89100", "dept": "89", "lat": 48.1871, "lon": 3.3781}, {"nom": "Maligny", "cp": "89800", "dept": "89", "lat": 47.8673, "lon": 3.8004}, {"nom": "Marmeaux", "cp": "89420", "dept": "89", "lat": 47.5881, "lon": 4.1075}, {"nom": "Marsangy", "cp": "89500", "dept": "89", "lat": 48.116, "lon": 3.2471}, {"nom": "Massangis", "cp": "89440", "dept": "89", "lat": 47.6232, "lon": 3.9775}, {"nom": "Mélisey", "cp": "89430", "dept": "89", "lat": 47.9217, "lon": 4.0751}, {"nom": "Menades", "cp": "89450", "dept": "89", "lat": 47.4409, "lon": 3.8281}, {"nom": "Mercy", "cp": "89210", "dept": "89", "lat": 48.0307, "lon": 3.6265}, {"nom": "Méré", "cp": "89144", "dept": "89", "lat": 47.9001, "lon": 3.8182}, {"nom": "Merry-la-Vallée", "cp": "89110", "dept": "89", "lat": 47.7879, "lon": 3.3119}, {"nom": "Merry-Sec", "cp": "89560", "dept": "89", "lat": 47.6635, "lon": 3.4834}, {"nom": "Merry-sur-Yonne", "cp": "89660", "dept": "89", "lat": 47.5583, "lon": 3.642}, {"nom": "Mézilles", "cp": "89130", "dept": "89", "lat": 47.696, "lon": 3.1736}, {"nom": "Michery", "cp": "89140", "dept": "89", "lat": 48.3143, "lon": 3.2441}, {"nom": "Migé", "cp": "89580", "dept": "89", "lat": 47.6772, "lon": 3.5325}, {"nom": "Migennes", "cp": "89400", "dept": "89", "lat": 47.9715, "lon": 3.5337}, {"nom": "Môlay", "cp": "89310", "dept": "89", "lat": 47.7361, "lon": 3.9363}, {"nom": "Molinons", "cp": "89190", "dept": "89", "lat": 48.2229, "lon": 3.5431}, {"nom": "Molosmes", "cp": "89700", "dept": "89", "lat": 47.9021, "lon": 4.0279}, {"nom": "Monéteau", "cp": "89470", "dept": "89", "lat": 47.8483, "lon": 3.5916}, {"nom": "Montacher-Villegardin", "cp": "89150", "dept": "89", "lat": 48.165, "lon": 3.0334}, {"nom": "Montigny-la-Resle", "cp": "89230", "dept": "89", "lat": 47.8614, "lon": 3.6801}, {"nom": "Montillot", "cp": "89660", "dept": "89", "lat": 47.5093, "lon": 3.7198}, {"nom": "Montréal", "cp": "89420", "dept": "89", "lat": 47.5467, "lon": 4.0517}, {"nom": "Mont-Saint-Sulpice", "cp": "89250", "dept": "89", "lat": 47.9522, "lon": 3.6322}, {"nom": "Mouffy", "cp": "89560", "dept": "89", "lat": 47.6483, "lon": 3.5134}, {"nom": "Moulins-en-Tonnerrois", "cp": "89310", "dept": "89", "lat": 47.7314, "lon": 4.043}, {"nom": "Moulins-sur-Ouanne", "cp": "89130", "dept": "89", "lat": 47.703, "lon": 3.3459}, {"nom": "Moutiers-en-Puisaye", "cp": "89520", "dept": "89", "lat": 47.6113, "lon": 3.1726}, {"nom": "Nailly", "cp": "89100", "dept": "89", "lat": 48.2182, "lon": 3.2101}, {"nom": "Neuvy-Sautour", "cp": "89570", "dept": "89", "lat": 48.0443, "lon": 3.7906}, {"nom": "Nitry", "cp": "89310", "dept": "89", "lat": 47.6763, "lon": 3.8724}, {"nom": "Noé", "cp": "89320", "dept": "89", "lat": 48.1512, "lon": 3.3943}, {"nom": "Noyers", "cp": "89310", "dept": "89", "lat": 47.703, "lon": 3.9714}, {"nom": "Nuits", "cp": "89390", "dept": "89", "lat": 47.7224, "lon": 4.1888}, {"nom": "Les Ormes", "cp": "89110", "dept": "89", "lat": 47.8459, "lon": 3.2598}, {"nom": "Ormoy", "cp": "89400", "dept": "89", "lat": 47.9519, "lon": 3.5751}, {"nom": "Ouanne", "cp": "89560", "dept": "89", "lat": 47.6592, "lon": 3.4163}, {"nom": "Pacy-sur-Armançon", "cp": "89160", "dept": "89", "lat": 47.7699, "lon": 4.0815}, {"nom": "Pailly", "cp": "89140", "dept": "89", "lat": 48.3461, "lon": 3.3379}, {"nom": "Parly", "cp": "89240", "dept": "89", "lat": 47.7579, "lon": 3.3408}, {"nom": "Paron", "cp": "89100", "dept": "89", "lat": 48.1857, "lon": 3.2355}, {"nom": "Paroy-en-Othe", "cp": "89210", "dept": "89", "lat": 48.0298, "lon": 3.5718}, {"nom": "Paroy-sur-Tholon", "cp": "89300", "dept": "89", "lat": 47.9537, "lon": 3.3734}, {"nom": "Pasilly", "cp": "89310", "dept": "89", "lat": 47.7018, "lon": 4.0836}, {"nom": "Passy", "cp": "89510", "dept": "89", "lat": 48.1142, "lon": 3.3043}, {"nom": "Percey", "cp": "89360", "dept": "89", "lat": 47.9691, "lon": 3.8355}, {"nom": "Perrigny", "cp": "89000", "dept": "89", "lat": 47.8265, "lon": 3.5297}, {"nom": "Perrigny-sur-Armançon", "cp": "89390", "dept": "89", "lat": 47.689, "lon": 4.2224}, {"nom": "Pierre-Perthuis", "cp": "89450", "dept": "89", "lat": 47.4324, "lon": 3.7897}, {"nom": "Piffonds", "cp": "89330", "dept": "89", "lat": 48.0563, "lon": 3.1444}, {"nom": "Pimelles", "cp": "89740", "dept": "89", "lat": 47.842, "lon": 4.1724}, {"nom": "Pisy", "cp": "89420", "dept": "89", "lat": 47.5756, "lon": 4.1421}, {"nom": "Plessis-Saint-Jean", "cp": "89140", "dept": "89", "lat": 48.3422, "lon": 3.303}, {"nom": "Poilly-sur-Serein", "cp": "89310", "dept": "89", "lat": 47.7636, "lon": 3.8898}, {"nom": "Poilly-sur-Tholon", "cp": "89110", "dept": "89", "lat": 47.8516, "lon": 3.4018}, {"nom": "Pontaubert", "cp": "89200", "dept": "89", "lat": 47.4919, "lon": 3.87}, {"nom": "Pontigny", "cp": "89230", "dept": "89", "lat": 47.9038, "lon": 3.7114}, {"nom": "Pont-sur-Vanne", "cp": "89190", "dept": "89", "lat": 48.1974, "lon": 3.4403}, {"nom": "Pont-sur-Yonne", "cp": "89140", "dept": "89", "lat": 48.2807, "lon": 3.1885}, {"nom": "La Postolle", "cp": "89260", "dept": "89", "lat": 48.288, "lon": 3.4534}, {"nom": "Pourrain", "cp": "89240", "dept": "89", "lat": 47.7689, "lon": 3.4162}, {"nom": "Précy-le-Sec", "cp": "89440", "dept": "89", "lat": 47.5905, "lon": 3.8263}, {"nom": "Précy-sur-Vrin", "cp": "89116", "dept": "89", "lat": 47.9746, "lon": 3.229}, {"nom": "Prégilbert", "cp": "89460", "dept": "89", "lat": 47.638, "lon": 3.6843}, {"nom": "Préhy", "cp": "89800", "dept": "89", "lat": 47.7531, "lon": 3.7857}, {"nom": "Provency", "cp": "89200", "dept": "89", "lat": 47.5408, "lon": 3.9546}, {"nom": "Quarré-les-Tombes", "cp": "89630", "dept": "89", "lat": 47.3598, "lon": 4.0186}, {"nom": "Quenne", "cp": "89290", "dept": "89", "lat": 47.7781, "lon": 3.6564}, {"nom": "Quincerot", "cp": "89740", "dept": "89", "lat": 47.9415, "lon": 4.1639}, {"nom": "Ravières", "cp": "89390", "dept": "89", "lat": 47.7384, "lon": 4.2592}, {"nom": "Roffey", "cp": "89700", "dept": "89", "lat": 47.91, "lon": 3.9122}, {"nom": "Rogny-les-Sept-Écluses", "cp": "89220", "dept": "89", "lat": 47.7342, "lon": 2.8928}, {"nom": "Ronchères", "cp": "89170", "dept": "89", "lat": 47.6592, "lon": 3.122}, {"nom": "Rosoy", "cp": "89100", "dept": "89", "lat": 48.1485, "lon": 3.314}, {"nom": "Rousson", "cp": "89500", "dept": "89", "lat": 48.0905, "lon": 3.2627}, {"nom": "Rouvray", "cp": "89230", "dept": "89", "lat": 47.8974, "lon": 3.6685}, {"nom": "Rugny", "cp": "89430", "dept": "89", "lat": 47.8976, "lon": 4.1459}, {"nom": "Sainpuits", "cp": "89520", "dept": "89", "lat": 47.5123, "lon": 3.2507}, {"nom": "Saint-Agnan", "cp": "89340", "dept": "89", "lat": 48.3024, "lon": 3.0557}, {"nom": "Saint-André-en-Terre-Plaine", "cp": "89420", "dept": "89", "lat": 47.4836, "lon": 4.0582}, {"nom": "Le Val d'Ocre", "cp": "89110", "dept": "89", "lat": 47.8243, "lon": 3.296}, {"nom": "Saint-Aubin-sur-Yonne", "cp": "89300", "dept": "89", "lat": 47.9964, "lon": 3.3626}, {"nom": "Saint-Brancher", "cp": "89630", "dept": "89", "lat": 47.4327, "lon": 3.9907}, {"nom": "Saint-Bris-le-Vineux", "cp": "89530", "dept": "89", "lat": 47.7428, "lon": 3.6606}, {"nom": "Saint-Clément", "cp": "89100", "dept": "89", "lat": 48.2234, "lon": 3.3183}, {"nom": "Sainte-Colombe", "cp": "89440", "dept": "89", "lat": 47.5748, "lon": 3.9521}, {"nom": "Saint-Cyr-les-Colons", "cp": "89800", "dept": "89", "lat": 47.7294, "lon": 3.7674}, {"nom": "Saint-Denis-lès-Sens", "cp": "89100", "dept": "89", "lat": 48.2321, "lon": 3.2643}, {"nom": "Saint-Fargeau", "cp": "89170", "dept": "89", "lat": 47.6481, "lon": 3.0814}, {"nom": "Saint-Florentin", "cp": "89600", "dept": "89", "lat": 47.9942, "lon": 3.7125}, {"nom": "Saint-Georges-sur-Baulche", "cp": "89000", "dept": "89", "lat": 47.8028, "lon": 3.5163}, {"nom": "Saint-Germain-des-Champs", "cp": "89630", "dept": "89", "lat": 47.4191, "lon": 3.9247}, {"nom": "Saint-Julien-du-Sault", "cp": "89330", "dept": "89", "lat": 48.0289, "lon": 3.2761}, {"nom": "Saint-Léger-Vauban", "cp": "89630", "dept": "89", "lat": 47.3726, "lon": 4.0605}, {"nom": "Saint-Loup-d'Ordon", "cp": "89330", "dept": "89", "lat": 48.0104, "lon": 3.1416}, {"nom": "Sainte-Magnance", "cp": "89420", "dept": "89", "lat": 47.4542, "lon": 4.079}, {"nom": "Saint-Martin-des-Champs", "cp": "89170", "dept": "89", "lat": 47.6571, "lon": 3.0283}, {"nom": "Saint-Martin-d'Ordon", "cp": "89330", "dept": "89", "lat": 48.0252, "lon": 3.1644}, {"nom": "Saint-Martin-du-Tertre", "cp": "89100", "dept": "89", "lat": 48.2054, "lon": 3.2353}, {"nom": "Saint-Martin-sur-Armançon", "cp": "89700", "dept": "89", "lat": 47.8764, "lon": 4.0667}, {"nom": "Saint-Maurice-aux-Riches-Hommes", "cp": "89190", "dept": "89", "lat": 48.3301, "lon": 3.5008}, {"nom": "Saint-Maurice-le-Vieil", "cp": "89110", "dept": "89", "lat": 47.8215, "lon": 3.3718}, {"nom": "Saint-Maurice-Thizouaille", "cp": "89110", "dept": "89", "lat": 47.8331, "lon": 3.3626}, {"nom": "Saint-Moré", "cp": "89270", "dept": "89", "lat": 47.5746, "lon": 3.7748}, {"nom": "Sainte-Pallaye", "cp": "89460", "dept": "89", "lat": 47.6542, "lon": 3.6807}, {"nom": "Saint-Père", "cp": "89450", "dept": "89", "lat": 47.465, "lon": 3.7738}, {"nom": "Saint-Privé", "cp": "89220", "dept": "89", "lat": 47.6865, "lon": 3.0046}, {"nom": "Saints-en-Puisaye", "cp": "89520", "dept": "89", "lat": 47.6241, "lon": 3.2732}, {"nom": "Saint-Sauveur-en-Puisaye", "cp": "89520", "dept": "89", "lat": 47.6358, "lon": 3.196}, {"nom": "Saint-Sérotin", "cp": "89140", "dept": "89", "lat": 48.2486, "lon": 3.162}, {"nom": "Saint-Valérien", "cp": "89150", "dept": "89", "lat": 48.1809, "lon": 3.0987}, {"nom": "Sainte-Vertu", "cp": "89310", "dept": "89", "lat": 47.734, "lon": 3.9058}, {"nom": "Saligny", "cp": "89100", "dept": "89", "lat": 48.2169, "lon": 3.351}, {"nom": "Sambourg", "cp": "89160", "dept": "89", "lat": 47.7731, "lon": 4.0111}, {"nom": "Santigny", "cp": "89420", "dept": "89", "lat": 47.5833, "lon": 4.1183}, {"nom": "Sarry", "cp": "89310", "dept": "89", "lat": 47.6646, "lon": 4.075}, {"nom": "Sauvigny-le-Beuréal", "cp": "89420", "dept": "89", "lat": 47.4787, "lon": 4.1086}, {"nom": "Sauvigny-le-Bois", "cp": "89200", "dept": "89", "lat": 47.5125, "lon": 3.9618}, {"nom": "Savigny-en-Terre-Plaine", "cp": "89420", "dept": "89", "lat": 47.4903, "lon": 4.0857}, {"nom": "Savigny-sur-Clairis", "cp": "89150", "dept": "89", "lat": 48.0774, "lon": 3.0843}, {"nom": "Seignelay", "cp": "89250", "dept": "89", "lat": 47.8998, "lon": 3.5944}, {"nom": "Sementron", "cp": "89560", "dept": "89", "lat": 47.6232, "lon": 3.3598}, {"nom": "Senan", "cp": "89710", "dept": "89", "lat": 47.9189, "lon": 3.3444}, {"nom": "Sennevoy-le-Bas", "cp": "89160", "dept": "89", "lat": 47.8012, "lon": 4.3095}, {"nom": "Sennevoy-le-Haut", "cp": "89160", "dept": "89", "lat": 47.814, "lon": 4.2639}, {"nom": "Sens", "cp": "89100", "dept": "89", "lat": 48.1949, "lon": 3.3039}, {"nom": "Sépeaux-Saint Romain", "cp": "89116", "dept": "89", "lat": 47.9346, "lon": 3.2402}, {"nom": "Serbonnes", "cp": "89140", "dept": "89", "lat": 48.3304, "lon": 3.2058}, {"nom": "Sergines", "cp": "89140", "dept": "89", "lat": 48.3459, "lon": 3.2497}, {"nom": "Sermizelles", "cp": "89200", "dept": "89", "lat": 47.5405, "lon": 3.7972}, {"nom": "Serrigny", "cp": "89700", "dept": "89", "lat": 47.8317, "lon": 3.914}, {"nom": "Sery", "cp": "89270", "dept": "89", "lat": 47.6192, "lon": 3.6891}, {"nom": "Les Sièges", "cp": "89190", "dept": "89", "lat": 48.1729, "lon": 3.5356}, {"nom": "Sommecaise", "cp": "89110", "dept": "89", "lat": 47.838, "lon": 3.2205}, {"nom": "Sormery", "cp": "89570", "dept": "89", "lat": 48.1057, "lon": 3.7579}, {"nom": "Soucy", "cp": "89100", "dept": "89", "lat": 48.2539, "lon": 3.3253}, {"nom": "Sougères-en-Puisaye", "cp": "89520", "dept": "89", "lat": 47.567, "lon": 3.3481}, {"nom": "Soumaintrain", "cp": "89570", "dept": "89", "lat": 48.0202, "lon": 3.8419}, {"nom": "Stigny", "cp": "89160", "dept": "89", "lat": 47.7804, "lon": 4.2383}, {"nom": "Subligny", "cp": "89100", "dept": "89", "lat": 48.1679, "lon": 3.1957}, {"nom": "Les Hauts de Forterre", "cp": "89560", "dept": "89", "lat": 47.6146, "lon": 3.4304}, {"nom": "Talcy", "cp": "89420", "dept": "89", "lat": 47.5783, "lon": 4.0757}, {"nom": "Tanlay", "cp": "89430", "dept": "89", "lat": 47.8482, "lon": 4.0831}, {"nom": "Tannerre-en-Puisaye", "cp": "89350", "dept": "89", "lat": 47.7394, "lon": 3.1468}, {"nom": "Tharoiseau", "cp": "89450", "dept": "89", "lat": 47.4645, "lon": 3.8171}, {"nom": "Tharot", "cp": "89200", "dept": "89", "lat": 47.5347, "lon": 3.8638}, {"nom": "Les Vallées de la Vanne", "cp": "89190", "dept": "89", "lat": 48.1767, "lon": 3.4641}, {"nom": "Thizy", "cp": "89420", "dept": "89", "lat": 47.5827, "lon": 4.0584}, {"nom": "Thorey", "cp": "89430", "dept": "89", "lat": 47.8983, "lon": 4.114}, {"nom": "Thorigny-sur-Oreuse", "cp": "89260", "dept": "89", "lat": 48.2986, "lon": 3.3831}, {"nom": "Thory", "cp": "89200", "dept": "89", "lat": 47.5701, "lon": 3.9168}, {"nom": "Thury", "cp": "89520", "dept": "89", "lat": 47.5895, "lon": 3.3029}, {"nom": "Tissey", "cp": "89700", "dept": "89", "lat": 47.8595, "lon": 3.897}, {"nom": "Tonnerre", "cp": "89700", "dept": "89", "lat": 47.8403, "lon": 3.9771}, {"nom": "Toucy", "cp": "89130", "dept": "89", "lat": 47.7328, "lon": 3.2882}, {"nom": "Treigny-Perreuse-Sainte-Colombe", "cp": "89520", "dept": "89", "lat": 47.5591, "lon": 3.1888}, {"nom": "Trichey", "cp": "89430", "dept": "89", "lat": 47.925, "lon": 4.1422}, {"nom": "Tronchoy", "cp": "89700", "dept": "89", "lat": 47.9234, "lon": 3.9497}, {"nom": "Trucy-sur-Yonne", "cp": "89460", "dept": "89", "lat": 47.6296, "lon": 3.6472}, {"nom": "Turny", "cp": "89570", "dept": "89", "lat": 48.0651, "lon": 3.7237}, {"nom": "Val-de-Mercy", "cp": "89580", "dept": "89", "lat": 47.6696, "lon": 3.5913}, {"nom": "Vallan", "cp": "89580", "dept": "89", "lat": 47.7466, "lon": 3.5411}, {"nom": "Vallery", "cp": "89150", "dept": "89", "lat": 48.2334, "lon": 3.0476}, {"nom": "Varennes", "cp": "89144", "dept": "89", "lat": 47.9139, "lon": 3.7848}, {"nom": "Vassy-sous-Pisy", "cp": "89420", "dept": "89", "lat": 47.5727, "lon": 4.1711}, {"nom": "Vaudeurs", "cp": "89320", "dept": "89", "lat": 48.1251, "lon": 3.549}, {"nom": "Vault-de-Lugny", "cp": "89200", "dept": "89", "lat": 47.5004, "lon": 3.8441}, {"nom": "Vaumort", "cp": "89320", "dept": "89", "lat": 48.1369, "lon": 3.4412}, {"nom": "Venizy", "cp": "89210", "dept": "89", "lat": 48.0697, "lon": 3.6752}, {"nom": "Venouse", "cp": "89230", "dept": "89", "lat": 47.9001, "lon": 3.6916}, {"nom": "Venoy", "cp": "89290", "dept": "89", "lat": 47.8078, "lon": 3.6568}, {"nom": "Vergigny", "cp": "89600", "dept": "89", "lat": 47.9519, "lon": 3.6957}, {"nom": "Verlin", "cp": "89330", "dept": "89", "lat": 48.0184, "lon": 3.227}, {"nom": "Vermenton", "cp": "89270", "dept": "89", "lat": 47.6696, "lon": 3.7903}, {"nom": "Vernoy", "cp": "89150", "dept": "89", "lat": 48.0946, "lon": 3.1265}, {"nom": "Véron", "cp": "89510", "dept": "89", "lat": 48.1275, "lon": 3.333}, {"nom": "Vézannes", "cp": "89700", "dept": "89", "lat": 47.8714, "lon": 3.885}, {"nom": "Vézelay", "cp": "89450", "dept": "89", "lat": 47.4505, "lon": 3.7145}, {"nom": "Vézinnes", "cp": "89700", "dept": "89", "lat": 47.894, "lon": 3.9342}, {"nom": "Villeblevin", "cp": "89340", "dept": "89", "lat": 48.3313, "lon": 3.0826}, {"nom": "Villebougis", "cp": "89150", "dept": "89", "lat": 48.2073, "lon": 3.1556}, {"nom": "Villechétive", "cp": "89320", "dept": "89", "lat": 48.0953, "lon": 3.5263}, {"nom": "Villecien", "cp": "89300", "dept": "89", "lat": 48.015, "lon": 3.3394}, {"nom": "Villefargeau", "cp": "89240", "dept": "89", "lat": 47.7915, "lon": 3.4936}, {"nom": "Villemanoche", "cp": "89140", "dept": "89", "lat": 48.2975, "lon": 3.1655}, {"nom": "Villenavotte", "cp": "89140", "dept": "89", "lat": 48.2428, "lon": 3.2305}, {"nom": "Villeneuve-la-Dondagre", "cp": "89150", "dept": "89", "lat": 48.1393, "lon": 3.1437}, {"nom": "Villeneuve-la-Guyard", "cp": "89340", "dept": "89", "lat": 48.331, "lon": 3.0578}, {"nom": "Villeneuve-l'Archevêque", "cp": "89190", "dept": "89", "lat": 48.2334, "lon": 3.5646}, {"nom": "Villeneuve-les-Genêts", "cp": "89350", "dept": "89", "lat": 47.7393, "lon": 3.0707}, {"nom": "Villeneuve-Saint-Salves", "cp": "89230", "dept": "89", "lat": 47.8503, "lon": 3.6421}, {"nom": "Villeneuve-sur-Yonne", "cp": "89500", "dept": "89", "lat": 48.0829, "lon": 3.3137}, {"nom": "Villeperrot", "cp": "89140", "dept": "89", "lat": 48.2604, "lon": 3.2108}, {"nom": "Villeroy", "cp": "89100", "dept": "89", "lat": 48.1815, "lon": 3.1806}, {"nom": "Villethierry", "cp": "89140", "dept": "89", "lat": 48.2654, "lon": 3.0736}, {"nom": "Villevallier", "cp": "89330", "dept": "89", "lat": 48.0267, "lon": 3.3457}, {"nom": "Perceneige", "cp": "89260", "dept": "89", "lat": 48.3471, "lon": 3.4051}, {"nom": "Villiers-les-Hauts", "cp": "89160", "dept": "89", "lat": 47.724, "lon": 4.1555}, {"nom": "Villiers-Louis", "cp": "89320", "dept": "89", "lat": 48.1952, "lon": 3.3949}, {"nom": "Villiers-Saint-Benoît", "cp": "89130", "dept": "89", "lat": 47.7815, "lon": 3.2218}, {"nom": "Villiers-Vineux", "cp": "89360", "dept": "89", "lat": 47.9427, "lon": 3.8239}, {"nom": "Villon", "cp": "89740", "dept": "89", "lat": 47.8985, "lon": 4.1881}, {"nom": "Villy", "cp": "89800", "dept": "89", "lat": 47.8638, "lon": 3.7476}, {"nom": "Vincelles", "cp": "89290", "dept": "89", "lat": 47.6896, "lon": 3.6356}, {"nom": "Vincelottes", "cp": "89290", "dept": "89", "lat": 47.7093, "lon": 3.641}, {"nom": "Vinneuf", "cp": "89140", "dept": "89", "lat": 48.353, "lon": 3.144}, {"nom": "Vireaux", "cp": "89160", "dept": "89", "lat": 47.7867, "lon": 4.0392}, {"nom": "Viviers", "cp": "89700", "dept": "89", "lat": 47.8055, "lon": 3.9211}, {"nom": "Voisines", "cp": "89260", "dept": "89", "lat": 48.2536, "lon": 3.4178}, {"nom": "Voutenay-sur-Cure", "cp": "89270", "dept": "89", "lat": 47.5573, "lon": 3.7861}, {"nom": "Yrouerre", "cp": "89700", "dept": "89", "lat": 47.7879, "lon": 3.9581}]