[{"nom": "Les Adrets-de-l'Estérel", "cp": "83600", "dept": "83", "lat": 43.5385, "lon": 6.8177}, {"nom": "Aiguines", "cp": "83630", "dept": "83", "lat": 43.7365, "lon": 6.3197}, {"nom": "Ampus", "cp": "83111", "dept": "83", "lat": 43.6218, "lon": 6.3683}, {"nom": "Les Arcs", "cp": "83460", "dept": "83", "lat": 43.4533, "lon": 6.4862}, {"nom": "Artignosc-sur-Verdon", "cp": "83630", "dept": "83", "lat": 43.6991, "lon": 6.1087}, {"nom": "Artigues", "cp": "83560", "dept": "83", "lat": 43.5802, "lon": 5.8}, {"nom": "Aups", "cp": "83630", "dept": "83", "lat": 43.6283, "lon": 6.2139}, {"nom": "Bagnols-en-Forêt", "cp": "83600", "dept": "83", "lat": 43.5328, "lon": 6.7089}, {"nom": "Bandol", "cp": "83150", "dept": "83", "lat": 43.147, "lon": 5.7488}, {"nom": "Bargème", "cp": "83840", "dept": "83", "lat": 43.7279, "lon": 6.5697}, {"nom": "Bargemon", "cp": "83830", "dept": "83", "lat": 43.6344, "lon": 6.5439}, {"nom": "Barjols", "cp": "83670", "dept": "83", "lat": 43.5484, "lon": 5.973}, {"nom": "La Bastide", "cp": "83840", "dept": "83", "lat": 43.7464, "lon": 6.6327}, {"nom": "Baudinard-sur-Verdon", "cp": "83630", "dept": "83", "lat": 43.714, "lon": 6.1351}, {"nom": "Bauduen", "cp": "83630", "dept": "83", "lat": 43.7203, "lon": 6.2048}, {"nom": "Le Beausset", "cp": "83330", "dept": "83", "lat": 43.205, "lon": 5.8239}, {"nom": "Belgentier", "cp": "83210", "dept": "83", "lat": 43.2416, "lon": 5.9972}, {"nom": "Besse-sur-Issole", "cp": "83890", "dept": "83", "lat": 43.339, "lon": 6.1839}, {"nom": "Bormes-les-Mimosas", "cp": "83230", "dept": "83", "lat": 43.1575, "lon": 6.3615}, {"nom": "Le Bourguet", "cp": "83840", "dept": "83", "lat": 43.7798, "lon": 6.5017}, {"nom": "Bras", "cp": "83149", "dept": "83", "lat": 43.4723, "lon": 5.9558}, {"nom": "Brenon", "cp": "83840", "dept": "83", "lat": 43.7691, "lon": 6.5365}, {"nom": "Brignoles", "cp": "83170", "dept": "83", "lat": 43.3878, "lon": 6.0759}, {"nom": "Brue-Auriac", "cp": "83119", "dept": "83", "lat": 43.5259, "lon": 5.9402}, {"nom": "Cabasse", "cp": "83340", "dept": "83", "lat": 43.4275, "lon": 6.2303}, {"nom": "La Cadière-d'Azur", "cp": "83740", "dept": "83", "lat": 43.2026, "lon": 5.7231}, {"nom": "Callas", "cp": "83830", "dept": "83", "lat": 43.5687, "lon": 6.5735}, {"nom": "Callian", "cp": "83440", "dept": "83", "lat": 43.6069, "lon": 6.7601}, {"nom": "Camps-la-Source", "cp": "83170", "dept": "83", "lat": 43.3719, "lon": 6.1261}, {"nom": "Le Cannet-des-Maures", "cp": "83340", "dept": "83", "lat": 43.3695, "lon": 6.3703}, {"nom": "Carcès", "cp": "83570", "dept": "83", "lat": 43.4738, "lon": 6.1752}, {"nom": "Carnoules", "cp": "83660", "dept": "83", "lat": 43.2921, "lon": 6.1978}, {"nom": "Carqueiranne", "cp": "83320", "dept": "83", "lat": 43.0975, "lon": 6.0714}, {"nom": "Le Castellet", "cp": "83330", "dept": "83", "lat": 43.2148, "lon": 5.7561}, {"nom": "Cavalaire-sur-Mer", "cp": "83240", "dept": "83", "lat": 43.1797, "lon": 6.5215}, {"nom": "La Celle", "cp": "83170", "dept": "83", "lat": 43.3843, "lon": 6.0016}, {"nom": "Châteaudouble", "cp": "83300", "dept": "83", "lat": 43.6259, "lon": 6.442}, {"nom": "Châteauvert", "cp": "83670", "dept": "83", "lat": 43.4992, "lon": 6.0088}, {"nom": "Châteauvieux", "cp": "83840", "dept": "83", "lat": 43.7874, "lon": 6.5959}, {"nom": "Claviers", "cp": "83830", "dept": "83", "lat": 43.5998, "lon": 6.5845}, {"nom": "Cogolin", "cp": "83310", "dept": "83", "lat": 43.2406, "lon": 6.5319}, {"nom": "Collobrières", "cp": "83610", "dept": "83", "lat": 43.2446, "lon": 6.3454}, {"nom": "Comps-sur-Artuby", "cp": "83840", "dept": "83", "lat": 43.7075, "lon": 6.506}, {"nom": "Correns", "cp": "83570", "dept": "83", "lat": 43.4884, "lon": 6.0543}, {"nom": "Cotignac", "cp": "83570", "dept": "83", "lat": 43.5246, "lon": 6.1436}, {"nom": "La Crau", "cp": "83260", "dept": "83", "lat": 43.1706, "lon": 6.0923}, {"nom": "La Croix-Valmer", "cp": "83420", "dept": "83", "lat": 43.1909, "lon": 6.588}, {"nom": "Cuers", "cp": "83390", "dept": "83", "lat": 43.2429, "lon": 6.0654}, {"nom": "Draguignan", "cp": "83300", "dept": "83", "lat": 43.5346, "lon": 6.4651}, {"nom": "Entrecasteaux", "cp": "83570", "dept": "83", "lat": 43.5085, "lon": 6.2324}, {"nom": "Esparron", "cp": "83560", "dept": "83", "lat": 43.5881, "lon": 5.851}, {"nom": "Évenos", "cp": "83330", "dept": "83", "lat": 43.1876, "lon": 5.8702}, {"nom": "La Farlède", "cp": "83210", "dept": "83", "lat": 43.164, "lon": 6.0414}, {"nom": "Fayence", "cp": "83440", "dept": "83", "lat": 43.6118, "lon": 6.6762}, {"nom": "Figanières", "cp": "83830", "dept": "83", "lat": 43.5642, "lon": 6.4915}, {"nom": "Flassans-sur-Issole", "cp": "83340", "dept": "83", "lat": 43.372, "lon": 6.2169}, {"nom": "Flayosc", "cp": "83780", "dept": "83", "lat": 43.5441, "lon": 6.3577}, {"nom": "Forcalqueiret", "cp": "83136", "dept": "83", "lat": 43.3357, "lon": 6.0884}, {"nom": "Fox-Amphoux", "cp": "83670", "dept": "83", "lat": 43.5944, "lon": 6.1165}, {"nom": "Fréjus", "cp": "83370", "dept": "83", "lat": 43.4553, "lon": 6.7848}, {"nom": "La Garde", "cp": "83130", "dept": "83", "lat": 43.129, "lon": 6.0162}, {"nom": "La Garde-Freinet", "cp": "83680", "dept": "83", "lat": 43.3251, "lon": 6.4603}, {"nom": "Garéoult", "cp": "83136", "dept": "83", "lat": 43.3397, "lon": 6.0426}, {"nom": "Gassin", "cp": "83580", "dept": "83", "lat": 43.2385, "lon": 6.5876}, {"nom": "Ginasservis", "cp": "83560", "dept": "83", "lat": 43.6566, "lon": 5.8393}, {"nom": "Gonfaron", "cp": "83590", "dept": "83", "lat": 43.3149, "lon": 6.2978}, {"nom": "Grimaud", "cp": "83310", "dept": "83", "lat": 43.2822, "lon": 6.5097}, {"nom": "Hyères", "cp": "83400", "dept": "83", "lat": 43.1139, "lon": 6.2357}, {"nom": "Le Lavandou", "cp": "83980", "dept": "83", "lat": 43.1669, "lon": 6.4015}, {"nom": "La Londe-les-Maures", "cp": "83250", "dept": "83", "lat": 43.1641, "lon": 6.2417}, {"nom": "Lorgues", "cp": "83510", "dept": "83", "lat": 43.4734, "lon": 6.3588}, {"nom": "Le Luc", "cp": "83340", "dept": "83", "lat": 43.3855, "lon": 6.3107}, {"nom": "La Martre", "cp": "83840", "dept": "83", "lat": 43.7631, "lon": 6.5914}, {"nom": "Les Mayons", "cp": "83340", "dept": "83", "lat": 43.3117, "lon": 6.3621}, {"nom": "Mazaugues", "cp": "83136", "dept": "83", "lat": 43.3435, "lon": 5.8899}, {"nom": "Méounes-lès-Montrieux", "cp": "83136", "dept": "83", "lat": 43.2699, "lon": 5.979}, {"nom": "Moissac-Bellevue", "cp": "83630", "dept": "83", "lat": 43.6487, "lon": 6.1666}, {"nom": "La Môle", "cp": "83310", "dept": "83", "lat": 43.2202, "lon": 6.4835}, {"nom": "Mons", "cp": "83440", "dept": "83", "lat": 43.7041, "lon": 6.7054}, {"nom": "Montauroux", "cp": "83440", "dept": "83", "lat": 43.5936, "lon": 6.7993}, {"nom": "Montferrat", "cp": "83131", "dept": "83", "lat": 43.6336, "lon": 6.4774}, {"nom": "Montfort-sur-Argens", "cp": "83570", "dept": "83", "lat": 43.486, "lon": 6.1252}, {"nom": "Montmeyan", "cp": "83670", "dept": "83", "lat": 43.6574, "lon": 6.0652}, {"nom": "La Motte", "cp": "83920", "dept": "83", "lat": 43.5091, "lon": 6.5506}, {"nom": "Le Muy", "cp": "83490", "dept": "83", "lat": 43.468, "lon": 6.5844}, {"nom": "Nans-les-Pins", "cp": "83860", "dept": "83", "lat": 43.3808, "lon": 5.7874}, {"nom": "Néoules", "cp": "83136", "dept": "83", "lat": 43.2912, "lon": 6.0267}, {"nom": "Ollières", "cp": "83470", "dept": "83", "lat": 43.5074, "lon": 5.8141}, {"nom": "Ollioules", "cp": "83190", "dept": "83", "lat": 43.1385, "lon": 5.8515}, {"nom": "Pierrefeu-du-Var", "cp": "83390", "dept": "83", "lat": 43.2351, "lon": 6.1798}, {"nom": "Pignans", "cp": "83790", "dept": "83", "lat": 43.2997, "lon": 6.2625}, {"nom": "Plan-d'Aups-Sainte-Baume", "cp": "83640", "dept": "83", "lat": 43.3336, "lon": 5.7472}, {"nom": "Le Plan-de-la-Tour", "cp": "83120", "dept": "83", "lat": 43.337, "lon": 6.5462}, {"nom": "Pontevès", "cp": "83670", "dept": "83", "lat": 43.5509, "lon": 6.0687}, {"nom": "Pourcieux", "cp": "83470", "dept": "83", "lat": 43.4626, "lon": 5.7894}, {"nom": "Pourrières", "cp": "83910", "dept": "83", "lat": 43.487, "lon": 5.7432}, {"nom": "Le Pradet", "cp": "83220", "dept": "83", "lat": 43.0984, "lon": 6.0214}, {"nom": "Puget-sur-Argens", "cp": "83480", "dept": "83", "lat": 43.4712, "lon": 6.6861}, {"nom": "Puget-Ville", "cp": "83390", "dept": "83", "lat": 43.2809, "lon": 6.1646}, {"nom": "Ramatuelle", "cp": "83350", "dept": "83", "lat": 43.2115, "lon": 6.6449}, {"nom": "Régusse", "cp": "83630", "dept": "83", "lat": 43.663, "lon": 6.122}, {"nom": "Le Revest-les-Eaux", "cp": "83200", "dept": "83", "lat": 43.1878, "lon": 5.9453}, {"nom": "Rians", "cp": "83560", "dept": "83", "lat": 43.6026, "lon": 5.734}, {"nom": "Riboux", "cp": "13780", "dept": "83", "lat": 43.3063, "lon": 5.753}, {"nom": "Rocbaron", "cp": "83136", "dept": "83", "lat": 43.3062, "lon": 6.0869}, {"nom": "Roquebrune-sur-Argens", "cp": "83380", "dept": "83", "lat": 43.4282, "lon": 6.6525}, {"nom": "La Roquebrussanne", "cp": "83136", "dept": "83", "lat": 43.3384, "lon": 5.9787}, {"nom": "La Roque-Esclapon", "cp": "83840", "dept": "83", "lat": 43.721, "lon": 6.6479}, {"nom": "Rougiers", "cp": "83170", "dept": "83", "lat": 43.3869, "lon": 5.8505}, {"nom": "Sainte-Anastasie-sur-Issole", "cp": "83136", "dept": "83", "lat": 43.3337, "lon": 6.1227}, {"nom": "Saint-Cyr-sur-Mer", "cp": "83270", "dept": "83", "lat": 43.17, "lon": 5.7055}, {"nom": "Saint-Julien", "cp": "83560", "dept": "83", "lat": 43.7045, "lon": 5.9143}, {"nom": "Saint-Martin-de-Pallières", "cp": "83560", "dept": "83", "lat": 43.577, "lon": 5.8869}, {"nom": "Sainte-Maxime", "cp": "83120", "dept": "83", "lat": 43.3584, "lon": 6.6139}, {"nom": "Saint-Maximin-la-Sainte-Baume", "cp": "83470", "dept": "83", "lat": 43.4488, "lon": 5.8603}, {"nom": "Saint-Paul-en-Forêt", "cp": "83440", "dept": "83", "lat": 43.5681, "lon": 6.6822}, {"nom": "Saint-Raphaël", "cp": "83530", "dept": "83", "lat": 43.4582, "lon": 6.8483}, {"nom": "Saint-Tropez", "cp": "83990", "dept": "83", "lat": 43.2619, "lon": 6.6638}, {"nom": "Saint-Zacharie", "cp": "83640", "dept": "83", "lat": 43.3749, "lon": 5.7164}, {"nom": "Salernes", "cp": "83690", "dept": "83", "lat": 43.5646, "lon": 6.2379}, {"nom": "Les Salles-sur-Verdon", "cp": "83630", "dept": "83", "lat": 43.767, "lon": 6.2042}, {"nom": "Sanary-sur-Mer", "cp": "83110", "dept": "83", "lat": 43.1374, "lon": 5.7951}, {"nom": "Seillans", "cp": "83440", "dept": "83", "lat": 43.6326, "lon": 6.6024}, {"nom": "Seillons-Source-d'Argens", "cp": "83470", "dept": "83", "lat": 43.5156, "lon": 5.8775}, {"nom": "La Seyne-sur-Mer", "cp": "83500", "dept": "83", "lat": 43.0837, "lon": 5.8789}, {"nom": "Signes", "cp": "83870", "dept": "83", "lat": 43.2759, "lon": 5.8498}, {"nom": "Sillans-la-Cascade", "cp": "83690", "dept": "83", "lat": 43.565, "lon": 6.1549}, {"nom": "Six-Fours-les-Plages", "cp": "83140", "dept": "83", "lat": 43.0843, "lon": 5.8079}, {"nom": "Solliès-Pont", "cp": "83210", "dept": "83", "lat": 43.1895, "lon": 6.0625}, {"nom": "Solliès-Toucas", "cp": "83210", "dept": "83", "lat": 43.2097, "lon": 5.9836}, {"nom": "Solliès-Ville", "cp": "83210", "dept": "83", "lat": 43.1804, "lon": 6.0232}, {"nom": "Tanneron", "cp": "83440", "dept": "83", "lat": 43.5732, "lon": 6.8538}, {"nom": "Taradeau", "cp": "83460", "dept": "83", "lat": 43.4657, "lon": 6.4283}, {"nom": "Tavernes", "cp": "83670", "dept": "83", "lat": 43.6009, "lon": 6.0232}, {"nom": "Le Thoronet", "cp": "83340", "dept": "83", "lat": 43.4585, "lon": 6.2905}, {"nom": "Toulon", "cp": "83000", "dept": "83", "lat": 43.1364, "lon": 5.9334}, {"nom": "Tourrettes", "cp": "83440", "dept": "83", "lat": 43.609, "lon": 6.7252}, {"nom": "Tourtour", "cp": "83690", "dept": "83", "lat": 43.594, "lon": 6.3098}, {"nom": "Tourves", "cp": "83170", "dept": "83", "lat": 43.4108, "lon": 5.9281}, {"nom": "Trans-en-Provence", "cp": "83720", "dept": "83", "lat": 43.5025, "lon": 6.4869}, {"nom": "Trigance", "cp": "83840", "dept": "83", "lat": 43.7365, "lon": 6.438}, {"nom": "Le Val", "cp": "83143", "dept": "83", "lat": 43.4468, "lon": 6.0569}, {"nom": "La Valette-du-Var", "cp": "83160", "dept": "83", "lat": 43.1484, "lon": 5.9893}, {"nom": "Varages", "cp": "83670", "dept": "83", "lat": 43.5924, "lon": 5.9435}, {"nom": "La Verdière", "cp": "83560", "dept": "83", "lat": 43.6529, "lon": 5.9374}, {"nom": "Vérignon", "cp": "83630", "dept": "83", "lat": 43.658, "lon": 6.2653}, {"nom": "Vidauban", "cp": "83550", "dept": "83", "lat": 43.4071, "lon": 6.4599}, {"nom": "Villecroze", "cp": "83690", "dept": "83", "lat": 43.5649, "lon": 6.2855}, {"nom": "Vinon-sur-Verdon", "cp": "83560", "dept": "83", "lat": 43.7214, "lon": 5.8017}, {"nom": "Vins-sur-Caramy", "cp": "83170", "dept": "83", "lat": 43.432, "lon": 6.1495}, {"nom": "Rayol-Canadel-sur-Mer", "cp": "83820", "dept": "83", "lat": 43.1664, "lon": 6.4744}, {"nom": "Saint-Mandrier-sur-Mer", "cp": "83430", "dept": "83", "lat": 43.0762, "lon": 5.9272}, {"nom": "Saint-Antonin-du-Var", "cp": "83510", "dept": "83", "lat": 43.5071, "lon": 6.2935}]