[{"nom": "Albefeuille-Lagarde", "cp": "82290", "dept": "82", "lat": 44.0491, "lon": 1.2718}, {"nom": "Albias", "cp": "82350", "dept": "82", "lat": 44.0845, "lon": 1.4508}, {"nom": "Angeville", "cp": "82210", "dept": "82", "lat": 43.9886, "lon": 1.0341}, {"nom": "Asques", "cp": "82120", "dept": "82", "lat": 44.0084, "lon": 0.9509}, {"nom": "Aucamville", "cp": "82600", "dept": "82", "lat": 43.7932, "lon": 1.2278}, {"nom": "Auterive", "cp": "82500", "dept": "82", "lat": 43.8555, "lon": 0.968}, {"nom": "Auty", "cp": "82220", "dept": "82", "lat": 44.1896, "lon": 1.4682}, {"nom": "Auvillar", "cp": "82340", "dept": "82", "lat": 44.066, "lon": 0.8864}, {"nom": "Balignac", "cp": "82120", "dept": "82", "lat": 43.956, "lon": 0.8781}, {"nom": "Bardigues", "cp": "82340", "dept": "82", "lat": 44.0283, "lon": 0.8887}, {"nom": "Barry-d'Islemade", "cp": "82290", "dept": "82", "lat": 44.0755, "lon": 1.2518}, {"nom": "Les Barthes", "cp": "82100", "dept": "82", "lat": 44.092, "lon": 1.1713}, {"nom": "Beaumont-de-Lomagne", "cp": "82500", "dept": "82", "lat": 43.884, "lon": 1.0145}, {"nom": "Beaupuy", "cp": "82600", "dept": "82", "lat": 43.8152, "lon": 1.1164}, {"nom": "Belbèze-en-Lomagne", "cp": "82500", "dept": "82", "lat": 43.9057, "lon": 1.0697}, {"nom": "Belvèze", "cp": "82150", "dept": "82", "lat": 44.3303, "lon": 1.0916}, {"nom": "Bessens", "cp": "82170", "dept": "82", "lat": 43.8859, "lon": 1.2685}, {"nom": "Bioule", "cp": "82800", "dept": "82", "lat": 44.0994, "lon": 1.5432}, {"nom": "Boudou", "cp": "82200", "dept": "82", "lat": 44.1058, "lon": 1.0189}, {"nom": "Bouillac", "cp": "82600", "dept": "82", "lat": 43.848, "lon": 1.1118}, {"nom": "Bouloc-en-Quercy", "cp": "82110", "dept": "82", "lat": 44.2982, "lon": 1.1166}, {"nom": "Bourg-de-Visa", "cp": "82190", "dept": "82", "lat": 44.2485, "lon": 0.9525}, {"nom": "Bourret", "cp": "82700", "dept": "82", "lat": 43.9444, "lon": 1.1543}, {"nom": "Brassac", "cp": "82190", "dept": "82", "lat": 44.223, "lon": 0.977}, {"nom": "Bressols", "cp": "82710", "dept": "82", "lat": 43.9523, "lon": 1.317}, {"nom": "Bruniquel", "cp": "82800", "dept": "82", "lat": 44.0535, "lon": 1.6571}, {"nom": "Campsas", "cp": "82370", "dept": "82", "lat": 43.889, "lon": 1.3291}, {"nom": "Canals", "cp": "82170", "dept": "82", "lat": 43.8606, "lon": 1.2976}, {"nom": "Castanet", "cp": "82160", "dept": "82", "lat": 44.2597, "lon": 1.9233}, {"nom": "Castelferrus", "cp": "82100", "dept": "82", "lat": 44.0089, "lon": 1.0906}, {"nom": "Castelmayran", "cp": "82210", "dept": "82", "lat": 44.0295, "lon": 1.0527}, {"nom": "Castelsagrat", "cp": "82400", "dept": "82", "lat": 44.1727, "lon": 0.9513}, {"nom": "Castelsarrasin", "cp": "82100", "dept": "82", "lat": 44.0536, "lon": 1.1211}, {"nom": "Castéra-Bouzet", "cp": "82120", "dept": "82", "lat": 44.0059, "lon": 0.9165}, {"nom": "Caumont", "cp": "82210", "dept": "82", "lat": 44.0234, "lon": 0.9966}, {"nom": "Le Causé", "cp": "82500", "dept": "82", "lat": 43.802, "lon": 0.9714}, {"nom": "Caussade", "cp": "82300", "dept": "82", "lat": 44.1582, "lon": 1.5426}, {"nom": "Caylus", "cp": "82160", "dept": "82", "lat": 44.2475, "lon": 1.767}, {"nom": "Cayrac", "cp": "82440", "dept": "82", "lat": 44.1043, "lon": 1.4795}, {"nom": "Cayriech", "cp": "82240", "dept": "82", "lat": 44.2146, "lon": 1.6079}, {"nom": "Cazals", "cp": "82140", "dept": "82", "lat": 44.1251, "lon": 1.6861}, {"nom": "Cazes-Mondenard", "cp": "82110", "dept": "82", "lat": 44.2114, "lon": 1.219}, {"nom": "Comberouger", "cp": "82600", "dept": "82", "lat": 43.8723, "lon": 1.0952}, {"nom": "Corbarieu", "cp": "82370", "dept": "82", "lat": 43.9405, "lon": 1.3855}, {"nom": "Cordes-Tolosannes", "cp": "82700", "dept": "82", "lat": 43.9744, "lon": 1.1366}, {"nom": "Coutures", "cp": "82210", "dept": "82", "lat": 43.9602, "lon": 0.9874}, {"nom": "Cumont", "cp": "82500", "dept": "82", "lat": 43.8722, "lon": 0.9041}, {"nom": "Dieupentale", "cp": "82170", "dept": "82", "lat": 43.8686, "lon": 1.2816}, {"nom": "Donzac", "cp": "82340", "dept": "82", "lat": 44.0993, "lon": 0.8169}, {"nom": "Dunes", "cp": "82340", "dept": "82", "lat": 44.0866, "lon": 0.776}, {"nom": "Durfort-Lacapelette", "cp": "82390", "dept": "82", "lat": 44.1823, "lon": 1.141}, {"nom": "Escatalens", "cp": "82700", "dept": "82", "lat": 43.9851, "lon": 1.1919}, {"nom": "Escazeaux", "cp": "82500", "dept": "82", "lat": 43.8394, "lon": 1.0326}, {"nom": "Espalais", "cp": "82400", "dept": "82", "lat": 44.0801, "lon": 0.9159}, {"nom": "Esparsac", "cp": "82500", "dept": "82", "lat": 43.9136, "lon": 0.9489}, {"nom": "Espinas", "cp": "82160", "dept": "82", "lat": 44.1974, "lon": 1.7899}, {"nom": "Fabas", "cp": "82170", "dept": "82", "lat": 43.8621, "lon": 1.3408}, {"nom": "Fajolles", "cp": "82210", "dept": "82", "lat": 43.9686, "lon": 1.0137}, {"nom": "Faudoas", "cp": "82500", "dept": "82", "lat": 43.8354, "lon": 0.9689}, {"nom": "Fauroux", "cp": "82190", "dept": "82", "lat": 44.2517, "lon": 1.0045}, {"nom": "Féneyrols", "cp": "82140", "dept": "82", "lat": 44.1408, "lon": 1.8259}, {"nom": "Finhan", "cp": "82700", "dept": "82", "lat": 43.9126, "lon": 1.2218}, {"nom": "Garganvillar", "cp": "82100", "dept": "82", "lat": 43.972, "lon": 1.0717}, {"nom": "Gariès", "cp": "82500", "dept": "82", "lat": 43.8111, "lon": 1.0349}, {"nom": "Gasques", "cp": "82400", "dept": "82", "lat": 44.1509, "lon": 0.9099}, {"nom": "Génébrières", "cp": "82230", "dept": "82", "lat": 44.0032, "lon": 1.4914}, {"nom": "Gensac", "cp": "82120", "dept": "82", "lat": 43.9508, "lon": 0.9571}, {"nom": "Gimat", "cp": "82500", "dept": "82", "lat": 43.8654, "lon": 0.9398}, {"nom": "Ginals", "cp": "82330", "dept": "82", "lat": 44.2189, "lon": 1.8865}, {"nom": "Glatens", "cp": "82500", "dept": "82", "lat": 43.8943, "lon": 0.9202}, {"nom": "Goas", "cp": "82500", "dept": "82", "lat": 43.8158, "lon": 0.9619}, {"nom": "Golfech", "cp": "82400", "dept": "82", "lat": 44.1105, "lon": 0.8572}, {"nom": "Goudourville", "cp": "82400", "dept": "82", "lat": 44.113, "lon": 0.9304}, {"nom": "Gramont", "cp": "82120", "dept": "82", "lat": 43.9443, "lon": 0.7863}, {"nom": "Grisolles", "cp": "82170", "dept": "82", "lat": 43.824, "lon": 1.2923}, {"nom": "L'Honor-de-Cos", "cp": "82130", "dept": "82", "lat": 44.1138, "lon": 1.3694}, {"nom": "Labarthe", "cp": "82220", "dept": "82", "lat": 44.2031, "lon": 1.314}, {"nom": "Labastide-de-Penne", "cp": "82240", "dept": "82", "lat": 44.2808, "lon": 1.5895}, {"nom": "Labastide-Saint-Pierre", "cp": "82370", "dept": "82", "lat": 43.9231, "lon": 1.3438}, {"nom": "Labastide-du-Temple", "cp": "82100", "dept": "82", "lat": 44.0819, "lon": 1.2007}, {"nom": "Labourgade", "cp": "82100", "dept": "82", "lat": 43.9541, "lon": 1.0901}, {"nom": "Lacapelle-Livron", "cp": "82160", "dept": "82", "lat": 44.2726, "lon": 1.7895}, {"nom": "Lachapelle", "cp": "82120", "dept": "82", "lat": 43.9857, "lon": 0.8425}, {"nom": "Lacour", "cp": "82190", "dept": "82", "lat": 44.2845, "lon": 0.9615}, {"nom": "Lacourt-Saint-Pierre", "cp": "82290", "dept": "82", "lat": 43.9879, "lon": 1.2715}, {"nom": "Lafitte", "cp": "82100", "dept": "82", "lat": 43.9758, "lon": 1.1039}, {"nom": "Lafrançaise", "cp": "82130", "dept": "82", "lat": 44.1319, "lon": 1.2375}, {"nom": "Laguépie", "cp": "82250", "dept": "82", "lat": 44.1637, "lon": 1.96}, {"nom": "Lamagistère", "cp": "82360", "dept": "82", "lat": 44.1309, "lon": 0.8228}, {"nom": "Lamothe-Capdeville", "cp": "82130", "dept": "82", "lat": 44.0955, "lon": 1.3901}, {"nom": "Lamothe-Cumont", "cp": "82500", "dept": "82", "lat": 43.8818, "lon": 0.915}, {"nom": "Lapenche", "cp": "82240", "dept": "82", "lat": 44.2249, "lon": 1.5682}, {"nom": "Larrazet", "cp": "82500", "dept": "82", "lat": 43.9303, "lon": 1.0809}, {"nom": "Lauzerte", "cp": "82110", "dept": "82", "lat": 44.264, "lon": 1.1231}, {"nom": "Lavaurette", "cp": "82240", "dept": "82", "lat": 44.2097, "lon": 1.6702}, {"nom": "La Ville-Dieu-du-Temple", "cp": "82290", "dept": "82", "lat": 44.0417, "lon": 1.221}, {"nom": "Lavit", "cp": "82120", "dept": "82", "lat": 43.9542, "lon": 0.9276}, {"nom": "Léojac", "cp": "82230", "dept": "82", "lat": 44.0055, "lon": 1.4494}, {"nom": "Lizac", "cp": "82200", "dept": "82", "lat": 44.1123, "lon": 1.1876}, {"nom": "Loze", "cp": "82160", "dept": "82", "lat": 44.2898, "lon": 1.7463}, {"nom": "Malause", "cp": "82200", "dept": "82", "lat": 44.0921, "lon": 0.9704}, {"nom": "Mansonville", "cp": "82120", "dept": "82", "lat": 44.0168, "lon": 0.85}, {"nom": "Marignac", "cp": "82500", "dept": "82", "lat": 43.8411, "lon": 0.9191}, {"nom": "Marsac", "cp": "82120", "dept": "82", "lat": 43.946, "lon": 0.8265}, {"nom": "Mas-Grenier", "cp": "82600", "dept": "82", "lat": 43.8981, "lon": 1.1836}, {"nom": "Maubec", "cp": "82500", "dept": "82", "lat": 43.8091, "lon": 0.9266}, {"nom": "Maumusson", "cp": "82120", "dept": "82", "lat": 43.9121, "lon": 0.9064}, {"nom": "Meauzac", "cp": "82290", "dept": "82", "lat": 44.0915, "lon": 1.231}, {"nom": "Merles", "cp": "82210", "dept": "82", "lat": 44.0668, "lon": 0.9644}, {"nom": "Mirabel", "cp": "82440", "dept": "82", "lat": 44.1398, "lon": 1.4071}, {"nom": "Miramont-de-Quercy", "cp": "82190", "dept": "82", "lat": 44.2259, "lon": 1.052}, {"nom": "Moissac", "cp": "82200", "dept": "82", "lat": 44.1219, "lon": 1.1002}, {"nom": "Molières", "cp": "82220", "dept": "82", "lat": 44.1944, "lon": 1.393}, {"nom": "Monbéqui", "cp": "82170", "dept": "82", "lat": 43.8907, "lon": 1.2322}, {"nom": "Monclar-de-Quercy", "cp": "82230", "dept": "82", "lat": 43.9912, "lon": 1.5816}, {"nom": "Montagudet", "cp": "82110", "dept": "82", "lat": 44.2468, "lon": 1.087}, {"nom": "Montaigu-de-Quercy", "cp": "82150", "dept": "82", "lat": 44.3414, "lon": 1.0395}, {"nom": "Montaïn", "cp": "82100", "dept": "82", "lat": 43.9398, "lon": 1.1131}, {"nom": "Montalzat", "cp": "82270", "dept": "82", "lat": 44.2041, "lon": 1.5191}, {"nom": "Montastruc", "cp": "82130", "dept": "82", "lat": 44.1073, "lon": 1.2932}, {"nom": "Montauban", "cp": "82000", "dept": "82", "lat": 44.0217, "lon": 1.3646}, {"nom": "Montbarla", "cp": "82110", "dept": "82", "lat": 44.2161, "lon": 1.0776}, {"nom": "Montbartier", "cp": "82700", "dept": "82", "lat": 43.9162, "lon": 1.2865}, {"nom": "Montbeton", "cp": "82290", "dept": "82", "lat": 44.0139, "lon": 1.2661}, {"nom": "Montech", "cp": "82700", "dept": "82", "lat": 43.9623, "lon": 1.2363}, {"nom": "Monteils", "cp": "82300", "dept": "82", "lat": 44.1732, "lon": 1.5641}, {"nom": "Montesquieu", "cp": "82200", "dept": "82", "lat": 44.1803, "lon": 1.0599}, {"nom": "Montfermier", "cp": "82270", "dept": "82", "lat": 44.2274, "lon": 1.4171}, {"nom": "Montgaillard", "cp": "82120", "dept": "82", "lat": 43.9312, "lon": 0.8777}, {"nom": "Montjoi", "cp": "82400", "dept": "82", "lat": 44.2029, "lon": 0.9331}, {"nom": "Montpezat-de-Quercy", "cp": "82270", "dept": "82", "lat": 44.2392, "lon": 1.4738}, {"nom": "Montricoux", "cp": "82800", "dept": "82", "lat": 44.1059, "lon": 1.6223}, {"nom": "Mouillac", "cp": "82160", "dept": "82", "lat": 44.2734, "lon": 1.6723}, {"nom": "Nègrepelisse", "cp": "82800", "dept": "82", "lat": 44.0629, "lon": 1.5373}, {"nom": "Nohic", "cp": "82370", "dept": "82", "lat": 43.8889, "lon": 1.4389}, {"nom": "Orgueil", "cp": "82370", "dept": "82", "lat": 43.8987, "lon": 1.3975}, {"nom": "Parisot", "cp": "82160", "dept": "82", "lat": 44.2607, "lon": 1.8682}, {"nom": "Perville", "cp": "82400", "dept": "82", "lat": 44.1788, "lon": 0.8801}, {"nom": "Le Pin", "cp": "82340", "dept": "82", "lat": 44.0368, "lon": 0.9759}, {"nom": "Piquecos", "cp": "82130", "dept": "82", "lat": 44.1084, "lon": 1.3227}, {"nom": "Pommevic", "cp": "82400", "dept": "82", "lat": 44.0947, "lon": 0.9354}, {"nom": "Pompignan", "cp": "82170", "dept": "82", "lat": 43.8192, "lon": 1.329}, {"nom": "Poupas", "cp": "82120", "dept": "82", "lat": 43.9625, "lon": 0.8319}, {"nom": "Puycornet", "cp": "82220", "dept": "82", "lat": 44.153, "lon": 1.3233}, {"nom": "Puygaillard-de-Quercy", "cp": "82800", "dept": "82", "lat": 44.0327, "lon": 1.6344}, {"nom": "Puygaillard-de-Lomagne", "cp": "82120", "dept": "82", "lat": 43.9726, "lon": 0.885}, {"nom": "Puylagarde", "cp": "82160", "dept": "82", "lat": 44.3079, "lon": 1.8502}, {"nom": "Puylaroque", "cp": "82240", "dept": "82", "lat": 44.2559, "lon": 1.636}, {"nom": "Réalville", "cp": "82440", "dept": "82", "lat": 44.126, "lon": 1.4836}, {"nom": "Reyniès", "cp": "82370", "dept": "82", "lat": 43.9262, "lon": 1.4149}, {"nom": "Roquecor", "cp": "82150", "dept": "82", "lat": 44.3182, "lon": 0.9463}, {"nom": "Saint-Aignan", "cp": "82100", "dept": "82", "lat": 44.0215, "lon": 1.0741}, {"nom": "Saint-Amans-du-Pech", "cp": "82150", "dept": "82", "lat": 44.3128, "lon": 0.8927}, {"nom": "Saint-Amans-de-Pellagal", "cp": "82110", "dept": "82", "lat": 44.2228, "lon": 1.1312}, {"nom": "Saint-Antonin-Noble-Val", "cp": "82140", "dept": "82", "lat": 44.1508, "lon": 1.7338}, {"nom": "Saint-Arroumex", "cp": "82210", "dept": "82", "lat": 43.9904, "lon": 0.9891}, {"nom": "Saint-Beauzeil", "cp": "82150", "dept": "82", "lat": 44.3338, "lon": 0.9106}, {"nom": "Saint-Cirice", "cp": "82340", "dept": "82", "lat": 44.0608, "lon": 0.8376}, {"nom": "Saint-Cirq", "cp": "82300", "dept": "82", "lat": 44.1298, "lon": 1.6068}, {"nom": "Saint-Clair", "cp": "82400", "dept": "82", "lat": 44.1522, "lon": 0.9447}, {"nom": "Saint-Étienne-de-Tulmont", "cp": "82410", "dept": "82", "lat": 44.048, "lon": 1.4575}, {"nom": "Saint-Georges", "cp": "82240", "dept": "82", "lat": 44.2168, "lon": 1.6365}, {"nom": "Saint-Jean-du-Bouzet", "cp": "82120", "dept": "82", "lat": 43.9867, "lon": 0.8782}, {"nom": "Sainte-Juliette", "cp": "82110", "dept": "82", "lat": 44.2928, "lon": 1.1642}, {"nom": "Saint-Loup", "cp": "82340", "dept": "82", "lat": 44.0812, "lon": 0.8551}, {"nom": "Saint-Michel", "cp": "82340", "dept": "82", "lat": 44.0479, "lon": 0.9377}, {"nom": "Saint-Nauphary", "cp": "82370", "dept": "82", "lat": 43.9583, "lon": 1.4469}, {"nom": "Saint-Nazaire-de-Valentane", "cp": "82190", "dept": "82", "lat": 44.2071, "lon": 1.0184}, {"nom": "Saint-Nicolas-de-la-Grave", "cp": "82210", "dept": "82", "lat": 44.0627, "lon": 1.0262}, {"nom": "Saint-Paul-d'Espis", "cp": "82400", "dept": "82", "lat": 44.1417, "lon": 1.0017}, {"nom": "Saint-Porquier", "cp": "82700", "dept": "82", "lat": 44.0079, "lon": 1.1792}, {"nom": "Saint-Projet", "cp": "82160", "dept": "82", "lat": 44.3132, "lon": 1.7499}, {"nom": "Saint-Sardos", "cp": "82600", "dept": "82", "lat": 43.9052, "lon": 1.1215}, {"nom": "Saint-Vincent-d'Autéjac", "cp": "82300", "dept": "82", "lat": 44.1632, "lon": 1.465}, {"nom": "Saint-Vincent-Lespinasse", "cp": "82400", "dept": "82", "lat": 44.1216, "lon": 0.9693}, {"nom": "La Salvetat-Belmontet", "cp": "82230", "dept": "82", "lat": 43.9659, "lon": 1.514}, {"nom": "Sauveterre", "cp": "82110", "dept": "82", "lat": 44.2671, "lon": 1.2703}, {"nom": "Savenès", "cp": "82600", "dept": "82", "lat": 43.8306, "lon": 1.1853}, {"nom": "Septfonds", "cp": "82240", "dept": "82", "lat": 44.178, "lon": 1.6214}, {"nom": "Sérignac", "cp": "82500", "dept": "82", "lat": 43.9277, "lon": 1.0325}, {"nom": "Sistels", "cp": "82340", "dept": "82", "lat": 44.0509, "lon": 0.784}, {"nom": "Touffailles", "cp": "82190", "dept": "82", "lat": 44.2729, "lon": 1.0324}, {"nom": "Tréjouls", "cp": "82110", "dept": "82", "lat": 44.2691, "lon": 1.2021}, {"nom": "Vaïssac", "cp": "82800", "dept": "82", "lat": 44.033, "lon": 1.5588}, {"nom": "Valeilles", "cp": "82150", "dept": "82", "lat": 44.3623, "lon": 0.9139}, {"nom": "Valence", "cp": "82400", "dept": "82", "lat": 44.1064, "lon": 0.9043}, {"nom": "Varen", "cp": "82330", "dept": "82", "lat": 44.1605, "lon": 1.8858}, {"nom": "Varennes", "cp": "82370", "dept": "82", "lat": 43.9143, "lon": 1.4897}, {"nom": "Vazerac", "cp": "82220", "dept": "82", "lat": 44.2074, "lon": 1.2774}, {"nom": "Verdun-sur-Garonne", "cp": "82600", "dept": "82", "lat": 43.841, "lon": 1.2169}, {"nom": "Verfeil", "cp": "82330", "dept": "82", "lat": 44.1859, "lon": 1.8752}, {"nom": "Verlhac-Tescou", "cp": "82230", "dept": "82", "lat": 43.932, "lon": 1.5257}, {"nom": "Vigueron", "cp": "82500", "dept": "82", "lat": 43.8946, "lon": 1.0546}, {"nom": "Villebrumier", "cp": "82370", "dept": "82", "lat": 43.9206, "lon": 1.453}, {"nom": "Villemade", "cp": "82130", "dept": "82", "lat": 44.0787, "lon": 1.2901}]