[{"nom": "Les Abrets en Dauphiné", "cp": "38490", "dept": "38", "lat": 45.5314, "lon": 5.5852}, {"nom": "Les Adrets", "cp": "38190", "dept": "38", "lat": 45.2571, "lon": 5.9874}, {"nom": "Agnin", "cp": "38150", "dept": "38", "lat": 45.3347, "lon": 4.8598}, {"nom": "L'Albenc", "cp": "38470", "dept": "38", "lat": 45.2199, "lon": 5.4598}, {"nom": "Allemond", "cp": "38114", "dept": "38", "lat": 45.1777, "lon": 6.0184}, {"nom": "Allevard", "cp": "38580", "dept": "38", "lat": 45.3776, "lon": 6.1189}, {"nom": "Ambel", "cp": "38970", "dept": "38", "lat": 44.7997, "lon": 5.9348}, {"nom": "Anjou", "cp": "38150", "dept": "38", "lat": 45.3493, "lon": 4.882}, {"nom": "Annoisin-Chatelans", "cp": "38460", "dept": "38", "lat": 45.7657, "lon": 5.289}, {"nom": "Anthon", "cp": "38280", "dept": "38", "lat": 45.7812, "lon": 5.1583}, {"nom": "Aoste", "cp": "38490", "dept": "38", "lat": 45.6015, "lon": 5.611}, {"nom": "Apprieu", "cp": "38140", "dept": "38", "lat": 45.3918, "lon": 5.4983}, {"nom": "Artas", "cp": "38440", "dept": "38", "lat": 45.5385, "lon": 5.1676}, {"nom": "Assieu", "cp": "38150", "dept": "38", "lat": 45.4102, "lon": 4.88}, {"nom": "Auberives-en-Royans", "cp": "38680", "dept": "38", "lat": 45.0656, "lon": 5.312}, {"nom": "Auberives-sur-Varèze", "cp": "38550", "dept": "38", "lat": 45.426, "lon": 4.8162}, {"nom": "Auris", "cp": "38142", "dept": "38", "lat": 45.0496, "lon": 6.0843}, {"nom": "Les Avenières Veyrins-Thuellin", "cp": "38630", "dept": "38", "lat": 45.6413, "lon": 5.5567}, {"nom": "Avignonet", "cp": "38650", "dept": "38", "lat": 44.9562, "lon": 5.6671}, {"nom": "La Balme-les-Grottes", "cp": "38390", "dept": "38", "lat": 45.8435, "lon": 5.3196}, {"nom": "Barraux", "cp": "38530", "dept": "38", "lat": 45.432, "lon": 5.9817}, {"nom": "La Bâtie-Montgascon", "cp": "38110", "dept": "38", "lat": 45.5744, "lon": 5.5391}, {"nom": "Beaucroissant", "cp": "38140", "dept": "38", "lat": 45.3437, "lon": 5.4694}, {"nom": "Beaufin", "cp": "38970", "dept": "38", "lat": 44.788, "lon": 5.9615}, {"nom": "Beaufort", "cp": "38270", "dept": "38", "lat": 45.3292, "lon": 5.1154}, {"nom": "Beaulieu", "cp": "38470", "dept": "38", "lat": 45.1895, "lon": 5.3975}, {"nom": "Beaurepaire", "cp": "38270", "dept": "38", "lat": 45.3376, "lon": 5.0439}, {"nom": "Beauvoir-de-Marc", "cp": "38440", "dept": "38", "lat": 45.5183, "lon": 5.0807}, {"nom": "Beauvoir-en-Royans", "cp": "38160", "dept": "38", "lat": 45.1168, "lon": 5.3481}, {"nom": "Bellegarde-Poussieu", "cp": "38270", "dept": "38", "lat": 45.3755, "lon": 4.95}, {"nom": "Belmont", "cp": "38690", "dept": "38", "lat": 45.4724, "lon": 5.3602}, {"nom": "Bernin", "cp": "38190", "dept": "38", "lat": 45.2636, "lon": 5.8624}, {"nom": "Besse", "cp": "38142", "dept": "38", "lat": 45.1106, "lon": 6.2088}, {"nom": "Bessins", "cp": "38160", "dept": "38", "lat": 45.2053, "lon": 5.2627}, {"nom": "Bévenais", "cp": "38690", "dept": "38", "lat": 45.3946, "lon": 5.3924}, {"nom": "Bilieu", "cp": "38850", "dept": "38", "lat": 45.4455, "lon": 5.55}, {"nom": "Biol", "cp": "38690", "dept": "38", "lat": 45.4971, "lon": 5.3674}, {"nom": "Biviers", "cp": "38330", "dept": "38", "lat": 45.2444, "lon": 5.7985}, {"nom": "Bizonnes", "cp": "38690", "dept": "38", "lat": 45.448, "lon": 5.3777}, {"nom": "Blandin", "cp": "38730", "dept": "38", "lat": 45.4791, "lon": 5.4487}, {"nom": "Bonnefamille", "cp": "38090", "dept": "38", "lat": 45.599, "lon": 5.1087}, {"nom": "Bossieu", "cp": "38260", "dept": "38", "lat": 45.4189, "lon": 5.1534}, {"nom": "Le Bouchage", "cp": "38510", "dept": "38", "lat": 45.6689, "lon": 5.5288}, {"nom": "Bougé-Chambalud", "cp": "38150", "dept": "38", "lat": 45.3188, "lon": 4.8977}, {"nom": "Le Bourg-d'Oisans", "cp": "38520", "dept": "38", "lat": 45.0367, "lon": 6.0275}, {"nom": "Bourgoin-Jallieu", "cp": "38300", "dept": "38", "lat": 45.6025, "lon": 5.2747}, {"nom": "Bouvesse-Quirieu", "cp": "38390", "dept": "38", "lat": 45.7794, "lon": 5.4193}, {"nom": "Brangues", "cp": "38510", "dept": "38", "lat": 45.6952, "lon": 5.5422}, {"nom": "Bressieux", "cp": "38870", "dept": "38", "lat": 45.3217, "lon": 5.2785}, {"nom": "Bresson", "cp": "38320", "dept": "38", "lat": 45.133, "lon": 5.7498}, {"nom": "Brézins", "cp": "38590", "dept": "38", "lat": 45.3475, "lon": 5.3058}, {"nom": "Brié-et-Angonnes", "cp": "38320", "dept": "38", "lat": 45.122, "lon": 5.78}, {"nom": "Brion", "cp": "38590", "dept": "38", "lat": 45.2929, "lon": 5.3416}, {"nom": "La Buisse", "cp": "38500", "dept": "38", "lat": 45.3319, "lon": 5.6245}, {"nom": "La Buissière", "cp": "38530", "dept": "38", "lat": 45.4101, "lon": 5.9832}, {"nom": "Burcin", "cp": "38690", "dept": "38", "lat": 45.4332, "lon": 5.4467}, {"nom": "Cessieu", "cp": "38110", "dept": "38", "lat": 45.5694, "lon": 5.3746}, {"nom": "Châbons", "cp": "38690", "dept": "38", "lat": 45.4477, "lon": 5.428}, {"nom": "Chalon", "cp": "38122", "dept": "38", "lat": 45.4496, "lon": 4.9393}, {"nom": "Chamagnieu", "cp": "38460", "dept": "38", "lat": 45.6887, "lon": 5.1679}, {"nom": "Champagnier", "cp": "38800", "dept": "38", "lat": 45.1128, "lon": 5.7213}, {"nom": "Champier", "cp": "38260", "dept": "38", "lat": 45.4578, "lon": 5.2861}, {"nom": "Le Champ-près-Froges", "cp": "38190", "dept": "38", "lat": 45.2808, "lon": 5.9391}, {"nom": "Champ-sur-Drac", "cp": "38560", "dept": "38", "lat": 45.07, "lon": 5.724}, {"nom": "Chanas", "cp": "38150", "dept": "38", "lat": 45.3193, "lon": 4.8327}, {"nom": "Chantepérier", "cp": "38740", "dept": "38", "lat": 44.9606, "lon": 5.9794}, {"nom": "Chantesse", "cp": "38470", "dept": "38", "lat": 45.2448, "lon": 5.4489}, {"nom": "Chapareillan", "cp": "38530", "dept": "38", "lat": 45.4623, "lon": 5.9576}, {"nom": "La Chapelle-de-la-Tour", "cp": "38110", "dept": "38", "lat": 45.5913, "lon": 5.4788}, {"nom": "La Chapelle-de-Surieu", "cp": "38150", "dept": "38", "lat": 45.3941, "lon": 4.9186}, {"nom": "La Chapelle-du-Bard", "cp": "38580", "dept": "38", "lat": 45.3993, "lon": 6.1391}, {"nom": "Charancieu", "cp": "38490", "dept": "38", "lat": 45.5191, "lon": 5.5789}, {"nom": "Charantonnay", "cp": "38790", "dept": "38", "lat": 45.5375, "lon": 5.1171}, {"nom": "Charavines", "cp": "38850", "dept": "38", "lat": 45.4231, "lon": 5.5166}, {"nom": "Charette", "cp": "38390", "dept": "38", "lat": 45.8045, "lon": 5.3593}, {"nom": "Charnècles", "cp": "38140", "dept": "38", "lat": 45.3411, "lon": 5.5283}, {"nom": "Charvieu-Chavagneux", "cp": "38230", "dept": "38", "lat": 45.7386, "lon": 5.1522}, {"nom": "Chasselay", "cp": "38470", "dept": "38", "lat": 45.2624, "lon": 5.3404}, {"nom": "Chasse-sur-Rhône", "cp": "38670", "dept": "38", "lat": 45.578, "lon": 4.8129}, {"nom": "Chassignieu", "cp": "38730", "dept": "38", "lat": 45.5014, "lon": 5.5138}, {"nom": "Château-Bernard", "cp": "38650", "dept": "38", "lat": 44.9829, "lon": 5.565}, {"nom": "Châteauvilain", "cp": "38300", "dept": "38", "lat": 45.5142, "lon": 5.3318}, {"nom": "Châtelus", "cp": "38680", "dept": "38", "lat": 45.0533, "lon": 5.3994}, {"nom": "Châtenay", "cp": "38980", "dept": "38", "lat": 45.3245, "lon": 5.2268}, {"nom": "Châtonnay", "cp": "38440", "dept": "38", "lat": 45.4784, "lon": 5.2225}, {"nom": "Chatte", "cp": "38160", "dept": "38", "lat": 45.1419, "lon": 5.2815}, {"nom": "Chavanoz", "cp": "38230", "dept": "38", "lat": 45.7696, "lon": 5.1719}, {"nom": "Chélieu", "cp": "38730", "dept": "38", "lat": 45.5046, "lon": 5.4771}, {"nom": "Chevrières", "cp": "38160", "dept": "38", "lat": 45.1949, "lon": 5.2947}, {"nom": "Le Cheylas", "cp": "38570", "dept": "38", "lat": 45.3798, "lon": 6.0046}, {"nom": "Cheyssieu", "cp": "38550", "dept": "38", "lat": 45.4266, "lon": 4.8423}, {"nom": "Chèzeneuve", "cp": "38300", "dept": "38", "lat": 45.5617, "lon": 5.2151}, {"nom": "Chichilianne", "cp": "38930", "dept": "38", "lat": 44.8088, "lon": 5.5356}, {"nom": "Chimilin", "cp": "38490", "dept": "38", "lat": 45.5723, "lon": 5.5884}, {"nom": "Chirens", "cp": "38850", "dept": "38", "lat": 45.4148, "lon": 5.5587}, {"nom": "Cholonge", "cp": "38220", "dept": "38", "lat": 45.0107, "lon": 5.8011}, {"nom": "Chonas-l'Amballan", "cp": "38121", "dept": "38", "lat": 45.4647, "lon": 4.8041}, {"nom": "Choranche", "cp": "38680", "dept": "38", "lat": 45.0744, "lon": 5.399}, {"nom": "Chozeau", "cp": "38460", "dept": "38", "lat": 45.6987, "lon": 5.2083}, {"nom": "Chuzelles", "cp": "38200", "dept": "38", "lat": 45.577, "lon": 4.8792}, {"nom": "Claix", "cp": "38640", "dept": "38", "lat": 45.1187, "lon": 5.659}, {"nom": "Clavans-en-Haut-Oisans", "cp": "38142", "dept": "38", "lat": 45.1034, "lon": 6.1683}, {"nom": "Clelles", "cp": "38930", "dept": "38", "lat": 44.8255, "lon": 5.6268}, {"nom": "Clonas-sur-Varèze", "cp": "38550", "dept": "38", "lat": 45.4172, "lon": 4.7902}, {"nom": "Saint-Martin-de-la-Cluze", "cp": "38650", "dept": "38", "lat": 44.9909, "lon": 5.6617}, {"nom": "Cognet", "cp": "38350", "dept": "38", "lat": 44.8815, "lon": 5.7741}, {"nom": "Cognin-les-Gorges", "cp": "38470", "dept": "38", "lat": 45.1715, "lon": 5.4167}, {"nom": "Colombe", "cp": "38690", "dept": "38", "lat": 45.3934, "lon": 5.4488}, {"nom": "La Combe-de-Lancey", "cp": "38190", "dept": "38", "lat": 45.1964, "lon": 5.9258}, {"nom": "Corbelin", "cp": "38630", "dept": "38", "lat": 45.6004, "lon": 5.5502}, {"nom": "Corenc", "cp": "38700", "dept": "38", "lat": 45.2264, "lon": 5.7599}, {"nom": "Cornillon-en-Trièves", "cp": "38710", "dept": "38", "lat": 44.8405, "lon": 5.6991}, {"nom": "Corps", "cp": "38970", "dept": "38", "lat": 44.8189, "lon": 5.9358}, {"nom": "Corrençon-en-Vercors", "cp": "38250", "dept": "38", "lat": 45.0113, "lon": 5.5221}, {"nom": "La Côte-Saint-André", "cp": "38260", "dept": "38", "lat": 45.3844, "lon": 5.2586}, {"nom": "Les Côtes-d'Arey", "cp": "38138", "dept": "38", "lat": 45.4594, "lon": 4.8725}, {"nom": "Les Côtes-de-Corps", "cp": "38970", "dept": "38", "lat": 44.8434, "lon": 5.9256}, {"nom": "Coublevie", "cp": "38500", "dept": "38", "lat": 45.3573, "lon": 5.618}, {"nom": "Cour-et-Buis", "cp": "38122", "dept": "38", "lat": 45.4361, "lon": 5.0267}, {"nom": "Courtenay", "cp": "38510", "dept": "38", "lat": 45.7396, "lon": 5.3887}, {"nom": "Crachier", "cp": "38300", "dept": "38", "lat": 45.5462, "lon": 5.2194}, {"nom": "Cras", "cp": "38210", "dept": "38", "lat": 45.2733, "lon": 5.4401}, {"nom": "Crémieu", "cp": "38460", "dept": "38", "lat": 45.7314, "lon": 5.2635}, {"nom": "Creys-Mépieu", "cp": "38510", "dept": "38", "lat": 45.7444, "lon": 5.4695}, {"nom": "Crolles", "cp": "38920", "dept": "38", "lat": 45.2816, "lon": 5.8853}, {"nom": "Culin", "cp": "38300", "dept": "38", "lat": 45.5215, "lon": 5.2493}, {"nom": "Diémoz", "cp": "38790", "dept": "38", "lat": 45.5911, "lon": 5.0893}, {"nom": "Dizimieu", "cp": "38460", "dept": "38", "lat": 45.7112, "lon": 5.2846}, {"nom": "Doissin", "cp": "38730", "dept": "38", "lat": 45.499, "lon": 5.4248}, {"nom": "Dolomieu", "cp": "38110", "dept": "38", "lat": 45.6179, "lon": 5.4759}, {"nom": "Domarin", "cp": "38300", "dept": "38", "lat": 45.5827, "lon": 5.2491}, {"nom": "Domène", "cp": "38420", "dept": "38", "lat": 45.2053, "lon": 5.8367}, {"nom": "Échirolles", "cp": "38130", "dept": "38", "lat": 45.1441, "lon": 5.7148}, {"nom": "Eclose-Badinières", "cp": "38300", "dept": "38", "lat": 45.4998, "lon": 5.2987}, {"nom": "Engins", "cp": "38360", "dept": "38", "lat": 45.1928, "lon": 5.6175}, {"nom": "Entraigues", "cp": "38740", "dept": "38", "lat": 44.8926, "lon": 5.9663}, {"nom": "Entre-deux-Guiers", "cp": "38380", "dept": "38", "lat": 45.4119, "lon": 5.757}, {"nom": "Les Éparres", "cp": "38300", "dept": "38", "lat": 45.5371, "lon": 5.2908}, {"nom": "Estrablin", "cp": "38780", "dept": "38", "lat": 45.5094, "lon": 4.9662}, {"nom": "Eybens", "cp": "38320", "dept": "38", "lat": 45.1526, "lon": 5.7487}, {"nom": "Eydoche", "cp": "38690", "dept": "38", "lat": 45.4439, "lon": 5.3355}, {"nom": "Eyzin-Pinet", "cp": "38780", "dept": "38", "lat": 45.4777, "lon": 4.9977}, {"nom": "Faramans", "cp": "38260", "dept": "38", "lat": 45.3865, "lon": 5.1548}, {"nom": "Faverges-de-la-Tour", "cp": "38110", "dept": "38", "lat": 45.5952, "lon": 5.5121}, {"nom": "Le Haut-Bréda", "cp": "38580", "dept": "38", "lat": 45.3017, "lon": 6.1095}, {"nom": "La Flachère", "cp": "38530", "dept": "38", "lat": 45.3994, "lon": 5.9615}, {"nom": "Flachères", "cp": "38690", "dept": "38", "lat": 45.4686, "lon": 5.3159}, {"nom": "Fontaine", "cp": "38600", "dept": "38", "lat": 45.194, "lon": 5.6763}, {"nom": "Fontanil-Cornillon", "cp": "38120", "dept": "38", "lat": 45.2554, "lon": 5.6614}, {"nom": "La Forteresse", "cp": "38590", "dept": "38", "lat": 45.294, "lon": 5.4092}, {"nom": "Four", "cp": "38080", "dept": "38", "lat": 45.5726, "lon": 5.196}, {"nom": "Le Freney-d'Oisans", "cp": "38142", "dept": "38", "lat": 45.0867, "lon": 6.1181}, {"nom": "La Frette", "cp": "38260", "dept": "38", "lat": 45.39, "lon": 5.3665}, {"nom": "Froges", "cp": "38190", "dept": "38", "lat": 45.2684, "lon": 5.9265}, {"nom": "Frontonas", "cp": "38290", "dept": "38", "lat": 45.6496, "lon": 5.1844}, {"nom": "La Garde", "cp": "38520", "dept": "38", "lat": 45.075, "lon": 6.0501}, {"nom": "Gières", "cp": "38610", "dept": "38", "lat": 45.1828, "lon": 5.7902}, {"nom": "Gillonnay", "cp": "38260", "dept": "38", "lat": 45.3841, "lon": 5.2963}, {"nom": "Goncelin", "cp": "38570", "dept": "38", "lat": 45.3365, "lon": 5.9886}, {"nom": "Le Grand-Lemps", "cp": "38690", "dept": "38", "lat": 45.3971, "lon": 5.4155}, {"nom": "Granieu", "cp": "38490", "dept": "38", "lat": 45.6, "lon": 5.5907}, {"nom": "Grenay", "cp": "38540", "dept": "38", "lat": 45.6597, "lon": 5.0756}, {"nom": "Grenoble", "cp": "38000", "dept": "38", "lat": 45.1842, "lon": 5.7155}, {"nom": "Gresse-en-Vercors", "cp": "38650", "dept": "38", "lat": 44.8783, "lon": 5.5284}, {"nom": "Le Gua", "cp": "38450", "dept": "38", "lat": 45.0136, "lon": 5.6158}, {"nom": "Herbeys", "cp": "38320", "dept": "38", "lat": 45.1437, "lon": 5.7968}, {"nom": "Heyrieux", "cp": "38540", "dept": "38", "lat": 45.6275, "lon": 5.0579}, {"nom": "Hières-sur-Amby", "cp": "38118", "dept": "38", "lat": 45.8009, "lon": 5.2914}, {"nom": "Huez", "cp": "38750", "dept": "38", "lat": 45.0972, "lon": 6.0813}, {"nom": "Hurtières", "cp": "38570", "dept": "38", "lat": 45.2877, "lon": 5.9678}, {"nom": "L'Isle-d'Abeau", "cp": "38080", "dept": "38", "lat": 45.6153, "lon": 5.2234}, {"nom": "Izeaux", "cp": "38140", "dept": "38", "lat": 45.3444, "lon": 5.4305}, {"nom": "Izeron", "cp": "38160", "dept": "38", "lat": 45.1438, "lon": 5.4009}, {"nom": "Janneyrias", "cp": "38280", "dept": "38", "lat": 45.7512, "lon": 5.1145}, {"nom": "Jarcieu", "cp": "38270", "dept": "38", "lat": 45.3348, "lon": 4.9502}, {"nom": "Jardin", "cp": "38200", "dept": "38", "lat": 45.49, "lon": 4.9113}, {"nom": "Jarrie", "cp": "38560", "dept": "38", "lat": 45.1114, "lon": 5.7491}, {"nom": "Laffrey", "cp": "38220", "dept": "38", "lat": 45.0271, "lon": 5.7792}, {"nom": "Lalley", "cp": "38930", "dept": "38", "lat": 44.7507, "lon": 5.6816}, {"nom": "Lans-en-Vercors", "cp": "38250", "dept": "38", "lat": 45.1254, "lon": 5.5858}, {"nom": "Laval-en-Belledonne", "cp": "38190", "dept": "38", "lat": 45.2335, "lon": 5.9745}, {"nom": "Lavaldens", "cp": "38350", "dept": "38", "lat": 44.9891, "lon": 5.8987}, {"nom": "Lavars", "cp": "38710", "dept": "38", "lat": 44.8534, "lon": 5.6827}, {"nom": "Lentiol", "cp": "38270", "dept": "38", "lat": 45.2977, "lon": 5.1027}, {"nom": "Leyrieu", "cp": "38460", "dept": "38", "lat": 45.7556, "lon": 5.2572}, {"nom": "Lieudieu", "cp": "38440", "dept": "38", "lat": 45.4579, "lon": 5.1779}, {"nom": "Livet-et-Gavet", "cp": "38220", "dept": "38", "lat": 45.0977, "lon": 5.9107}, {"nom": "Longechenal", "cp": "38690", "dept": "38", "lat": 45.4238, "lon": 5.3618}, {"nom": "Lumbin", "cp": "38660", "dept": "38", "lat": 45.3031, "lon": 5.9104}, {"nom": "Luzinay", "cp": "38200", "dept": "38", "lat": 45.5876, "lon": 4.9627}, {"nom": "Malleval-en-Vercors", "cp": "38470", "dept": "38", "lat": 45.1538, "lon": 5.444}, {"nom": "Marcieu", "cp": "38350", "dept": "38", "lat": 44.9206, "lon": 5.6971}, {"nom": "Marcilloles", "cp": "38260", "dept": "38", "lat": 45.3505, "lon": 5.1774}, {"nom": "Marcollin", "cp": "38270", "dept": "38", "lat": 45.3116, "lon": 5.0897}, {"nom": "Marnans", "cp": "38980", "dept": "38", "lat": 45.2902, "lon": 5.2509}, {"nom": "Massieu", "cp": "38620", "dept": "38", "lat": 45.438, "lon": 5.6017}, {"nom": "Maubec", "cp": "38300", "dept": "38", "lat": 45.5677, "lon": 5.2583}, {"nom": "Mayres-Savel", "cp": "38350", "dept": "38", "lat": 44.8897, "lon": 5.7062}, {"nom": "Autrans-Méaudre en Vercors", "cp": "38112", "dept": "38", "lat": 45.1713, "lon": 5.5444}, {"nom": "Mens", "cp": "38710", "dept": "38", "lat": 44.8116, "lon": 5.754}, {"nom": "Merlas", "cp": "38620", "dept": "38", "lat": 45.44, "lon": 5.6536}, {"nom": "Meylan", "cp": "38240", "dept": "38", "lat": 45.2147, "lon": 5.7865}, {"nom": "Meyrié", "cp": "38300", "dept": "38", "lat": 45.5606, "lon": 5.2834}, {"nom": "Meyrieu-les-Étangs", "cp": "38440", "dept": "38", "lat": 45.5156, "lon": 5.2014}, {"nom": "Meyssiez", "cp": "38440", "dept": "38", "lat": 45.4633, "lon": 5.0608}, {"nom": "Miribel-Lanchâtre", "cp": "38450", "dept": "38", "lat": 44.9755, "lon": 5.6062}, {"nom": "Miribel-les-Échelles", "cp": "38380", "dept": "38", "lat": 45.4363, "lon": 5.7076}, {"nom": "Mizoën", "cp": "38142", "dept": "38", "lat": 45.0407, "lon": 6.1772}, {"nom": "Moidieu-Détourbe", "cp": "38440", "dept": "38", "lat": 45.5151, "lon": 5.0181}, {"nom": "Moirans", "cp": "38430", "dept": "38", "lat": 45.3227, "lon": 5.5676}, {"nom": "Moissieu-sur-Dolon", "cp": "38270", "dept": "38", "lat": 45.3889, "lon": 4.9873}, {"nom": "Monestier-d'Ambel", "cp": "38970", "dept": "38", "lat": 44.7681, "lon": 5.9188}, {"nom": "Monestier-de-Clermont", "cp": "38650", "dept": "38", "lat": 44.9224, "lon": 5.6343}, {"nom": "Monestier-du-Percy", "cp": "38930", "dept": "38", "lat": 44.7844, "lon": 5.6493}, {"nom": "Monsteroux-Milieu", "cp": "38122", "dept": "38", "lat": 45.4344, "lon": 4.952}, {"nom": "Montagne", "cp": "38160", "dept": "38", "lat": 45.1417, "lon": 5.2034}, {"nom": "Montagnieu", "cp": "38110", "dept": "38", "lat": 45.5268, "lon": 5.4549}, {"nom": "Montalieu-Vercieu", "cp": "38390", "dept": "38", "lat": 45.8143, "lon": 5.4036}, {"nom": "Montaud", "cp": "38210", "dept": "38", "lat": 45.2614, "lon": 5.5652}, {"nom": "Montbonnot-Saint-Martin", "cp": "38330", "dept": "38", "lat": 45.2213, "lon": 5.8148}, {"nom": "Montcarra", "cp": "38890", "dept": "38", "lat": 45.6091, "lon": 5.4017}, {"nom": "Montchaboud", "cp": "38220", "dept": "38", "lat": 45.0916, "lon": 5.7603}, {"nom": "Les Deux Alpes", "cp": "38520", "dept": "38", "lat": 44.9885, "lon": 6.1349}, {"nom": "Monteynard", "cp": "38770", "dept": "38", "lat": 44.9792, "lon": 5.7033}, {"nom": "Montfalcon", "cp": "38940", "dept": "38", "lat": 45.2604, "lon": 5.1716}, {"nom": "Montferrat", "cp": "38620", "dept": "38", "lat": 45.4785, "lon": 5.58}, {"nom": "Montrevel", "cp": "38690", "dept": "38", "lat": 45.4764, "lon": 5.4095}, {"nom": "Mont-Saint-Martin", "cp": "38120", "dept": "38", "lat": 45.2816, "lon": 5.6827}, {"nom": "Montseveroux", "cp": "38122", "dept": "38", "lat": 45.4327, "lon": 4.9728}, {"nom": "Moras", "cp": "38460", "dept": "38", "lat": 45.6856, "lon": 5.2626}, {"nom": "Morestel", "cp": "38510", "dept": "38", "lat": 45.6812, "lon": 5.4716}, {"nom": "Morette", "cp": "38210", "dept": "38", "lat": 45.2846, "lon": 5.4516}, {"nom": "La Morte", "cp": "38350", "dept": "38", "lat": 45.0269, "lon": 5.867}, {"nom": "La Motte-d'Aveillans", "cp": "38770", "dept": "38", "lat": 44.9459, "lon": 5.7391}, {"nom": "La Motte-Saint-Martin", "cp": "38770", "dept": "38", "lat": 44.9517, "lon": 5.7133}, {"nom": "Mottier", "cp": "38260", "dept": "38", "lat": 45.4225, "lon": 5.3086}, {"nom": "Le Moutaret", "cp": "38580", "dept": "38", "lat": 45.428, "lon": 6.0813}, {"nom": "La Mure", "cp": "38350", "dept": "38", "lat": 44.9103, "lon": 5.7861}, {"nom": "La Murette", "cp": "38140", "dept": "38", "lat": 45.383, "lon": 5.5424}, {"nom": "Murianette", "cp": "38420", "dept": "38", "lat": 45.1895, "lon": 5.8259}, {"nom": "Murinais", "cp": "38160", "dept": "38", "lat": 45.2146, "lon": 5.3219}, {"nom": "Nantes-en-Ratier", "cp": "38350", "dept": "38", "lat": 44.9294, "lon": 5.8285}, {"nom": "Serre-Nerpol", "cp": "38470", "dept": "38", "lat": 45.2566, "lon": 5.373}, {"nom": "Nivolas-Vermelle", "cp": "38300", "dept": "38", "lat": 45.5638, "lon": 5.3084}, {"nom": "Notre-Dame-de-Commiers", "cp": "38450", "dept": "38", "lat": 45.0103, "lon": 5.7072}, {"nom": "Notre-Dame-de-l'Osier", "cp": "38470", "dept": "38", "lat": 45.2384, "lon": 5.4112}, {"nom": "Notre-Dame-de-Mésage", "cp": "38220", "dept": "38", "lat": 45.0672, "lon": 5.751}, {"nom": "Notre-Dame-de-Vaulx", "cp": "38144", "dept": "38", "lat": 44.9939, "lon": 5.7398}, {"nom": "Noyarey", "cp": "38360", "dept": "38", "lat": 45.2418, "lon": 5.62}, {"nom": "Optevoz", "cp": "38460", "dept": "38", "lat": 45.752, "lon": 5.3406}, {"nom": "Oris-en-Rattier", "cp": "38350", "dept": "38", "lat": 44.9327, "lon": 5.8872}, {"nom": "Ornacieux-Balbins", "cp": "38260", "dept": "38", "lat": 45.3943, "lon": 5.2137}, {"nom": "Ornon", "cp": "38520", "dept": "38", "lat": 45.0393, "lon": 5.9611}, {"nom": "Oulles", "cp": "38520", "dept": "38", "lat": 45.0781, "lon": 5.966}, {"nom": "Oyeu", "cp": "38690", "dept": "38", "lat": 45.4283, "lon": 5.4787}, {"nom": "Oytier-Saint-Oblas", "cp": "38780", "dept": "38", "lat": 45.5613, "lon": 5.0303}, {"nom": "Oz", "cp": "38114", "dept": "38", "lat": 45.1282, "lon": 6.0752}, {"nom": "Pact", "cp": "38270", "dept": "38", "lat": 45.3532, "lon": 4.9867}, {"nom": "Pajay", "cp": "38260", "dept": "38", "lat": 45.3626, "lon": 5.1279}, {"nom": "Villages du Lac de Paladru", "cp": "38730", "dept": "38", "lat": 45.4743, "lon": 5.5339}, {"nom": "Panossas", "cp": "38460", "dept": "38", "lat": 45.6772, "lon": 5.1902}, {"nom": "Parmilieu", "cp": "38390", "dept": "38", "lat": 45.8437, "lon": 5.3595}, {"nom": "Le Passage", "cp": "38490", "dept": "38", "lat": 45.5265, "lon": 5.5157}, {"nom": "Arandon-Passins", "cp": "38510", "dept": "38", "lat": 45.7064, "lon": 5.4373}, {"nom": "Le Péage-de-Roussillon", "cp": "38550", "dept": "38", "lat": 45.3723, "lon": 4.7825}, {"nom": "Pellafol", "cp": "38970", "dept": "38", "lat": 44.7832, "lon": 5.8751}, {"nom": "Penol", "cp": "38260", "dept": "38", "lat": 45.3691, "lon": 5.1625}, {"nom": "Le Percy", "cp": "38930", "dept": "38", "lat": 44.7894, "lon": 5.6313}, {"nom": "La Pierre", "cp": "38570", "dept": "38", "lat": 45.2943, "lon": 5.9428}, {"nom": "Pierre-Châtel", "cp": "38119", "dept": "38", "lat": 44.9565, "lon": 5.7717}, {"nom": "Pisieu", "cp": "38270", "dept": "38", "lat": 45.3858, "lon": 5.0723}, {"nom": "Plan", "cp": "38590", "dept": "38", "lat": 45.3161, "lon": 5.3902}, {"nom": "Poisat", "cp": "38320", "dept": "38", "lat": 45.1535, "lon": 5.7701}, {"nom": "Poliénas", "cp": "38210", "dept": "38", "lat": 45.2472, "lon": 5.4818}, {"nom": "Pommier-de-Beaurepaire", "cp": "38260", "dept": "38", "lat": 45.3882, "lon": 5.1134}, {"nom": "Ponsonnas", "cp": "38350", "dept": "38", "lat": 44.89, "lon": 5.7979}, {"nom": "Pontcharra", "cp": "38530", "dept": "38", "lat": 45.4225, "lon": 6.0228}, {"nom": "Le Pont-de-Beauvoisin", "cp": "38480", "dept": "38", "lat": 45.5304, "lon": 5.6622}, {"nom": "Pont-de-Chéruy", "cp": "38230", "dept": "38", "lat": 45.7494, "lon": 5.1728}, {"nom": "Le Pont-de-Claix", "cp": "38800", "dept": "38", "lat": 45.123, "lon": 5.7017}, {"nom": "Pont-Évêque", "cp": "38780", "dept": "38", "lat": 45.5335, "lon": 4.9278}, {"nom": "Pont-en-Royans", "cp": "38680", "dept": "38", "lat": 45.0622, "lon": 5.3452}, {"nom": "Porcieu-Amblagnieu", "cp": "38390", "dept": "38", "lat": 45.8373, "lon": 5.3982}, {"nom": "Prébois", "cp": "38710", "dept": "38", "lat": 44.7772, "lon": 5.7158}, {"nom": "Presles", "cp": "38680", "dept": "38", "lat": 45.0927, "lon": 5.406}, {"nom": "Pressins", "cp": "38480", "dept": "38", "lat": 45.5271, "lon": 5.6318}, {"nom": "Primarette", "cp": "38270", "dept": "38", "lat": 45.4056, "lon": 5.0319}, {"nom": "Proveysieux", "cp": "38120", "dept": "38", "lat": 45.2821, "lon": 5.7154}, {"nom": "Prunières", "cp": "38350", "dept": "38", "lat": 44.8943, "lon": 5.7524}, {"nom": "Quaix-en-Chartreuse", "cp": "38950", "dept": "38", "lat": 45.2591, "lon": 5.7302}, {"nom": "Quet-en-Beaumont", "cp": "38970", "dept": "38", "lat": 44.8352, "lon": 5.875}, {"nom": "Quincieu", "cp": "38470", "dept": "38", "lat": 45.2771, "lon": 5.3898}, {"nom": "Réaumont", "cp": "38140", "dept": "38", "lat": 45.3598, "lon": 5.524}, {"nom": "Renage", "cp": "38140", "dept": "38", "lat": 45.3295, "lon": 5.4939}, {"nom": "Rencurel", "cp": "38680", "dept": "38", "lat": 45.1178, "lon": 5.4752}, {"nom": "Revel", "cp": "38420", "dept": "38", "lat": 45.1677, "lon": 5.9176}, {"nom": "Revel-Tourdan", "cp": "38270", "dept": "38", "lat": 45.372, "lon": 5.0295}, {"nom": "Reventin-Vaugris", "cp": "38121", "dept": "38", "lat": 45.4757, "lon": 4.8438}, {"nom": "Rives", "cp": "38140", "dept": "38", "lat": 45.3606, "lon": 5.4848}, {"nom": "La Rivière", "cp": "38210", "dept": "38", "lat": 45.2236, "lon": 5.5117}, {"nom": "Roche", "cp": "38090", "dept": "38", "lat": 45.578, "lon": 5.1557}, {"nom": "Les Roches-de-Condrieu", "cp": "38370", "dept": "38", "lat": 45.4532, "lon": 4.7656}, {"nom": "Rochetoirin", "cp": "38110", "dept": "38", "lat": 45.5854, "lon": 5.414}, {"nom": "Roissard", "cp": "38650", "dept": "38", "lat": 44.8826, "lon": 5.6334}, {"nom": "Romagnieu", "cp": "38480", "dept": "38", "lat": 45.5653, "lon": 5.6446}, {"nom": "Roussillon", "cp": "38150", "dept": "38", "lat": 45.3818, "lon": 4.8133}, {"nom": "Rovon", "cp": "38470", "dept": "38", "lat": 45.1843, "lon": 5.4639}, {"nom": "Royas", "cp": "38440", "dept": "38", "lat": 45.5048, "lon": 5.1019}, {"nom": "Roybon", "cp": "38940", "dept": "38", "lat": 45.2435, "lon": 5.2547}, {"nom": "Ruy-Montceau", "cp": "38300", "dept": "38", "lat": 45.5881, "lon": 5.3482}, {"nom": "Sablons", "cp": "38550", "dept": "38", "lat": 45.3204, "lon": 4.785}, {"nom": "Sainte-Agnès", "cp": "38190", "dept": "38", "lat": 45.2096, "lon": 5.9503}, {"nom": "Saint-Agnin-sur-Bion", "cp": "38300", "dept": "38", "lat": 45.537, "lon": 5.236}, {"nom": "Saint-Alban-de-Roche", "cp": "38080", "dept": "38", "lat": 45.5889, "lon": 5.2243}, {"nom": "Saint-Alban-du-Rhône", "cp": "38370", "dept": "38", "lat": 45.4204, "lon": 4.755}, {"nom": "Saint-Albin-de-Vaulserre", "cp": "38480", "dept": "38", "lat": 45.5022, "lon": 5.6985}, {"nom": "Saint-Andéol", "cp": "38650", "dept": "38", "lat": 44.9563, "lon": 5.5232}, {"nom": "Saint-André-en-Royans", "cp": "38680", "dept": "38", "lat": 45.0797, "lon": 5.3406}, {"nom": "Saint-André-le-Gaz", "cp": "38490", "dept": "38", "lat": 45.5477, "lon": 5.5336}, {"nom": "Sainte-Anne-sur-Gervonde", "cp": "38440", "dept": "38", "lat": 45.4998, "lon": 5.2354}, {"nom": "Saint Antoine l'Abbaye", "cp": "38160", "dept": "38", "lat": 45.1793, "lon": 5.2124}, {"nom": "Saint-Appolinard", "cp": "38160", "dept": "38", "lat": 45.1896, "lon": 5.259}, {"nom": "Saint-Arey", "cp": "38350", "dept": "38", "lat": 44.8879, "lon": 5.7449}, {"nom": "Saint-Aupre", "cp": "38960", "dept": "38", "lat": 45.4038, "lon": 5.6603}, {"nom": "Saint-Barthélemy", "cp": "38270", "dept": "38", "lat": 45.342, "lon": 5.0823}, {"nom": "Saint-Barthélemy-de-Séchilienne", "cp": "38220", "dept": "38", "lat": 45.0351, "lon": 5.8212}, {"nom": "Saint-Baudille-de-la-Tour", "cp": "38118", "dept": "38", "lat": 45.7905, "lon": 5.347}, {"nom": "Saint-Baudille-et-Pipet", "cp": "38710", "dept": "38", "lat": 44.7815, "lon": 5.7713}, {"nom": "Saint-Blaise-du-Buis", "cp": "38140", "dept": "38", "lat": 45.3821, "lon": 5.5119}, {"nom": "Sainte-Blandine", "cp": "38110", "dept": "38", "lat": 45.545, "lon": 5.436}, {"nom": "Saint-Bonnet-de-Chavagne", "cp": "38840", "dept": "38", "lat": 45.1179, "lon": 5.2284}, {"nom": "Saint-Bueil", "cp": "38620", "dept": "38", "lat": 45.475, "lon": 5.6807}, {"nom": "Saint-Cassien", "cp": "38500", "dept": "38", "lat": 45.3594, "lon": 5.5498}, {"nom": "Saint-Chef", "cp": "38890", "dept": "38", "lat": 45.6401, "lon": 5.3619}, {"nom": "Saint-Christophe-en-Oisans", "cp": "38520", "dept": "38", "lat": 44.9304, "lon": 6.2327}, {"nom": "Saint-Christophe-sur-Guiers", "cp": "38380", "dept": "38", "lat": 45.4055, "lon": 5.7964}, {"nom": "Saint-Clair-de-la-Tour", "cp": "38110", "dept": "38", "lat": 45.5717, "lon": 5.4863}, {"nom": "Saint-Clair-du-Rhône", "cp": "38370", "dept": "38", "lat": 45.4357, "lon": 4.7739}, {"nom": "Saint-Clair-sur-Galaure", "cp": "38940", "dept": "38", "lat": 45.2698, "lon": 5.1493}, {"nom": "Saint-Didier-de-Bizonnes", "cp": "38690", "dept": "38", "lat": 45.4599, "lon": 5.3437}, {"nom": "Saint-Didier-de-la-Tour", "cp": "38110", "dept": "38", "lat": 45.5446, "lon": 5.4877}, {"nom": "Saint-Égrève", "cp": "38120", "dept": "38", "lat": 45.2315, "lon": 5.6828}, {"nom": "Saint-Étienne-de-Crossey", "cp": "38960", "dept": "38", "lat": 45.3797, "lon": 5.6344}, {"nom": "Saint-Étienne-de-Saint-Geoirs", "cp": "38590", "dept": "38", "lat": 45.3468, "lon": 5.3504}, {"nom": "Saint-Geoire-en-Valdaine", "cp": "38620", "dept": "38", "lat": 45.4628, "lon": 5.6335}, {"nom": "Saint-Geoirs", "cp": "38590", "dept": "38", "lat": 45.3128, "lon": 5.3555}, {"nom": "Saint-Georges-de-Commiers", "cp": "38450", "dept": "38", "lat": 45.0356, "lon": 5.7218}, {"nom": "Saint-Georges-d'Espéranche", "cp": "38790", "dept": "38", "lat": 45.5628, "lon": 5.089}, {"nom": "Saint-Gervais", "cp": "38470", "dept": "38", "lat": 45.1881, "lon": 5.4959}, {"nom": "Saint-Guillaume", "cp": "38650", "dept": "38", "lat": 44.9448, "lon": 5.5911}, {"nom": "Saint-Hilaire-de-Brens", "cp": "38460", "dept": "38", "lat": 45.677, "lon": 5.2913}, {"nom": "Saint-Hilaire-de-la-Côte", "cp": "38260", "dept": "38", "lat": 45.3875, "lon": 5.3333}, {"nom": "Saint-Hilaire-du-Rosier", "cp": "38840", "dept": "38", "lat": 45.0931, "lon": 5.2466}, {"nom": "Plateau-des-Petites-Roches", "cp": "38660", "dept": "38", "lat": 45.3343, "lon": 5.8827}, {"nom": "Saint-Honoré", "cp": "38350", "dept": "38", "lat": 44.9571, "lon": 5.8217}, {"nom": "Saint-Ismier", "cp": "38330", "dept": "38", "lat": 45.2503, "lon": 5.8274}, {"nom": "Saint-Jean-d'Avelanne", "cp": "38480", "dept": "38", "lat": 45.5079, "lon": 5.6679}, {"nom": "Saint-Jean-de-Bournay", "cp": "38440", "dept": "38", "lat": 45.4964, "lon": 5.145}, {"nom": "Saint-Jean-de-Moirans", "cp": "38430", "dept": "38", "lat": 45.3338, "lon": 5.5848}, {"nom": "Saint-Jean-de-Soudain", "cp": "38110", "dept": "38", "lat": 45.5842, "lon": 5.435}, {"nom": "Saint-Jean-de-Vaulx", "cp": "38220", "dept": "38", "lat": 45.0217, "lon": 5.7498}, {"nom": "Saint-Jean-d'Hérans", "cp": "38710", "dept": "38", "lat": 44.8567, "lon": 5.7621}, {"nom": "Saint-Jean-le-Vieux", "cp": "38420", "dept": "38", "lat": 45.2087, "lon": 5.8766}, {"nom": "Saint-Joseph-de-Rivière", "cp": "38134", "dept": "38", "lat": 45.3652, "lon": 5.6937}, {"nom": "Saint-Julien-de-l'Herms", "cp": "38122", "dept": "38", "lat": 45.4306, "lon": 5.0893}, {"nom": "La Sure en Chartreuse", "cp": "38134", "dept": "38", "lat": 45.3361, "lon": 5.6744}, {"nom": "Saint-Just-Chaleyssin", "cp": "38540", "dept": "38", "lat": 45.5867, "lon": 5.0077}, {"nom": "Saint-Just-de-Claix", "cp": "38680", "dept": "38", "lat": 45.0822, "lon": 5.2757}, {"nom": "Saint-Lattier", "cp": "38840", "dept": "38", "lat": 45.0935, "lon": 5.1802}, {"nom": "Saint-Laurent-du-Pont", "cp": "38380", "dept": "38", "lat": 45.3812, "lon": 5.7307}, {"nom": "Saint-Laurent-en-Beaumont", "cp": "38350", "dept": "38", "lat": 44.8859, "lon": 5.8475}, {"nom": "Sainte-Luce", "cp": "38970", "dept": "38", "lat": 44.8461, "lon": 5.9058}, {"nom": "Saint-Marcel-Bel-Accueil", "cp": "38080", "dept": "38", "lat": 45.6502, "lon": 5.2419}, {"nom": "Saint-Marcellin", "cp": "38160", "dept": "38", "lat": 45.1526, "lon": 5.3166}, {"nom": "Sainte-Marie-d'Alloix", "cp": "38660", "dept": "38", "lat": 45.3853, "lon": 5.9735}, {"nom": "Sainte-Marie-du-Mont", "cp": "38660", "dept": "38", "lat": 45.4051, "lon": 5.9294}, {"nom": "Saint-Martin-de-Clelles", "cp": "38930", "dept": "38", "lat": 44.8455, "lon": 5.6055}, {"nom": "Saint-Martin-de-Vaulserre", "cp": "38480", "dept": "38", "lat": 45.4911, "lon": 5.6835}, {"nom": "Saint-Martin-d'Hères", "cp": "38400", "dept": "38", "lat": 45.1782, "lon": 5.7646}, {"nom": "Saint-Martin-d'Uriage", "cp": "38410", "dept": "38", "lat": 45.1568, "lon": 5.8592}, {"nom": "Saint-Martin-le-Vinoux", "cp": "38950", "dept": "38", "lat": 45.2184, "lon": 5.7104}, {"nom": "Saint-Maurice-en-Trièves", "cp": "38930", "dept": "38", "lat": 44.7585, "lon": 5.6573}, {"nom": "Saint-Maurice-l'Exil", "cp": "38550", "dept": "38", "lat": 45.3911, "lon": 4.7774}, {"nom": "Saint-Maximin", "cp": "38530", "dept": "38", "lat": 45.425, "lon": 6.0493}, {"nom": "Saint-Michel-de-Saint-Geoirs", "cp": "38590", "dept": "38", "lat": 45.3008, "lon": 5.3587}, {"nom": "Saint-Michel-en-Beaumont", "cp": "38350", "dept": "38", "lat": 44.869, "lon": 5.9151}, {"nom": "Saint-Michel-les-Portes", "cp": "38650", "dept": "38", "lat": 44.8665, "lon": 5.584}, {"nom": "Saint-Mury-Monteymond", "cp": "38190", "dept": "38", "lat": 45.2091, "lon": 5.9353}, {"nom": "Saint-Nazaire-les-Eymes", "cp": "38330", "dept": "38", "lat": 45.2648, "lon": 5.8482}, {"nom": "Saint-Nicolas-de-Macherin", "cp": "38500", "dept": "38", "lat": 45.4057, "lon": 5.6152}, {"nom": "Saint-Nizier-du-Moucherotte", "cp": "38250", "dept": "38", "lat": 45.1638, "lon": 5.6306}, {"nom": "Saint-Ondras", "cp": "38490", "dept": "38", "lat": 45.5185, "lon": 5.5452}, {"nom": "Saint-Paul-de-Varces", "cp": "38760", "dept": "38", "lat": 45.0646, "lon": 5.6319}, {"nom": "Saint-Paul-d'Izeaux", "cp": "38140", "dept": "38", "lat": 45.313, "lon": 5.4333}, {"nom": "Saint-Paul-lès-Monestier", "cp": "38650", "dept": "38", "lat": 44.9304, "lon": 5.6127}, {"nom": "Crêts en Belledonne", "cp": "38570", "dept": "38", "lat": 45.3569, "lon": 6.0314}, {"nom": "Saint-Pierre-de-Bressieux", "cp": "38870", "dept": "38", "lat": 45.3034, "lon": 5.2968}, {"nom": "Saint-Pierre-de-Chartreuse", "cp": "38380", "dept": "38", "lat": 45.3312, "lon": 5.7933}, {"nom": "Saint-Pierre-de-Chérennes", "cp": "38160", "dept": "38", "lat": 45.1234, "lon": 5.39}, {"nom": "Saint-Pierre-de-Méaroz", "cp": "38350", "dept": "38", "lat": 44.8725, "lon": 5.8178}, {"nom": "Saint-Pierre-de-Mésage", "cp": "38220", "dept": "38", "lat": 45.0491, "lon": 5.7669}, {"nom": "Saint-Pierre-d'Entremont", "cp": "38380", "dept": "38", "lat": 45.3835, "lon": 5.8523}, {"nom": "Saint-Prim", "cp": "38370", "dept": "38", "lat": 45.4441, "lon": 4.8067}, {"nom": "Saint-Quentin-Fallavier", "cp": "38070", "dept": "38", "lat": 45.6392, "lon": 5.1128}, {"nom": "Saint-Quentin-sur-Isère", "cp": "38210", "dept": "38", "lat": 45.275, "lon": 5.554}, {"nom": "Saint-Romain-de-Jalionas", "cp": "38460", "dept": "38", "lat": 45.7527, "lon": 5.2227}, {"nom": "Saint-Romain-de-Surieu", "cp": "38150", "dept": "38", "lat": 45.3912, "lon": 4.8898}, {"nom": "Saint-Romans", "cp": "38160", "dept": "38", "lat": 45.1049, "lon": 5.3178}, {"nom": "Saint-Sauveur", "cp": "38160", "dept": "38", "lat": 45.1433, "lon": 5.3457}, {"nom": "Saint-Savin", "cp": "38300", "dept": "38", "lat": 45.6282, "lon": 5.3216}, {"nom": "Châtel-en-Trièves", "cp": "38710", "dept": "38", "lat": 44.8244, "lon": 5.8308}, {"nom": "Saint-Siméon-de-Bressieux", "cp": "38870", "dept": "38", "lat": 45.321, "lon": 5.266}, {"nom": "Saint-Sorlin-de-Morestel", "cp": "38510", "dept": "38", "lat": 45.632, "lon": 5.4716}, {"nom": "Saint-Sorlin-de-Vienne", "cp": "38200", "dept": "38", "lat": 45.4756, "lon": 4.9391}, {"nom": "Saint-Sulpice-des-Rivoires", "cp": "38620", "dept": "38", "lat": 45.4681, "lon": 5.6019}, {"nom": "Saint-Théoffrey", "cp": "38119", "dept": "38", "lat": 44.9951, "lon": 5.7764}, {"nom": "Saint-Vérand", "cp": "38160", "dept": "38", "lat": 45.1816, "lon": 5.3426}, {"nom": "Saint-Victor-de-Cessieu", "cp": "38110", "dept": "38", "lat": 45.5379, "lon": 5.3814}, {"nom": "Saint-Victor-de-Morestel", "cp": "38510", "dept": "38", "lat": 45.7042, "lon": 5.4956}, {"nom": "Saint-Vincent-de-Mercuze", "cp": "38660", "dept": "38", "lat": 45.374, "lon": 5.957}, {"nom": "Salagnon", "cp": "38890", "dept": "38", "lat": 45.6717, "lon": 5.3523}, {"nom": "Salaise-sur-Sanne", "cp": "38150", "dept": "38", "lat": 45.3432, "lon": 4.8028}, {"nom": "La Salette-Fallavaux", "cp": "38970", "dept": "38", "lat": 44.8422, "lon": 5.9877}, {"nom": "La Salle-en-Beaumont", "cp": "38350", "dept": "38", "lat": 44.8581, "lon": 5.8639}, {"nom": "Le Sappey-en-Chartreuse", "cp": "38700", "dept": "38", "lat": 45.2617, "lon": 5.7868}, {"nom": "Sarcenas", "cp": "38700", "dept": "38", "lat": 45.2828, "lon": 5.7632}, {"nom": "Sardieu", "cp": "38260", "dept": "38", "lat": 45.3601, "lon": 5.2192}, {"nom": "Sassenage", "cp": "38360", "dept": "38", "lat": 45.2141, "lon": 5.6541}, {"nom": "Satolas-et-Bonce", "cp": "38290", "dept": "38", "lat": 45.6821, "lon": 5.1218}, {"nom": "Savas-Mépin", "cp": "38440", "dept": "38", "lat": 45.5029, "lon": 5.0638}, {"nom": "Séchilienne", "cp": "38220", "dept": "38", "lat": 45.0733, "lon": 5.8326}, {"nom": "Porte-des-Bonnevaux", "cp": "38260", "dept": "38", "lat": 45.432, "lon": 5.2153}, {"nom": "Septème", "cp": "38780", "dept": "38", "lat": 45.5514, "lon": 4.9881}, {"nom": "Sérézin-de-la-Tour", "cp": "38300", "dept": "38", "lat": 45.5554, "lon": 5.3483}, {"nom": "Sermérieu", "cp": "38510", "dept": "38", "lat": 45.6689, "lon": 5.4123}, {"nom": "Serpaize", "cp": "38200", "dept": "38", "lat": 45.5581, "lon": 4.9211}, {"nom": "Seyssinet-Pariset", "cp": "38170", "dept": "38", "lat": 45.1721, "lon": 5.6701}, {"nom": "Seyssins", "cp": "38180", "dept": "38", "lat": 45.1578, "lon": 5.6697}, {"nom": "Seyssuel", "cp": "38200", "dept": "38", "lat": 45.5624, "lon": 4.841}, {"nom": "Siccieu-Saint-Julien-et-Carisieu", "cp": "38460", "dept": "38", "lat": 45.7286, "lon": 5.3089}, {"nom": "Siévoz", "cp": "38350", "dept": "38", "lat": 44.9045, "lon": 5.8503}, {"nom": "Sillans", "cp": "38590", "dept": "38", "lat": 45.3473, "lon": 5.3924}, {"nom": "Sinard", "cp": "38650", "dept": "38", "lat": 44.9438, "lon": 5.6558}, {"nom": "Soleymieu", "cp": "38460", "dept": "38", "lat": 45.7031, "lon": 5.3622}, {"nom": "La Sône", "cp": "38840", "dept": "38", "lat": 45.1173, "lon": 5.2782}, {"nom": "Sonnay", "cp": "38150", "dept": "38", "lat": 45.3563, "lon": 4.9163}, {"nom": "Sousville", "cp": "38350", "dept": "38", "lat": 44.9119, "lon": 5.8066}, {"nom": "Succieu", "cp": "38300", "dept": "38", "lat": 45.5285, "lon": 5.3416}, {"nom": "Susville", "cp": "38350", "dept": "38", "lat": 44.928, "lon": 5.7607}, {"nom": "Têche", "cp": "38470", "dept": "38", "lat": 45.1806, "lon": 5.3763}, {"nom": "Tencin", "cp": "38570", "dept": "38", "lat": 45.3103, "lon": 5.9617}, {"nom": "La Terrasse", "cp": "38660", "dept": "38", "lat": 45.3237, "lon": 5.9319}, {"nom": "Theys", "cp": "38570", "dept": "38", "lat": 45.2958, "lon": 6.0067}, {"nom": "Thodure", "cp": "38260", "dept": "38", "lat": 45.3154, "lon": 5.1558}, {"nom": "Tignieu-Jameyzieu", "cp": "38230", "dept": "38", "lat": 45.7321, "lon": 5.183}, {"nom": "Torchefelon", "cp": "38690", "dept": "38", "lat": 45.5172, "lon": 5.3984}, {"nom": "La Tour-du-Pin", "cp": "38110", "dept": "38", "lat": 45.5743, "lon": 5.4459}, {"nom": "Le Touvet", "cp": "38660", "dept": "38", "lat": 45.3512, "lon": 5.9481}, {"nom": "Tramolé", "cp": "38300", "dept": "38", "lat": 45.5153, "lon": 5.2656}, {"nom": "Treffort", "cp": "38650", "dept": "38", "lat": 44.9008, "lon": 5.6591}, {"nom": "Tréminis", "cp": "38710", "dept": "38", "lat": 44.7317, "lon": 5.7669}, {"nom": "Trept", "cp": "38460", "dept": "38", "lat": 45.6864, "lon": 5.3239}, {"nom": "La Tronche", "cp": "38700", "dept": "38", "lat": 45.2117, "lon": 5.7443}, {"nom": "Tullins", "cp": "38210", "dept": "38", "lat": 45.2924, "lon": 5.4874}, {"nom": "Valbonnais", "cp": "38740", "dept": "38", "lat": 44.9029, "lon": 5.9066}, {"nom": "Valencin", "cp": "38540", "dept": "38", "lat": 45.6058, "lon": 5.0259}, {"nom": "Valencogne", "cp": "38730", "dept": "38", "lat": 45.4893, "lon": 5.5344}, {"nom": "La Valette", "cp": "38350", "dept": "38", "lat": 44.9411, "lon": 5.8546}, {"nom": "Valjouffrey", "cp": "38740", "dept": "38", "lat": 44.8776, "lon": 6.0948}, {"nom": "Varacieux", "cp": "38470", "dept": "38", "lat": 45.2277, "lon": 5.3409}, {"nom": "Varces-Allières-et-Risset", "cp": "38760", "dept": "38", "lat": 45.0884, "lon": 5.6699}, {"nom": "Vasselin", "cp": "38890", "dept": "38", "lat": 45.6293, "lon": 5.4504}, {"nom": "Vatilieu", "cp": "38470", "dept": "38", "lat": 45.2594, "lon": 5.4109}, {"nom": "Vaujany", "cp": "38114", "dept": "38", "lat": 45.1884, "lon": 6.0995}, {"nom": "Vaulnaveys-le-Bas", "cp": "38410", "dept": "38", "lat": 45.1002, "lon": 5.8123}, {"nom": "Vaulnaveys-le-Haut", "cp": "38410", "dept": "38", "lat": 45.1159, "lon": 5.8354}, {"nom": "Vaulx-Milieu", "cp": "38090", "dept": "38", "lat": 45.6174, "lon": 5.1868}, {"nom": "Velanne", "cp": "38620", "dept": "38", "lat": 45.4888, "lon": 5.6441}, {"nom": "Vénérieu", "cp": "38460", "dept": "38", "lat": 45.6593, "lon": 5.2785}, {"nom": "Venon", "cp": "38610", "dept": "38", "lat": 45.1742, "lon": 5.8112}, {"nom": "Vernas", "cp": "38460", "dept": "38", "lat": 45.7769, "lon": 5.2647}, {"nom": "Vernioz", "cp": "38150", "dept": "38", "lat": 45.4345, "lon": 4.8946}, {"nom": "La Verpillière", "cp": "38290", "dept": "38", "lat": 45.6376, "lon": 5.1494}, {"nom": "Le Versoud", "cp": "38420", "dept": "38", "lat": 45.22, "lon": 5.8598}, {"nom": "Vertrieu", "cp": "38390", "dept": "38", "lat": 45.8692, "lon": 5.3703}, {"nom": "Veurey-Voroize", "cp": "38113", "dept": "38", "lat": 45.2713, "lon": 5.6042}, {"nom": "Veyssilieu", "cp": "38460", "dept": "38", "lat": 45.6805, "lon": 5.2283}, {"nom": "Vézeronce-Curtin", "cp": "38510", "dept": "38", "lat": 45.6534, "lon": 5.469}, {"nom": "Vienne", "cp": "38200", "dept": "38", "lat": 45.5221, "lon": 4.8803}, {"nom": "Vif", "cp": "38450", "dept": "38", "lat": 45.043, "lon": 5.6712}, {"nom": "Vignieu", "cp": "38890", "dept": "38", "lat": 45.6315, "lon": 5.4227}, {"nom": "Villard-Bonnot", "cp": "38190", "dept": "38", "lat": 45.2455, "lon": 5.8837}, {"nom": "Villard-de-Lans", "cp": "38250", "dept": "38", "lat": 45.051, "lon": 5.5392}, {"nom": "Villard-Notre-Dame", "cp": "38520", "dept": "38", "lat": 45.0104, "lon": 6.0326}, {"nom": "Villard-Reculas", "cp": "38114", "dept": "38", "lat": 45.0924, "lon": 6.0391}, {"nom": "Villard-Reymond", "cp": "38520", "dept": "38", "lat": 45.0279, "lon": 6.0068}, {"nom": "Villard-Saint-Christophe", "cp": "38119", "dept": "38", "lat": 44.9829, "lon": 5.8233}, {"nom": "Villefontaine", "cp": "38090", "dept": "38", "lat": 45.6161, "lon": 5.1549}, {"nom": "Villemoirieu", "cp": "38460", "dept": "38", "lat": 45.7138, "lon": 5.2348}, {"nom": "Villeneuve-de-Marc", "cp": "38440", "dept": "38", "lat": 45.4627, "lon": 5.1202}, {"nom": "Ville-sous-Anjou", "cp": "38150", "dept": "38", "lat": 45.3764, "lon": 4.8638}, {"nom": "Villette-d'Anthon", "cp": "38280", "dept": "38", "lat": 45.7878, "lon": 5.1019}, {"nom": "Villette-de-Vienne", "cp": "38200", "dept": "38", "lat": 45.5883, "lon": 4.9109}, {"nom": "Vinay", "cp": "38470", "dept": "38", "lat": 45.2144, "lon": 5.4078}, {"nom": "Val-de-Virieu", "cp": "38730", "dept": "38", "lat": 45.476, "lon": 5.4716}, {"nom": "Viriville", "cp": "38980", "dept": "38", "lat": 45.3056, "lon": 5.2082}, {"nom": "Vizille", "cp": "38220", "dept": "38", "lat": 45.0728, "lon": 5.7813}, {"nom": "Voiron", "cp": "38500", "dept": "38", "lat": 45.3805, "lon": 5.5869}, {"nom": "Voissant", "cp": "38620", "dept": "38", "lat": 45.4807, "lon": 5.7045}, {"nom": "Voreppe", "cp": "38340", "dept": "38", "lat": 45.2861, "lon": 5.6417}, {"nom": "Vourey", "cp": "38210", "dept": "38", "lat": 45.3153, "lon": 5.5205}, {"nom": "Chamrousse", "cp": "38410", "dept": "38", "lat": 45.1177, "lon": 5.9009}]